{"active": 1, "time": "2018-04-11T08:17:28.102Z", "sky": [{"device": "/dev/ttyUSB0", "hdop": 1.4, "time": "1970-01-01T00:00:00.000Z", "class": "SKY"}], "class": "POLL", "gst": [{"lon": 0.0, "device": "/dev/ttyUSB0", "orient": 0.0, "alt": 0.0, "minor": 0.0, "time": "1970-01-01T00:00:00.000Z", "major": 0.0, "class": "GST", "rms": 0.0, "lat": 0.0}], "tpv": [{"speed": 0.125, "ept": 0.005, "device": "/dev/ttyUSB0", "alt": 279.947, "mode": 3, "time": "2020-06-20T14:47:56.040Z", "climb": 0.01, "lon": -84.641482733, "class": "TPV", "lat": 33.756581944, "track": 92.9836}]}
{"active": 1, "time": "2018-04-11T08:17:33.205Z", "sky": [{"tdop": 5.55, "device": "/dev/ttyUSB0", "hdop": 0.8, "satellites": [{"PRN": 7, "az": 168, "ss": 41, "el": 55, "used": true}, {"PRN": 11, "az": 49, "ss": 32, "el": 39, "used": true}, {"PRN": 28, "az": 318, "ss": 24, "el": 48, "used": true}, {"PRN": 1, "az": 87, "ss": 36, "el": 53, "used": true}, {"PRN": 30, "az": 249, "ss": 24, "el": 74, "used": false}, {"PRN": 8, "az": 51, "ss": 25, "el": 14, "used": true}, {"PRN": 13, "az": 292, "ss": 23, "el": 18, "used": true}, {"PRN": 17, "az": 247, "ss": 26, "el": 40, "used": true}, {"PRN": 19, "az": 238, "ss": 24, "el": 17, "used": true}, {"PRN": 22, "az": 105, "ss": 25, "el": 6, "used": true}, {"PRN": 18, "az": 48, "ss": 0, "el": 27, "used": false}, {"PRN": 133, "az": 240, "ss": 0, "el": 28, "used": false}], "time": "2020-06-20T14:48:01.000Z", "pdop": 7.08, "gdop": 9.0, "class": "SKY", "ydop": 1.61, "vdop": 6.77, "xdop": 1.31}], "class": "POLL", "gst": [{"lon": 0.0, "device": "/dev/ttyUSB0", "orient": 0.0, "alt": 0.0, "minor": 0.0, "time": "1970-01-01T00:00:00.000Z", "major": 0.0, "class": "GST", "rms": 0.0, "lat": 0.0}], "tpv": [{"eps": 48.19, "ept": 0.005, "device": "/dev/ttyUSB0", "alt": 288.586, "mode": 3, "epc": 311.31, "class": "TPV", "lat": 33.756551579, "epy": 24.097, "speed": 0.393, "track": 108.2873, "epv": 155.654, "time": "2020-06-20T14:48:02.000Z", "lon": -84.641481058, "climb": -0.04, "epx": 19.717}]}
{"active": 1, "time": "2018-04-11T08:17:38.237Z", "sky": [{"tdop": 5.55, "device": "/dev/ttyUSB0", "hdop": 0.8, "satellites": [{"PRN": 7, "az": 168, "ss": 30, "el": 55, "used": true}, {"PRN": 11, "az": 49, "ss": 29, "el": 39, "used": true}, {"PRN": 28, "az": 318, "ss": 33, "el": 48, "used": true}, {"PRN": 1, "az": 87, "ss": 37, "el": 53, "used": true}, {"PRN": 30, "az": 249, "ss": 31, "el": 74, "used": true}, {"PRN": 8, "az": 51, "ss": 22, "el": 14, "used": true}, {"PRN": 13, "az": 292, "ss": 29, "el": 18, "used": true}, {"PRN": 17, "az": 247, "ss": 27, "el": 40, "used": true}, {"PRN": 19, "az": 238, "ss": 22, "el": 17, "used": true}, {"PRN": 22, "az": 105, "ss": 24, "el": 6, "used": true}, {"PRN": 18, "az": 48, "ss": 0, "el": 27, "used": false}, {"PRN": 133, "az": 240, "ss": 0, "el": 28, "used": false}], "time": "2020-06-20T14:48:07.000Z", "pdop": 7.08, "gdop": 9.0, "class": "SKY", "ydop": 1.61, "vdop": 6.77, "xdop": 1.31}], "class": "POLL", "gst": [{"lon": 0.0, "device": "/dev/ttyUSB0", "orient": 0.0, "alt": 0.0, "minor": 0.0, "time": "1970-01-01T00:00:00.000Z", "major": 0.0, "class": "GST", "rms": 0.0, "lat": 0.0}], "tpv": [{"eps": 48.19, "ept": 0.005, "device": "/dev/ttyUSB0", "alt": 287.603, "mode": 3, "epc": 311.31, "class": "TPV", "lat": 33.756557502, "epy": 24.097, "speed": 0.21, "track": 9.5813, "epv": 155.654, "time": "2020-06-20T14:48:07.000Z", "lon": -84.641501543, "climb": -0.31, "epx": 19.717}]}
{"active": 1, "time": "2018-04-11T08:17:43.269Z", "sky": [{"tdop": 5.55, "device": "/dev/ttyUSB0", "hdop": 0.8, "satellites": [{"PRN": 7, "az": 168, "ss": 36, "el": 55, "used": true}, {"PRN": 11, "az": 49, "ss": 36, "el": 39, "used": true}, {"PRN": 28, "az": 318, "ss": 26, "el": 48, "used": true}, {"PRN": 1, "az": 87, "ss": 36, "el": 53, "used": true}, {"PRN": 30, "az": 249, "ss": 32, "el": 74, "used": true}, {"PRN": 8, "az": 51, "ss": 22, "el": 14, "used": true}, {"PRN": 13, "az": 292, "ss": 29, "el": 18, "used": true}, {"PRN": 17, "az": 247, "ss": 27, "el": 40, "used": true}, {"PRN": 19, "az": 238, "ss": 22, "el": 17, "used": true}, {"PRN": 22, "az": 105, "ss": 18, "el": 6, "used": true}, {"PRN": 18, "az": 48, "ss": 0, "el": 27, "used": false}, {"PRN": 133, "az": 240, "ss": 0, "el": 28, "used": false}], "time": "2020-06-20T14:48:10.000Z", "pdop": 7.08, "gdop": 9.0, "class": "SKY", "ydop": 1.61, "vdop": 6.77, "xdop": 1.31}], "class": "POLL", "gst": [{"lon": 0.0, "device": "/dev/ttyUSB0", "orient": 0.0, "alt": 0.0, "minor": 0.0, "time": "1970-01-01T00:00:00.000Z", "major": 0.0, "class": "GST", "rms": 0.0, "lat": 0.0}], "tpv": [{"eps": 48.19, "ept": 0.005, "device": "/dev/ttyUSB0", "alt": 284.008, "mode": 3, "epc": 311.31, "class": "TPV", "lat": 33.756557474, "epy": 24.097, "speed": 0.759, "track": 87.717, "epv": 155.654, "time": "2020-06-20T14:48:12.000Z", "lon": -84.641498519, "climb": -0.045, "epx": 19.717}]}
{"active": 1, "time": "2018-04-11T08:17:49.104Z", "sky": [{"tdop": 5.55, "device": "/dev/ttyUSB0", "hdop": 0.8, "satellites": [{"PRN": 7, "az": 168, "ss": 36, "el": 55, "used": true}, {"PRN": 11, "az": 49, "ss": 35, "el": 39, "used": true}, {"PRN": 28, "az": 318, "ss": 36, "el": 48, "used": true}, {"PRN": 1, "az": 87, "ss": 39, "el": 53, "used": true}, {"PRN": 30, "az": 249, "ss": 43, "el": 74, "used": true}, {"PRN": 8, "az": 51, "ss": 24, "el": 14, "used": true}, {"PRN": 13, "az": 292, "ss": 25, "el": 18, "used": true}, {"PRN": 17, "az": 247, "ss": 30, "el": 40, "used": true}, {"PRN": 19, "az": 238, "ss": 22, "el": 17, "used": true}, {"PRN": 22, "az": 105, "ss": 21, "el": 6, "used": true}, {"PRN": 18, "az": 48, "ss": 0, "el": 27, "used": false}, {"PRN": 133, "az": 240, "ss": 27, "el": 28, "used": true}], "time": "2020-06-20T14:48:16.000Z", "pdop": 7.08, "gdop": 9.0, "class": "SKY", "ydop": 1.61, "vdop": 6.77, "xdop": 1.31}], "class": "POLL", "gst": [{"lon": 0.0, "device": "/dev/ttyUSB0", "orient": 0.0, "alt": 0.0, "minor": 0.0, "time": "1970-01-01T00:00:00.000Z", "major": 0.0, "class": "GST", "rms": 0.0, "lat": 0.0}], "tpv": [{"eps": 48.19, "ept": 0.005, "device": "/dev/ttyUSB0", "alt": 283.84, "mode": 3, "epc": 311.31, "class": "TPV", "lat": 33.75654764, "epy": 24.097, "speed": 1.279, "track": 105.4986, "epv": 155.654, "time": "2020-06-20T14:48:18.000Z", "lon": -84.641444789, "climb": 0.062, "epx": 19.717}]}
{"active": 1, "time": "2018-04-11T08:17:54.122Z", "sky": [{"tdop": 5.55, "device": "/dev/ttyUSB0", "hdop": 0.8, "satellites": [{"PRN": 7, "az": 168, "ss": 37, "el": 55, "used": true}, {"PRN": 11, "az": 49, "ss": 26, "el": 39, "used": true}, {"PRN": 28, "az": 318, "ss": 32, "el": 48, "used": true}, {"PRN": 1, "az": 87, "ss": 38, "el": 53, "used": true}, {"PRN": 30, "az": 249, "ss": 44, "el": 74, "used": true}, {"PRN": 8, "az": 51, "ss": 23, "el": 14, "used": true}, {"PRN": 13, "az": 292, "ss": 26, "el": 18, "used": true}, {"PRN": 17, "az": 247, "ss": 35, "el": 40, "used": true}, {"PRN": 19, "az": 238, "ss": 23, "el": 17, "used": true}, {"PRN": 22, "az": 105, "ss": 22, "el": 6, "used": true}, {"PRN": 18, "az": 48, "ss": 0, "el": 27, "used": false}, {"PRN": 133, "az": 240, "ss": 34, "el": 28, "used": true}], "time": "2020-06-20T14:48:22.000Z", "pdop": 7.08, "gdop": 9.0, "class": "SKY", "ydop": 1.61, "vdop": 6.77, "xdop": 1.31}], "class": "POLL", "gst": [{"lon": 0.0, "device": "/dev/ttyUSB0", "orient": 0.0, "alt": 0.0, "minor": 0.0, "time": "1970-01-01T00:00:00.000Z", "major": 0.0, "class": "GST", "rms": 0.0, "lat": 0.0}], "tpv": [{"eps": 48.19, "ept": 0.005, "device": "/dev/ttyUSB0", "alt": 285.69, "mode": 3, "epc": 311.31, "class": "TPV", "lat": 33.75654734, "epy": 24.097, "speed": 1.358, "track": 91.5438, "epv": 155.654, "time": "2020-06-20T14:48:23.000Z", "lon": -84.641381321, "climb": 0.28, "epx": 19.717}]}
{"active": 1, "time": "2018-04-11T08:17:59.148Z", "sky": [{"tdop": 5.55, "device": "/dev/ttyUSB0", "hdop": 0.8, "satellites": [{"PRN": 7, "az": 168, "ss": 38, "el": 55, "used": true}, {"PRN": 11, "az": 49, "ss": 29, "el": 39, "used": true}, {"PRN": 28, "az": 318, "ss": 32, "el": 48, "used": true}, {"PRN": 1, "az": 87, "ss": 38, "el": 53, "used": true}, {"PRN": 30, "az": 249, "ss": 43, "el": 74, "used": true}, {"PRN": 8, "az": 51, "ss": 23, "el": 14, "used": true}, {"PRN": 13, "az": 292, "ss": 27, "el": 18, "used": true}, {"PRN": 17, "az": 247, "ss": 42, "el": 40, "used": true}, {"PRN": 19, "az": 238, "ss": 27, "el": 17, "used": true}, {"PRN": 22, "az": 105, "ss": 22, "el": 6, "used": true}, {"PRN": 18, "az": 48, "ss": 0, "el": 27, "used": false}, {"PRN": 133, "az": 240, "ss": 29, "el": 28, "used": true}], "time": "2020-06-20T14:48:28.000Z", "pdop": 7.08, "gdop": 9.0, "class": "SKY", "ydop": 1.61, "vdop": 6.77, "xdop": 1.31}], "class": "POLL", "gst": [{"lon": 0.0, "device": "/dev/ttyUSB0", "orient": 0.0, "alt": 0.0, "minor": 0.0, "time": "1970-01-01T00:00:00.000Z", "major": 0.0, "class": "GST", "rms": 0.0, "lat": 0.0}], "tpv": [{"eps": 48.19, "ept": 0.005, "device": "/dev/ttyUSB0", "alt": 288.172, "mode": 3, "epc": 311.31, "class": "TPV", "lat": 33.756554069, "epy": 24.097, "speed": 1.396, "track": 81.528, "epv": 155.654, "time": "2020-06-20T14:48:28.000Z", "lon": -84.641307107, "climb": 0.142, "epx": 19.717}]}
{"active": 1, "time": "2018-04-11T08:18:04.177Z", "sky": [{"tdop": 5.55, "device": "/dev/ttyUSB0", "hdop": 0.8, "satellites": [{"PRN": 7, "az": 168, "ss": 39, "el": 55, "used": true}, {"PRN": 11, "az": 49, "ss": 29, "el": 39, "used": true}, {"PRN": 28, "az": 318, "ss": 32, "el": 48, "used": true}, {"PRN": 1, "az": 87, "ss": 38, "el": 53, "used": true}, {"PRN": 30, "az": 249, "ss": 43, "el": 74, "used": true}, {"PRN": 8, "az": 51, "ss": 22, "el": 14, "used": true}, {"PRN": 13, "az": 292, "ss": 0, "el": 18, "used": false}, {"PRN": 17, "az": 247, "ss": 42, "el": 40, "used": true}, {"PRN": 19, "az": 238, "ss": 28, "el": 17, "used": true}, {"PRN": 22, "az": 105, "ss": 22, "el": 6, "used": true}, {"PRN": 18, "az": 48, "ss": 0, "el": 27, "used": false}, {"PRN": 133, "az": 240, "ss": 33, "el": 28, "used": true}], "time": "2020-06-20T14:48:31.000Z", "pdop": 7.08, "gdop": 9.0, "class": "SKY", "ydop": 1.61, "vdop": 6.77, "xdop": 1.31}], "class": "POLL", "gst": [{"lon": 0.0, "device": "/dev/ttyUSB0", "orient": 0.0, "alt": 0.0, "minor": 0.0, "time": "1970-01-01T00:00:00.000Z", "major": 0.0, "class": "GST", "rms": 0.0, "lat": 0.0}], "tpv": [{"eps": 48.19, "ept": 0.005, "device": "/dev/ttyUSB0", "alt": 287.538, "mode": 3, "epc": 311.31, "class": "TPV", "lat": 33.756568732, "epy": 24.097, "speed": 1.393, "track": 67.93, "epv": 155.654, "time": "2020-06-20T14:48:33.000Z", "lon": -84.641240615, "climb": -0.108, "epx": 19.717}]}
{"active": 1, "time": "2018-04-11T08:18:09.210Z", "sky": [{"tdop": 5.55, "device": "/dev/ttyUSB0", "hdop": 1.8, "satellites": [{"PRN": 7, "az": 168, "ss": 34, "el": 55, "used": true}, {"PRN": 11, "az": 49, "ss": 29, "el": 39, "used": true}, {"PRN": 28, "az": 319, "ss": 36, "el": 48, "used": true}, {"PRN": 1, "az": 87, "ss": 33, "el": 53, "used": true}, {"PRN": 30, "az": 249, "ss": 43, "el": 74, "used": true}, {"PRN": 8, "az": 51, "ss": 22, "el": 14, "used": true}, {"PRN": 13, "az": 292, "ss": 26, "el": 18, "used": true}, {"PRN": 17, "az": 249, "ss": 43, "el": 40, "used": true}, {"PRN": 19, "az": 238, "ss": 28, "el": 17, "used": true}, {"PRN": 22, "az": 105, "ss": 22, "el": 6, "used": true}, {"PRN": 18, "az": 48, "ss": 0, "el": 26, "used": false}, {"PRN": 133, "az": 240, "ss": 41, "el": 28, "used": true}], "time": "2020-06-20T14:48:37.000Z", "pdop": 7.08, "gdop": 9.0, "class": "SKY", "ydop": 1.61, "vdop": 6.77, "xdop": 1.31}], "class": "POLL", "gst": [{"lon": 0.0, "device": "/dev/ttyUSB0", "orient": 0.0, "alt": 0.0, "minor": 0.0, "time": "1970-01-01T00:00:00.000Z", "major": 0.0, "class": "GST", "rms": 0.0, "lat": 0.0}], "tpv": [{"eps": 30.12, "ept": 0.005, "device": "/dev/ttyUSB0", "alt": 287.033, "mode": 3, "epc": 194.57, "class": "TPV", "lat": 33.75660431, "epy": 6.024, "speed": 1.381, "track": 57.6909, "epv": 38.914, "time": "2020-06-20T14:48:38.000Z", "lon": -84.641194607, "climb": 0.021, "epx": 4.929}]}
{"active": 1, "time": "2018-04-11T08:18:14.240Z", "sky": [{"tdop": 5.55, "device": "/dev/ttyUSB0", "hdop": 0.8, "satellites": [{"PRN": 7, "az": 168, "ss": 33, "el": 55, "used": true}, {"PRN": 11, "az": 49, "ss": 31, "el": 39, "used": true}, {"PRN": 28, "az": 319, "ss": 32, "el": 48, "used": true}, {"PRN": 1, "az": 87, "ss": 31, "el": 53, "used": true}, {"PRN": 30, "az": 249, "ss": 36, "el": 74, "used": true}, {"PRN": 8, "az": 51, "ss": 23, "el": 14, "used": true}, {"PRN": 13, "az": 292, "ss": 26, "el": 18, "used": true}, {"PRN": 17, "az": 249, "ss": 41, "el": 40, "used": true}, {"PRN": 19, "az": 238, "ss": 28, "el": 17, "used": true}, {"PRN": 22, "az": 105, "ss": 22, "el": 6, "used": true}, {"PRN": 18, "az": 48, "ss": 0, "el": 26, "used": false}, {"PRN": 133, "az": 240, "ss": 38, "el": 28, "used": true}], "time": "2020-06-20T14:48:43.000Z", "pdop": 7.08, "gdop": 9.0, "class": "SKY", "ydop": 1.61, "vdop": 6.77, "xdop": 1.31}], "class": "POLL", "gst": [{"lon": 0.0, "device": "/dev/ttyUSB0", "orient": 0.0, "alt": 0.0, "minor": 0.0, "time": "1970-01-01T00:00:00.000Z", "major": 0.0, "class": "GST", "rms": 0.0, "lat": 0.0}], "tpv": [{"eps": 12.05, "ept": 0.005, "device": "/dev/ttyUSB0", "alt": 286.605, "mode": 3, "epc": 77.83, "class": "TPV", "lat": 33.756639419, "epy": 6.024, "speed": 1.178, "track": 61.0012, "epv": 38.914, "time": "2020-06-20T14:48:43.000Z", "lon": -84.641137853, "climb": 0.045, "epx": 4.929}]}
{"active": 1, "time": "2018-04-11T08:18:19.272Z", "sky": [{"tdop": 5.55, "device": "/dev/ttyUSB0", "hdop": 0.8, "satellites": [{"PRN": 7, "az": 168, "ss": 33, "el": 55, "used": true}, {"PRN": 11, "az": 49, "ss": 35, "el": 39, "used": true}, {"PRN": 28, "az": 319, "ss": 32, "el": 48, "used": true}, {"PRN": 1, "az": 87, "ss": 31, "el": 53, "used": true}, {"PRN": 30, "az": 249, "ss": 36, "el": 74, "used": true}, {"PRN": 8, "az": 51, "ss": 23, "el": 14, "used": true}, {"PRN": 13, "az": 292, "ss": 25, "el": 18, "used": true}, {"PRN": 17, "az": 249, "ss": 39, "el": 40, "used": true}, {"PRN": 19, "az": 238, "ss": 28, "el": 17, "used": true}, {"PRN": 22, "az": 105, "ss": 22, "el": 6, "used": true}, {"PRN": 18, "az": 48, "ss": 0, "el": 26, "used": false}, {"PRN": 133, "az": 240, "ss": 38, "el": 28, "used": true}], "time": "2020-06-20T14:48:46.000Z", "pdop": 7.08, "gdop": 9.0, "class": "SKY", "ydop": 1.61, "vdop": 6.77, "xdop": 1.31}], "class": "POLL", "gst": [{"lon": 0.0, "device": "/dev/ttyUSB0", "orient": 0.0, "alt": 0.0, "minor": 0.0, "time": "1970-01-01T00:00:00.000Z", "major": 0.0, "class": "GST", "rms": 0.0, "lat": 0.0}], "tpv": [{"eps": 12.05, "ept": 0.005, "device": "/dev/ttyUSB0", "alt": 285.982, "mode": 3, "epc": 77.83, "class": "TPV", "lat": 33.756686544, "epy": 6.024, "speed": 1.445, "track": 40.6295, "epv": 38.914, "time": "2020-06-20T14:48:48.000Z", "lon": -84.641069345, "climb": -0.067, "epx": 4.929}]}
{"active": 1, "time": "2018-04-11T08:18:24.303Z", "sky": [{"tdop": 5.55, "device": "/dev/ttyUSB0", "hdop": 0.8, "satellites": [{"PRN": 7, "az": 168, "ss": 26, "el": 55, "used": true}, {"PRN": 11, "az": 49, "ss": 30, "el": 39, "used": true}, {"PRN": 28, "az": 319, "ss": 33, "el": 48, "used": true}, {"PRN": 1, "az": 87, "ss": 36, "el": 53, "used": true}, {"PRN": 30, "az": 249, "ss": 41, "el": 74, "used": true}, {"PRN": 8, "az": 51, "ss": 23, "el": 14, "used": true}, {"PRN": 13, "az": 292, "ss": 25, "el": 18, "used": true}, {"PRN": 17, "az": 249, "ss": 33, "el": 40, "used": true}, {"PRN": 19, "az": 238, "ss": 28, "el": 17, "used": true}, {"PRN": 22, "az": 105, "ss": 26, "el": 6, "used": true}, {"PRN": 18, "az": 48, "ss": 0, "el": 26, "used": false}, {"PRN": 133, "az": 240, "ss": 35, "el": 28, "used": true}], "time": "2020-06-20T14:48:52.000Z", "pdop": 7.08, "gdop": 9.0, "class": "SKY", "ydop": 1.61, "vdop": 6.77, "xdop": 1.31}], "class": "POLL", "gst": [{"lon": 0.0, "device": "/dev/ttyUSB0", "orient": 0.0, "alt": 0.0, "minor": 0.0, "time": "1970-01-01T00:00:00.000Z", "major": 0.0, "class": "GST", "rms": 0.0, "lat": 0.0}], "tpv": [{"eps": 12.05, "ept": 0.005, "device": "/dev/ttyUSB0", "alt": 286.471, "mode": 3, "epc": 77.83, "class": "TPV", "lat": 33.75674866, "epy": 6.024, "speed": 1.484, "track": 60.4721, "epv": 38.914, "time": "2020-06-20T14:48:54.000Z", "lon": -84.641000836, "climb": 0.03, "epx": 4.929}]}
{"active": 1, "time": "2018-04-11T08:18:29.332Z", "sky": [{"tdop": 5.55, "device": "/dev/ttyUSB0", "hdop": 0.8, "satellites": [{"PRN": 7, "az": 168, "ss": 30, "el": 55, "used": true}, {"PRN": 11, "az": 49, "ss": 32, "el": 39, "used": true}, {"PRN": 28, "az": 319, "ss": 36, "el": 48, "used": true}, {"PRN": 1, "az": 87, "ss": 36, "el": 53, "used": true}, {"PRN": 30, "az": 249, "ss": 41, "el": 74, "used": true}, {"PRN": 8, "az": 51, "ss": 23, "el": 14, "used": true}, {"PRN": 13, "az": 292, "ss": 25, "el": 18, "used": true}, {"PRN": 17, "az": 249, "ss": 32, "el": 40, "used": true}, {"PRN": 19, "az": 238, "ss": 30, "el": 17, "used": true}, {"PRN": 22, "az": 105, "ss": 24, "el": 6, "used": true}, {"PRN": 18, "az": 48, "ss": 0, "el": 26, "used": false}, {"PRN": 133, "az": 240, "ss": 37, "el": 28, "used": true}], "time": "2020-06-20T14:48:58.000Z", "pdop": 7.08, "gdop": 9.0, "class": "SKY", "ydop": 1.61, "vdop": 6.77, "xdop": 1.31}], "class": "POLL", "gst": [{"lon": 0.0, "device": "/dev/ttyUSB0", "orient": 0.0, "alt": 0.0, "minor": 0.0, "time": "1970-01-01T00:00:00.000Z", "major": 0.0, "class": "GST", "rms": 0.0, "lat": 0.0}], "tpv": [{"eps": 12.05, "ept": 0.005, "device": "/dev/ttyUSB0", "alt": 286.276, "mode": 3, "epc": 77.83, "class": "TPV", "lat": 33.756782366, "epy": 6.024, "speed": 1.484, "track": 60.4721, "epv": 38.914, "time": "2020-06-20T14:48:59.000Z", "lon": -84.640911844, "climb": 0.03, "epx": 4.929}]}
{"active": 1, "time": "2018-04-11T08:18:34.364Z", "sky": [{"tdop": 5.55, "device": "/dev/ttyUSB0", "hdop": 0.8, "satellites": [{"PRN": 7, "az": 168, "ss": 31, "el": 55, "used": true}, {"PRN": 11, "az": 49, "ss": 36, "el": 39, "used": true}, {"PRN": 28, "az": 319, "ss": 33, "el": 48, "used": true}, {"PRN": 1, "az": 87, "ss": 36, "el": 53, "used": true}, {"PRN": 30, "az": 249, "ss": 40, "el": 74, "used": true}, {"PRN": 8, "az": 51, "ss": 23, "el": 14, "used": true}, {"PRN": 13, "az": 292, "ss": 29, "el": 18, "used": true}, {"PRN": 17, "az": 249, "ss": 34, "el": 40, "used": true}, {"PRN": 19, "az": 238, "ss": 30, "el": 17, "used": true}, {"PRN": 22, "az": 105, "ss": 24, "el": 6, "used": true}, {"PRN": 18, "az": 48, "ss": 0, "el": 26, "used": false}, {"PRN": 133, "az": 240, "ss": 34, "el": 28, "used": true}], "time": "2020-06-20T14:49:01.000Z", "pdop": 7.08, "gdop": 9.0, "class": "SKY", "ydop": 1.61, "vdop": 6.77, "xdop": 1.31}], "class": "POLL", "gst": [{"lon": 0.0, "device": "/dev/ttyUSB0", "orient": 0.0, "alt": 0.0, "minor": 0.0, "time": "1970-01-01T00:00:00.000Z", "major": 0.0, "class": "GST", "rms": 0.0, "lat": 0.0}], "tpv": [{"eps": 12.05, "ept": 0.005, "device": "/dev/ttyUSB0", "alt": 285.242, "mode": 3, "epc": 77.83, "class": "TPV", "lat": 33.756788598, "epy": 6.024, "speed": 1.766, "track": 88.4595, "epv": 38.914, "time": "2020-06-20T14:49:03.000Z", "lon": -84.64082386, "climb": -0.071, "epx": 4.929}]}
{"active": 1, "time": "2018-04-11T08:18:39.395Z", "sky": [{"tdop": 5.55, "device": "/dev/ttyUSB0", "hdop": 0.8, "satellites": [{"PRN": 7, "az": 168, "ss": 36, "el": 55, "used": true}, {"PRN": 11, "az": 49, "ss": 37, "el": 39, "used": true}, {"PRN": 28, "az": 319, "ss": 37, "el": 48, "used": true}, {"PRN": 1, "az": 87, "ss": 37, "el": 53, "used": true}, {"PRN": 30, "az": 249, "ss": 40, "el": 74, "used": true}, {"PRN": 8, "az": 51, "ss": 22, "el": 14, "used": true}, {"PRN": 13, "az": 292, "ss": 27, "el": 18, "used": true}, {"PRN": 17, "az": 249, "ss": 42, "el": 40, "used": true}, {"PRN": 19, "az": 238, "ss": 34, "el": 17, "used": true}, {"PRN": 22, "az": 105, "ss": 24, "el": 6, "used": true}, {"PRN": 18, "az": 48, "ss": 0, "el": 26, "used": false}, {"PRN": 133, "az": 240, "ss": 37, "el": 28, "used": true}], "time": "2020-06-20T14:49:07.000Z", "pdop": 7.08, "gdop": 9.0, "class": "SKY", "ydop": 1.61, "vdop": 6.77, "xdop": 1.31}], "class": "POLL", "gst": [{"lon": 0.0, "device": "/dev/ttyUSB0", "orient": 0.0, "alt": 0.0, "minor": 0.0, "time": "1970-01-01T00:00:00.000Z", "major": 0.0, "class": "GST", "rms": 0.0, "lat": 0.0}], "tpv": [{"eps": 12.05, "ept": 0.005, "device": "/dev/ttyUSB0", "alt": 284.724, "mode": 3, "epc": 77.83, "class": "TPV", "lat": 33.756813405, "epy": 6.024, "speed": 1.518, "track": 87.7174, "epv": 38.914, "time": "2020-06-20T14:49:09.000Z", "lon": -84.640702629, "climb": -0.09, "epx": 4.929}]}
{"active": 1, "time": "2018-04-11T08:18:44.424Z", "sky": [{"tdop": 5.55, "device": "/dev/ttyUSB0", "hdop": 0.8, "satellites": [{"PRN": 7, "az": 168, "ss": 32, "el": 55, "used": true}, {"PRN": 11, "az": 49, "ss": 30, "el": 39, "used": true}, {"PRN": 28, "az": 319, "ss": 39, "el": 48, "used": true}, {"PRN": 1, "az": 87, "ss": 37, "el": 53, "used": true}, {"PRN": 30, "az": 249, "ss": 42, "el": 74, "used": true}, {"PRN": 8, "az": 51, "ss": 22, "el": 14, "used": true}, {"PRN": 13, "az": 292, "ss": 27, "el": 18, "used": true}, {"PRN": 17, "az": 249, "ss": 32, "el": 40, "used": true}, {"PRN": 19, "az": 238, "ss": 27, "el": 17, "used": true}, {"PRN": 22, "az": 105, "ss": 23, "el": 6, "used": true}, {"PRN": 18, "az": 48, "ss": 0, "el": 26, "used": false}, {"PRN": 133, "az": 240, "ss": 30, "el": 28, "used": true}], "time": "2020-06-20T14:49:13.000Z", "pdop": 7.08, "gdop": 9.0, "class": "SKY", "ydop": 1.61, "vdop": 6.77, "xdop": 1.31}], "class": "POLL", "gst": [{"lon": 0.0, "device": "/dev/ttyUSB0", "orient": 0.0, "alt": 0.0, "minor": 0.0, "time": "1970-01-01T00:00:00.000Z", "major": 0.0, "class": "GST", "rms": 0.0, "lat": 0.0}], "tpv": [{"eps": 12.05, "ept": 0.005, "device": "/dev/ttyUSB0", "alt": 284.712, "mode": 3, "epc": 77.83, "class": "TPV", "lat": 33.756802634, "epy": 6.024, "speed": 1.505, "track": 90.331, "epv": 38.914, "time": "2020-06-20T14:49:14.000Z", "lon": -84.640627407, "climb": 0.013, "epx": 4.929}]}
{"active": 1, "time": "2018-04-11T08:18:49.451Z", "sky": [{"tdop": 5.55, "device": "/dev/ttyUSB0", "hdop": 0.8, "satellites": [{"PRN": 7, "az": 168, "ss": 32, "el": 55, "used": true}, {"PRN": 11, "az": 49, "ss": 29, "el": 39, "used": true}, {"PRN": 28, "az": 319, "ss": 39, "el": 48, "used": true}, {"PRN": 1, "az": 87, "ss": 38, "el": 53, "used": true}, {"PRN": 30, "az": 249, "ss": 41, "el": 74, "used": true}, {"PRN": 8, "az": 51, "ss": 22, "el": 14, "used": true}, {"PRN": 13, "az": 292, "ss": 29, "el": 18, "used": true}, {"PRN": 17, "az": 249, "ss": 35, "el": 40, "used": true}, {"PRN": 19, "az": 238, "ss": 27, "el": 17, "used": true}, {"PRN": 22, "az": 105, "ss": 23, "el": 6, "used": true}, {"PRN": 18, "az": 48, "ss": 0, "el": 26, "used": false}, {"PRN": 133, "az": 240, "ss": 30, "el": 28, "used": true}], "time": "2020-06-20T14:49:16.000Z", "pdop": 7.08, "gdop": 9.0, "class": "SKY", "ydop": 1.61, "vdop": 6.77, "xdop": 1.31}], "class": "POLL", "gst": [{"lon": 0.0, "device": "/dev/ttyUSB0", "orient": 0.0, "alt": 0.0, "minor": 0.0, "time": "1970-01-01T00:00:00.000Z", "major": 0.0, "class": "GST", "rms": 0.0, "lat": 0.0}], "tpv": [{"eps": 12.05, "ept": 0.005, "device": "/dev/ttyUSB0", "alt": 285.1, "mode": 3, "epc": 77.83, "class": "TPV", "lat": 33.756800295, "epy": 6.024, "speed": 1.256, "track": 97.7242, "epv": 38.914, "time": "2020-06-20T14:49:18.000Z", "lon": -84.640573677, "climb": 0.028, "epx": 4.929}]}
{"active": 1, "time": "2018-04-11T08:18:54.481Z", "sky": [{"tdop": 5.55, "device": "/dev/ttyUSB0", "hdop": 0.8, "satellites": [{"PRN": 7, "az": 168, "ss": 32, "el": 55, "used": true}, {"PRN": 11, "az": 49, "ss": 35, "el": 39, "used": true}, {"PRN": 28, "az": 319, "ss": 39, "el": 48, "used": true}, {"PRN": 1, "az": 87, "ss": 37, "el": 53, "used": true}, {"PRN": 30, "az": 249, "ss": 42, "el": 74, "used": true}, {"PRN": 8, "az": 51, "ss": 21, "el": 14, "used": true}, {"PRN": 13, "az": 292, "ss": 30, "el": 18, "used": true}, {"PRN": 17, "az": 249, "ss": 38, "el": 40, "used": true}, {"PRN": 19, "az": 238, "ss": 26, "el": 17, "used": true}, {"PRN": 22, "az": 105, "ss": 23, "el": 6, "used": true}, {"PRN": 18, "az": 48, "ss": 0, "el": 26, "used": false}, {"PRN": 133, "az": 240, "ss": 29, "el": 28, "used": true}], "time": "2020-06-20T14:49:22.000Z", "pdop": 7.08, "gdop": 9.0, "class": "SKY", "ydop": 1.61, "vdop": 6.77, "xdop": 1.31}], "class": "POLL", "gst": [{"lon": 0.0, "device": "/dev/ttyUSB0", "orient": 0.0, "alt": 0.0, "minor": 0.0, "time": "1970-01-01T00:00:00.000Z", "major": 0.0, "class": "GST", "rms": 0.0, "lat": 0.0}], "tpv": [{"eps": 12.05, "ept": 0.005, "device": "/dev/ttyUSB0", "alt": 285.228, "mode": 3, "epc": 77.83, "class": "TPV", "lat": 33.756842899, "epy": 6.024, "speed": 1.186, "track": 356.8049, "epv": 38.914, "time": "2020-06-20T14:49:24.000Z", "lon": -84.640516923, "climb": 0.029, "epx": 4.929}]}
{"active": 1, "time": "2018-04-11T08:18:59.508Z", "sky": [{"tdop": 5.55, "device": "/dev/ttyUSB0", "hdop": 0.8, "satellites": [{"PRN": 7, "az": 168, "ss": 30, "el": 55, "used": true}, {"PRN": 11, "az": 49, "ss": 34, "el": 39, "used": true}, {"PRN": 28, "az": 319, "ss": 37, "el": 48, "used": true}, {"PRN": 1, "az": 87, "ss": 33, "el": 53, "used": true}, {"PRN": 30, "az": 249, "ss": 37, "el": 74, "used": true}, {"PRN": 8, "az": 51, "ss": 21, "el": 14, "used": true}, {"PRN": 13, "az": 292, "ss": 30, "el": 18, "used": true}, {"PRN": 17, "az": 249, "ss": 32, "el": 40, "used": true}, {"PRN": 19, "az": 238, "ss": 24, "el": 17, "used": true}, {"PRN": 22, "az": 105, "ss": 23, "el": 6, "used": true}, {"PRN": 18, "az": 48, "ss": 0, "el": 26, "used": false}, {"PRN": 133, "az": 240, "ss": 30, "el": 28, "used": true}], "time": "2020-06-20T14:49:28.000Z", "pdop": 7.08, "gdop": 9.0, "class": "SKY", "ydop": 1.61, "vdop": 6.77, "xdop": 1.31}], "class": "POLL", "gst": [{"lon": 0.0, "device": "/dev/ttyUSB0", "orient": 0.0, "alt": 0.0, "minor": 0.0, "time": "1970-01-01T00:00:00.000Z", "major": 0.0, "class": "GST", "rms": 0.0, "lat": 0.0}], "tpv": [{"eps": 48.19, "ept": 0.005, "device": "/dev/ttyUSB0", "alt": 286.701, "mode": 3, "epc": 311.31, "class": "TPV", "lat": 33.7568774, "epy": 24.097, "speed": 0.0, "track": 0.0, "epv": 155.654, "time": "2020-06-20T14:49:29.000Z", "lon": -84.640505169, "climb": 0.0, "epx": 19.717}]}
{"active": 1, "time": "2018-04-11T08:19:04.533Z", "sky": [{"tdop": 5.55, "device": "/dev/ttyUSB0", "hdop": 0.8, "satellites": [{"PRN": 7, "az": 168, "ss": 36, "el": 55, "used": true}, {"PRN": 11, "az": 49, "ss": 31, "el": 39, "used": true}, {"PRN": 28, "az": 319, "ss": 33, "el": 48, "used": true}, {"PRN": 1, "az": 87, "ss": 32, "el": 53, "used": true}, {"PRN": 30, "az": 249, "ss": 38, "el": 74, "used": true}, {"PRN": 8, "az": 51, "ss": 21, "el": 14, "used": true}, {"PRN": 13, "az": 292, "ss": 29, "el": 18, "used": true}, {"PRN": 17, "az": 249, "ss": 33, "el": 40, "used": true}, {"PRN": 19, "az": 238, "ss": 28, "el": 17, "used": true}, {"PRN": 22, "az": 105, "ss": 18, "el": 6, "used": true}, {"PRN": 18, "az": 48, "ss": 0, "el": 26, "used": false}, {"PRN": 133, "az": 240, "ss": 31, "el": 28, "used": true}], "time": "2020-06-20T14:49:31.000Z", "pdop": 7.08, "gdop": 9.0, "class": "SKY", "ydop": 1.61, "vdop": 6.77, "xdop": 1.31}], "class": "POLL", "gst": [{"lon": 0.0, "device": "/dev/ttyUSB0", "orient": 0.0, "alt": 0.0, "minor": 0.0, "time": "1970-01-01T00:00:00.000Z", "major": 0.0, "class": "GST", "rms": 0.0, "lat": 0.0}], "tpv": [{"eps": 48.19, "ept": 0.005, "device": "/dev/ttyUSB0", "alt": 286.778, "mode": 3, "epc": 311.31, "class": "TPV", "lat": 33.756876933, "epy": 24.097, "speed": 0.0, "track": 0.0, "epv": 155.654, "time": "2020-06-20T14:49:33.000Z", "lon": -84.640494422, "climb": 0.0, "epx": 19.717}]}
{"active": 1, "time": "2018-04-11T08:19:09.564Z", "sky": [{"tdop": 5.55, "device": "/dev/ttyUSB0", "hdop": 0.8, "satellites": [{"PRN": 7, "az": 168, "ss": 30, "el": 55, "used": true}, {"PRN": 11, "az": 49, "ss": 34, "el": 39, "used": true}, {"PRN": 28, "az": 319, "ss": 37, "el": 48, "used": true}, {"PRN": 1, "az": 87, "ss": 33, "el": 53, "used": true}, {"PRN": 30, "az": 249, "ss": 32, "el": 74, "used": true}, {"PRN": 8, "az": 51, "ss": 20, "el": 14, "used": true}, {"PRN": 13, "az": 292, "ss": 20, "el": 18, "used": true}, {"PRN": 17, "az": 249, "ss": 43, "el": 40, "used": true}, {"PRN": 19, "az": 238, "ss": 31, "el": 17, "used": true}, {"PRN": 22, "az": 105, "ss": 25, "el": 6, "used": true}, {"PRN": 18, "az": 48, "ss": 0, "el": 26, "used": false}, {"PRN": 133, "az": 240, "ss": 30, "el": 28, "used": true}], "time": "2020-06-20T14:49:37.000Z", "pdop": 7.08, "gdop": 9.0, "class": "SKY", "ydop": 1.61, "vdop": 6.77, "xdop": 1.31}], "class": "POLL", "gst": [{"lon": 0.0, "device": "/dev/ttyUSB0", "orient": 0.0, "alt": 0.0, "minor": 0.0, "time": "1970-01-01T00:00:00.000Z", "major": 0.0, "class": "GST", "rms": 0.0, "lat": 0.0}], "tpv": [{"eps": 48.19, "ept": 0.005, "device": "/dev/ttyUSB0", "alt": 286.223, "mode": 3, "epc": 311.31, "class": "TPV", "lat": 33.756869437, "epy": 24.097, "speed": 0.0, "track": 0.0, "epv": 155.654, "time": "2020-06-20T14:49:39.000Z", "lon": -84.640494422, "climb": 0.0, "epx": 19.717}]}
{"active": 1, "time": "2018-04-11T08:19:14.589Z", "sky": [{"tdop": 5.55, "device": "/dev/ttyUSB0", "hdop": 0.8, "satellites": [{"PRN": 7, "az": 168, "ss": 33, "el": 55, "used": true}, {"PRN": 11, "az": 49, "ss": 35, "el": 39, "used": true}, {"PRN": 28, "az": 319, "ss": 40, "el": 48, "used": true}, {"PRN": 1, "az": 87, "ss": 34, "el": 53, "used": true}, {"PRN": 30, "az": 249, "ss": 33, "el": 74, "used": true}, {"PRN": 8, "az": 51, "ss": 23, "el": 14, "used": true}, {"PRN": 13, "az": 292, "ss": 28, "el": 18, "used": true}, {"PRN": 17, "az": 249, "ss": 43, "el": 40, "used": true}, {"PRN": 19, "az": 238, "ss": 31, "el": 17, "used": true}, {"PRN": 22, "az": 105, "ss": 20, "el": 6, "used": true}, {"PRN": 18, "az": 48, "ss": 0, "el": 26, "used": false}, {"PRN": 133, "az": 240, "ss": 31, "el": 28, "used": true}], "time": "2020-06-20T14:49:43.000Z", "pdop": 7.08, "gdop": 9.0, "class": "SKY", "ydop": 1.61, "vdop": 6.77, "xdop": 1.31}], "class": "POLL", "gst": [{"lon": 0.0, "device": "/dev/ttyUSB0", "orient": 0.0, "alt": 0.0, "minor": 0.0, "time": "1970-01-01T00:00:00.000Z", "major": 0.0, "class": "GST", "rms": 0.0, "lat": 0.0}], "tpv": [{"eps": 48.19, "ept": 0.005, "device": "/dev/ttyUSB0", "alt": 286.223, "mode": 3, "epc": 311.31, "class": "TPV", "lat": 33.756869437, "epy": 24.097, "speed": 0.0, "track": 0.0, "epv": 155.654, "time": "2020-06-20T14:49:44.000Z", "lon": -84.640494422, "climb": 0.0, "epx": 19.717}]}
{"active": 1, "time": "2018-04-11T08:19:19.617Z", "sky": [{"tdop": 5.55, "device": "/dev/ttyUSB0", "hdop": 1.0, "satellites": [{"PRN": 7, "az": 168, "ss": 32, "el": 55, "used": true}, {"PRN": 11, "az": 49, "ss": 36, "el": 39, "used": true}, {"PRN": 28, "az": 319, "ss": 39, "el": 48, "used": true}, {"PRN": 1, "az": 87, "ss": 34, "el": 53, "used": true}, {"PRN": 30, "az": 249, "ss": 32, "el": 74, "used": true}, {"PRN": 8, "az": 51, "ss": 16, "el": 14, "used": true}, {"PRN": 13, "az": 292, "ss": 23, "el": 18, "used": true}, {"PRN": 17, "az": 249, "ss": 42, "el": 40, "used": true}, {"PRN": 19, "az": 238, "ss": 31, "el": 17, "used": true}, {"PRN": 22, "az": 105, "ss": 12, "el": 6, "used": false}, {"PRN": 18, "az": 48, "ss": 0, "el": 26, "used": false}, {"PRN": 133, "az": 240, "ss": 28, "el": 28, "used": true}], "time": "2020-06-20T14:49:49.000Z", "pdop": 7.08, "gdop": 9.0, "class": "SKY", "ydop": 1.61, "vdop": 6.77, "xdop": 1.31}], "class": "POLL", "gst": [{"lon": 0.0, "device": "/dev/ttyUSB0", "orient": 0.0, "alt": 0.0, "minor": 0.0, "time": "1970-01-01T00:00:00.000Z", "major": 0.0, "class": "GST", "rms": 0.0, "lat": 0.0}], "tpv": [{"eps": 48.19, "ept": 0.005, "device": "/dev/ttyUSB0", "alt": 286.223, "mode": 3, "epc": 311.31, "class": "TPV", "lat": 33.756869437, "epy": 24.097, "speed": 0.0, "track": 0.0, "epv": 155.654, "time": "2020-06-20T14:49:48.000Z", "lon": -84.640494422, "climb": 0.0, "epx": 19.717}]}
{"active": 1, "time": "2018-04-11T08:19:24.647Z", "sky": [{"tdop": 5.55, "device": "/dev/ttyUSB0", "hdop": 0.8, "satellites": [{"PRN": 7, "az": 168, "ss": 32, "el": 54, "used": true}, {"PRN": 11, "az": 49, "ss": 36, "el": 38, "used": true}, {"PRN": 28, "az": 319, "ss": 39, "el": 48, "used": true}, {"PRN": 1, "az": 85, "ss": 33, "el": 53, "used": true}, {"PRN": 30, "az": 246, "ss": 32, "el": 74, "used": true}, {"PRN": 8, "az": 51, "ss": 16, "el": 13, "used": true}, {"PRN": 13, "az": 292, "ss": 24, "el": 18, "used": true}, {"PRN": 17, "az": 249, "ss": 42, "el": 41, "used": true}, {"PRN": 19, "az": 238, "ss": 31, "el": 17, "used": true}, {"PRN": 22, "az": 105, "ss": 25, "el": 7, "used": true}, {"PRN": 18, "az": 48, "ss": 0, "el": 26, "used": false}, {"PRN": 133, "az": 240, "ss": 30, "el": 28, "used": true}], "time": "2020-06-20T14:49:52.000Z", "pdop": 7.08, "gdop": 9.0, "class": "SKY", "ydop": 1.61, "vdop": 6.77, "xdop": 1.31}], "class": "POLL", "gst": [{"lon": 0.0, "device": "/dev/ttyUSB0", "orient": 0.0, "alt": 0.0, "minor": 0.0, "time": "1970-01-01T00:00:00.000Z", "major": 0.0, "class": "GST", "rms": 0.0, "lat": 0.0}], "tpv": [{"eps": 48.19, "ept": 0.005, "device": "/dev/ttyUSB0", "alt": 286.223, "mode": 3, "epc": 311.31, "class": "TPV", "lat": 33.756869437, "epy": 24.097, "speed": 0.0, "track": 0.0, "epv": 155.654, "time": "2020-06-20T14:49:54.000Z", "lon": -84.640494422, "climb": 0.0, "epx": 19.717}]}
{"active": 1, "time": "2018-04-11T08:19:29.673Z", "sky": [{"tdop": 5.55, "device": "/dev/ttyUSB0", "hdop": 0.8, "satellites": [{"PRN": 7, "az": 168, "ss": 36, "el": 54, "used": true}, {"PRN": 11, "az": 49, "ss": 37, "el": 38, "used": true}, {"PRN": 28, "az": 319, "ss": 39, "el": 48, "used": true}, {"PRN": 1, "az": 85, "ss": 34, "el": 53, "used": true}, {"PRN": 30, "az": 246, "ss": 31, "el": 74, "used": true}, {"PRN": 8, "az": 51, "ss": 24, "el": 13, "used": true}, {"PRN": 13, "az": 292, "ss": 24, "el": 18, "used": true}, {"PRN": 17, "az": 249, "ss": 41, "el": 41, "used": true}, {"PRN": 19, "az": 238, "ss": 31, "el": 17, "used": true}, {"PRN": 22, "az": 105, "ss": 28, "el": 7, "used": true}, {"PRN": 18, "az": 48, "ss": 0, "el": 26, "used": false}, {"PRN": 133, "az": 240, "ss": 30, "el": 28, "used": true}], "time": "2020-06-20T14:49:58.000Z", "pdop": 7.08, "gdop": 9.0, "class": "SKY", "ydop": 1.61, "vdop": 6.77, "xdop": 1.31}], "class": "POLL", "gst": [{"lon": 0.0, "device": "/dev/ttyUSB0", "orient": 0.0, "alt": 0.0, "minor": 0.0, "time": "1970-01-01T00:00:00.000Z", "major": 0.0, "class": "GST", "rms": 0.0, "lat": 0.0}], "tpv": [{"eps": 48.19, "ept": 0.005, "device": "/dev/ttyUSB0", "alt": 286.223, "mode": 3, "epc": 311.31, "class": "TPV", "lat": 33.756869437, "epy": 24.097, "speed": 0.0, "track": 0.0, "epv": 155.654, "time": "2020-06-20T14:49:59.000Z", "lon": -84.640494422, "climb": 0.0, "epx": 19.717}]}
{"active": 1, "time": "2018-04-11T08:19:34.698Z", "sky": [{"tdop": 5.55, "device": "/dev/ttyUSB0", "hdop": 0.8, "satellites": [{"PRN": 7, "az": 168, "ss": 41, "el": 54, "used": true}, {"PRN": 11, "az": 49, "ss": 37, "el": 38, "used": true}, {"PRN": 28, "az": 319, "ss": 39, "el": 48, "used": true}, {"PRN": 1, "az": 85, "ss": 30, "el": 53, "used": true}, {"PRN": 30, "az": 246, "ss": 32, "el": 74, "used": true}, {"PRN": 8, "az": 51, "ss": 22, "el": 13, "used": true}, {"PRN": 13, "az": 292, "ss": 24, "el": 18, "used": true}, {"PRN": 17, "az": 249, "ss": 42, "el": 41, "used": true}, {"PRN": 19, "az": 238, "ss": 32, "el": 18, "used": true}, {"PRN": 22, "az": 105, "ss": 22, "el": 7, "used": true}, {"PRN": 18, "az": 48, "ss": 0, "el": 26, "used": false}, {"PRN": 133, "az": 240, "ss": 29, "el": 28, "used": true}], "time": "2020-06-20T14:50:04.000Z", "pdop": 7.08, "gdop": 9.0, "class": "SKY", "ydop": 1.61, "vdop": 6.77, "xdop": 1.31}], "class": "POLL", "gst": [{"lon": 0.0, "device": "/dev/ttyUSB0", "orient": 0.0, "alt": 0.0, "minor": 0.0, "time": "1970-01-01T00:00:00.000Z", "major": 0.0, "class": "GST", "rms": 0.0, "lat": 0.0}], "tpv": [{"eps": 48.19, "ept": 0.005, "device": "/dev/ttyUSB0", "alt": 286.223, "mode": 3, "epc": 311.31, "class": "TPV", "lat": 33.756869437, "epy": 24.097, "speed": 0.0, "track": 0.0, "epv": 155.654, "time": "2020-06-20T14:50:03.000Z", "lon": -84.640494422, "climb": 0.0, "epx": 19.717}]}
{"active": 1, "time": "2018-04-11T08:19:39.729Z", "sky": [{"tdop": 5.55, "device": "/dev/ttyUSB0", "hdop": 0.8, "satellites": [{"PRN": 7, "az": 168, "ss": 33, "el": 54, "used": true}, {"PRN": 11, "az": 49, "ss": 38, "el": 38, "used": true}, {"PRN": 28, "az": 319, "ss": 39, "el": 48, "used": true}, {"PRN": 1, "az": 85, "ss": 36, "el": 53, "used": true}, {"PRN": 30, "az": 246, "ss": 39, "el": 74, "used": true}, {"PRN": 8, "az": 51, "ss": 12, "el": 13, "used": true}, {"PRN": 13, "az": 292, "ss": 30, "el": 18, "used": true}, {"PRN": 17, "az": 249, "ss": 42, "el": 41, "used": true}, {"PRN": 19, "az": 238, "ss": 32, "el": 18, "used": true}, {"PRN": 22, "az": 105, "ss": 22, "el": 7, "used": true}, {"PRN": 18, "az": 48, "ss": 0, "el": 26, "used": false}, {"PRN": 133, "az": 240, "ss": 28, "el": 28, "used": true}], "time": "2020-06-20T14:50:07.000Z", "pdop": 7.08, "gdop": 9.0, "class": "SKY", "ydop": 1.61, "vdop": 6.77, "xdop": 1.31}], "class": "POLL", "gst": [{"lon": 0.0, "device": "/dev/ttyUSB0", "orient": 0.0, "alt": 0.0, "minor": 0.0, "time": "1970-01-01T00:00:00.000Z", "major": 0.0, "class": "GST", "rms": 0.0, "lat": 0.0}], "tpv": [{"eps": 48.19, "ept": 0.005, "device": "/dev/ttyUSB0", "alt": 286.223, "mode": 3, "epc": 311.31, "class": "TPV", "lat": 33.756869437, "epy": 24.097, "speed": 0.0, "track": 0.0, "epv": 155.654, "time": "2020-06-20T14:50:09.000Z", "lon": -84.640494422, "climb": 0.0, "epx": 19.717}]}
{"active": 1, "time": "2018-04-11T08:19:44.755Z", "sky": [{"tdop": 5.55, "device": "/dev/ttyUSB0", "hdop": 0.8, "satellites": [{"PRN": 7, "az": 168, "ss": 37, "el": 54, "used": true}, {"PRN": 11, "az": 49, "ss": 35, "el": 38, "used": true}, {"PRN": 28, "az": 319, "ss": 39, "el": 48, "used": true}, {"PRN": 1, "az": 85, "ss": 35, "el": 53, "used": true}, {"PRN": 30, "az": 246, "ss": 39, "el": 74, "used": true}, {"PRN": 8, "az": 51, "ss": 19, "el": 13, "used": true}, {"PRN": 13, "az": 292, "ss": 30, "el": 18, "used": true}, {"PRN": 17, "az": 249, "ss": 42, "el": 41, "used": true}, {"PRN": 19, "az": 238, "ss": 22, "el": 18, "used": true}, {"PRN": 22, "az": 105, "ss": 23, "el": 7, "used": true}, {"PRN": 18, "az": 48, "ss": 0, "el": 26, "used": false}, {"PRN": 138, "az": 216, "ss": 24, "el": 43, "used": true}], "time": "2020-06-20T14:50:13.000Z", "pdop": 7.08, "gdop": 9.0, "class": "SKY", "ydop": 1.61, "vdop": 6.77, "xdop": 1.31}], "class": "POLL", "gst": [{"lon": 0.0, "device": "/dev/ttyUSB0", "orient": 0.0, "alt": 0.0, "minor": 0.0, "time": "1970-01-01T00:00:00.000Z", "major": 0.0, "class": "GST", "rms": 0.0, "lat": 0.0}], "tpv": [{"eps": 48.19, "ept": 0.005, "device": "/dev/ttyUSB0", "alt": 286.223, "mode": 3, "epc": 311.31, "class": "TPV", "lat": 33.756869437, "epy": 24.097, "speed": 0.515, "track": 211.9171, "epv": 155.654, "time": "2020-06-20T14:50:14.000Z", "lon": -84.640494422, "climb": -0.021, "epx": 19.717}]}
{"active": 1, "time": "2018-04-11T08:19:49.782Z", "sky": [{"tdop": 5.55, "device": "/dev/ttyUSB0", "hdop": 0.8, "satellites": [{"PRN": 7, "az": 168, "ss": 40, "el": 54, "used": true}, {"PRN": 11, "az": 49, "ss": 36, "el": 38, "used": true}, {"PRN": 28, "az": 319, "ss": 39, "el": 48, "used": true}, {"PRN": 1, "az": 85, "ss": 27, "el": 53, "used": true}, {"PRN": 30, "az": 246, "ss": 43, "el": 74, "used": true}, {"PRN": 8, "az": 51, "ss": 20, "el": 13, "used": true}, {"PRN": 13, "az": 292, "ss": 30, "el": 18, "used": true}, {"PRN": 17, "az": 249, "ss": 38, "el": 41, "used": true}, {"PRN": 19, "az": 238, "ss": 24, "el": 18, "used": true}, {"PRN": 22, "az": 105, "ss": 22, "el": 7, "used": true}, {"PRN": 18, "az": 48, "ss": 0, "el": 26, "used": false}, {"PRN": 138, "az": 216, "ss": 29, "el": 43, "used": true}], "time": "2020-06-20T14:50:19.000Z", "pdop": 7.08, "gdop": 9.0, "class": "SKY", "ydop": 1.61, "vdop": 6.77, "xdop": 1.31}], "class": "POLL", "gst": [{"lon": 0.0, "device": "/dev/ttyUSB0", "orient": 0.0, "alt": 0.0, "minor": 0.0, "time": "1970-01-01T00:00:00.000Z", "major": 0.0, "class": "GST", "rms": 0.0, "lat": 0.0}], "tpv": [{"eps": 48.19, "ept": 0.005, "device": "/dev/ttyUSB0", "alt": 286.767, "mode": 3, "epc": 311.31, "class": "TPV", "lat": 33.756844471, "epy": 24.097, "speed": 0.215, "track": 219.2535, "epv": 155.654, "time": "2020-06-20T14:50:19.000Z", "lon": -84.640496439, "climb": 0.024, "epx": 19.717}]}
{"active": 1, "time": "2018-04-11T08:19:54.812Z", "sky": [{"tdop": 5.55, "device": "/dev/ttyUSB0", "hdop": 0.8, "satellites": [{"PRN": 7, "az": 168, "ss": 34, "el": 54, "used": true}, {"PRN": 11, "az": 49, "ss": 38, "el": 38, "used": true}, {"PRN": 28, "az": 319, "ss": 37, "el": 48, "used": true}, {"PRN": 1, "az": 85, "ss": 36, "el": 53, "used": true}, {"PRN": 30, "az": 246, "ss": 43, "el": 74, "used": true}, {"PRN": 8, "az": 51, "ss": 21, "el": 13, "used": true}, {"PRN": 13, "az": 292, "ss": 29, "el": 18, "used": true}, {"PRN": 17, "az": 249, "ss": 38, "el": 41, "used": true}, {"PRN": 19, "az": 238, "ss": 24, "el": 18, "used": true}, {"PRN": 22, "az": 105, "ss": 22, "el": 7, "used": true}, {"PRN": 18, "az": 48, "ss": 0, "el": 26, "used": false}, {"PRN": 138, "az": 216, "ss": 38, "el": 43, "used": true}], "time": "2020-06-20T14:50:22.000Z", "pdop": 7.08, "gdop": 9.0, "class": "SKY", "ydop": 1.61, "vdop": 6.77, "xdop": 1.31}], "class": "POLL", "gst": [{"lon": 0.0, "device": "/dev/ttyUSB0", "orient": 0.0, "alt": 0.0, "minor": 0.0, "time": "1970-01-01T00:00:00.000Z", "major": 0.0, "class": "GST", "rms": 0.0, "lat": 0.0}], "tpv": [{"eps": 48.19, "ept": 0.005, "device": "/dev/ttyUSB0", "alt": 286.6, "mode": 3, "epc": 311.31, "class": "TPV", "lat": 33.756812946, "epy": 24.097, "speed": 1.171, "track": 222.6528, "epv": 155.654, "time": "2020-06-20T14:50:24.000Z", "lon": -84.640519947, "climb": -0.061, "epx": 19.717}]}
{"active": 1, "time": "2018-04-11T08:19:59.844Z", "sky": [{"tdop": 5.55, "device": "/dev/ttyUSB0", "hdop": 0.8, "satellites": [{"PRN": 7, "az": 168, "ss": 36, "el": 54, "used": true}, {"PRN": 11, "az": 49, "ss": 33, "el": 38, "used": true}, {"PRN": 28, "az": 319, "ss": 35, "el": 48, "used": true}, {"PRN": 1, "az": 85, "ss": 39, "el": 53, "used": true}, {"PRN": 30, "az": 246, "ss": 42, "el": 74, "used": true}, {"PRN": 8, "az": 51, "ss": 21, "el": 13, "used": true}, {"PRN": 13, "az": 292, "ss": 28, "el": 18, "used": true}, {"PRN": 17, "az": 249, "ss": 34, "el": 41, "used": true}, {"PRN": 19, "az": 238, "ss": 23, "el": 18, "used": true}, {"PRN": 22, "az": 105, "ss": 28, "el": 7, "used": true}, {"PRN": 18, "az": 48, "ss": 0, "el": 26, "used": false}, {"PRN": 138, "az": 216, "ss": 33, "el": 43, "used": true}], "time": "2020-06-20T14:50:28.000Z", "pdop": 7.08, "gdop": 9.0, "class": "SKY", "ydop": 1.61, "vdop": 6.77, "xdop": 1.31}], "class": "POLL", "gst": [{"lon": 0.0, "device": "/dev/ttyUSB0", "orient": 0.0, "alt": 0.0, "minor": 0.0, "time": "1970-01-01T00:00:00.000Z", "major": 0.0, "class": "GST", "rms": 0.0, "lat": 0.0}], "tpv": [{"eps": 48.19, "ept": 0.005, "device": "/dev/ttyUSB0", "alt": 285.773, "mode": 3, "epc": 311.31, "class": "TPV", "lat": 33.756796243, "epy": 24.097, "speed": 1.403, "track": 263.0035, "epv": 155.654, "time": "2020-06-20T14:50:29.000Z", "lon": -84.640596177, "climb": 0.031, "epx": 19.717}]}
{"active": 1, "time": "2018-04-11T08:20:04.870Z", "sky": [{"tdop": 5.55, "device": "/dev/ttyUSB0", "hdop": 0.8, "satellites": [{"PRN": 7, "az": 168, "ss": 36, "el": 54, "used": true}, {"PRN": 11, "az": 49, "ss": 33, "el": 38, "used": true}, {"PRN": 28, "az": 319, "ss": 36, "el": 48, "used": true}, {"PRN": 1, "az": 85, "ss": 41, "el": 53, "used": true}, {"PRN": 30, "az": 246, "ss": 44, "el": 74, "used": true}, {"PRN": 8, "az": 51, "ss": 22, "el": 13, "used": true}, {"PRN": 13, "az": 292, "ss": 26, "el": 18, "used": true}, {"PRN": 17, "az": 249, "ss": 34, "el": 41, "used": true}, {"PRN": 19, "az": 238, "ss": 24, "el": 18, "used": true}, {"PRN": 22, "az": 105, "ss": 28, "el": 7, "used": true}, {"PRN": 18, "az": 48, "ss": 0, "el": 26, "used": false}, {"PRN": 138, "az": 216, "ss": 36, "el": 43, "used": true}], "time": "2020-06-20T14:50:34.000Z", "pdop": 7.08, "gdop": 9.0, "class": "SKY", "ydop": 1.61, "vdop": 6.77, "xdop": 1.31}], "class": "POLL", "gst": [{"lon": 0.0, "device": "/dev/ttyUSB0", "orient": 0.0, "alt": 0.0, "minor": 0.0, "time": "1970-01-01T00:00:00.000Z", "major": 0.0, "class": "GST", "rms": 0.0, "lat": 0.0}], "tpv": [{"eps": 48.19, "ept": 0.005, "device": "/dev/ttyUSB0", "alt": 286.057, "mode": 3, "epc": 311.31, "class": "TPV", "lat": 33.75679453, "epy": 24.097, "speed": 1.63, "track": 270.5338, "epv": 155.654, "time": "2020-06-20T14:50:34.000Z", "lon": -84.640672407, "climb": -0.023, "epx": 19.717}]}
{"active": 1, "time": "2018-04-11T08:20:09.896Z", "sky": [{"tdop": 5.55, "device": "/dev/ttyUSB0", "hdop": 0.8, "satellites": [{"PRN": 7, "az": 168, "ss": 36, "el": 54, "used": true}, {"PRN": 11, "az": 49, "ss": 39, "el": 38, "used": true}, {"PRN": 28, "az": 319, "ss": 36, "el": 48, "used": true}, {"PRN": 1, "az": 85, "ss": 42, "el": 53, "used": true}, {"PRN": 30, "az": 246, "ss": 44, "el": 74, "used": true}, {"PRN": 8, "az": 51, "ss": 22, "el": 13, "used": true}, {"PRN": 13, "az": 292, "ss": 24, "el": 18, "used": true}, {"PRN": 17, "az": 249, "ss": 34, "el": 41, "used": true}, {"PRN": 19, "az": 238, "ss": 30, "el": 18, "used": true}, {"PRN": 22, "az": 105, "ss": 27, "el": 7, "used": true}, {"PRN": 18, "az": 48, "ss": 0, "el": 26, "used": false}, {"PRN": 133, "az": 240, "ss": 18, "el": 28, "used": true}], "time": "2020-06-20T14:50:37.000Z", "pdop": 7.08, "gdop": 9.0, "class": "SKY", "ydop": 1.61, "vdop": 6.77, "xdop": 1.31}], "class": "POLL", "gst": [{"lon": 0.0, "device": "/dev/ttyUSB0", "orient": 0.0, "alt": 0.0, "minor": 0.0, "time": "1970-01-01T00:00:00.000Z", "major": 0.0, "class": "GST", "rms": 0.0, "lat": 0.0}], "tpv": [{"eps": 48.19, "ept": 0.005, "device": "/dev/ttyUSB0", "alt": 285.708, "mode": 3, "epc": 311.31, "class": "TPV", "lat": 33.756785791, "epy": 24.097, "speed": 1.474, "track": 252.3074, "epv": 155.654, "time": "2020-06-20T14:50:39.000Z", "lon": -84.640759384, "climb": -0.005, "epx": 19.717}]}
{"active": 1, "time": "2018-04-11T08:20:14.922Z", "sky": [{"tdop": 5.55, "device": "/dev/ttyUSB0", "hdop": 0.8, "satellites": [{"PRN": 7, "az": 168, "ss": 41, "el": 54, "used": true}, {"PRN": 11, "az": 49, "ss": 40, "el": 38, "used": true}, {"PRN": 28, "az": 319, "ss": 29, "el": 48, "used": true}, {"PRN": 1, "az": 85, "ss": 41, "el": 53, "used": true}, {"PRN": 30, "az": 246, "ss": 38, "el": 74, "used": true}, {"PRN": 8, "az": 51, "ss": 23, "el": 13, "used": true}, {"PRN": 13, "az": 292, "ss": 25, "el": 18, "used": true}, {"PRN": 17, "az": 249, "ss": 30, "el": 41, "used": true}, {"PRN": 19, "az": 238, "ss": 29, "el": 18, "used": true}, {"PRN": 22, "az": 105, "ss": 26, "el": 7, "used": true}, {"PRN": 18, "az": 48, "ss": 0, "el": 26, "used": false}, {"PRN": 133, "az": 240, "ss": 28, "el": 28, "used": true}], "time": "2020-06-20T14:50:43.000Z", "pdop": 7.08, "gdop": 9.0, "class": "SKY", "ydop": 1.61, "vdop": 6.77, "xdop": 1.31}], "class": "POLL", "gst": [{"lon": 0.0, "device": "/dev/ttyUSB0", "orient": 0.0, "alt": 0.0, "minor": 0.0, "time": "1970-01-01T00:00:00.000Z", "major": 0.0, "class": "GST", "rms": 0.0, "lat": 0.0}], "tpv": [{"eps": 48.19, "ept": 0.005, "device": "/dev/ttyUSB0", "alt": 285.23, "mode": 3, "epc": 311.31, "class": "TPV", "lat": 33.756756137, "epy": 24.097, "speed": 1.489, "track": 232.2961, "epv": 155.654, "time": "2020-06-20T14:50:44.000Z", "lon": -84.640825876, "climb": 0.013, "epx": 19.717}]}
{"active": 1, "time": "2018-04-11T08:20:19.948Z", "sky": [{"tdop": 5.55, "device": "/dev/ttyUSB0", "hdop": 0.8, "satellites": [{"PRN": 7, "az": 168, "ss": 34, "el": 54, "used": true}, {"PRN": 11, "az": 49, "ss": 35, "el": 38, "used": true}, {"PRN": 28, "az": 319, "ss": 34, "el": 48, "used": true}, {"PRN": 1, "az": 85, "ss": 40, "el": 53, "used": true}, {"PRN": 30, "az": 246, "ss": 41, "el": 74, "used": true}, {"PRN": 8, "az": 51, "ss": 23, "el": 13, "used": true}, {"PRN": 13, "az": 292, "ss": 25, "el": 18, "used": true}, {"PRN": 17, "az": 249, "ss": 32, "el": 41, "used": true}, {"PRN": 19, "az": 238, "ss": 26, "el": 18, "used": true}, {"PRN": 22, "az": 105, "ss": 26, "el": 7, "used": true}, {"PRN": 18, "az": 48, "ss": 0, "el": 26, "used": false}, {"PRN": 133, "az": 240, "ss": 34, "el": 28, "used": true}], "time": "2020-06-20T14:50:49.000Z", "pdop": 7.08, "gdop": 9.0, "class": "SKY", "ydop": 1.61, "vdop": 6.77, "xdop": 1.31}], "class": "POLL", "gst": [{"lon": 0.0, "device": "/dev/ttyUSB0", "orient": 0.0, "alt": 0.0, "minor": 0.0, "time": "1970-01-01T00:00:00.000Z", "major": 0.0, "class": "GST", "rms": 0.0, "lat": 0.0}], "tpv": [{"eps": 48.19, "ept": 0.005, "device": "/dev/ttyUSB0", "alt": 286.059, "mode": 3, "epc": 311.31, "class": "TPV", "lat": 33.756729458, "epy": 24.097, "speed": 1.857, "track": 254.4576, "epv": 155.654, "time": "2020-06-20T14:50:49.000Z", "lon": -84.640904122, "climb": 0.07, "epx": 19.717}]}
{"active": 1, "time": "2018-04-11T08:20:24.973Z", "sky": [{"tdop": 5.55, "device": "/dev/ttyUSB0", "hdop": 0.8, "satellites": [{"PRN": 7, "az": 168, "ss": 33, "el": 54, "used": true}, {"PRN": 11, "az": 49, "ss": 35, "el": 38, "used": true}, {"PRN": 28, "az": 319, "ss": 32, "el": 48, "used": true}, {"PRN": 1, "az": 85, "ss": 40, "el": 53, "used": true}, {"PRN": 30, "az": 246, "ss": 41, "el": 74, "used": true}, {"PRN": 8, "az": 51, "ss": 23, "el": 13, "used": true}, {"PRN": 13, "az": 292, "ss": 25, "el": 18, "used": true}, {"PRN": 17, "az": 249, "ss": 31, "el": 41, "used": true}, {"PRN": 19, "az": 238, "ss": 25, "el": 18, "used": true}, {"PRN": 22, "az": 105, "ss": 26, "el": 7, "used": true}, {"PRN": 18, "az": 48, "ss": 0, "el": 26, "used": false}, {"PRN": 133, "az": 240, "ss": 35, "el": 28, "used": true}], "time": "2020-06-20T14:50:52.000Z", "pdop": 7.08, "gdop": 9.0, "class": "SKY", "ydop": 1.61, "vdop": 6.77, "xdop": 1.31}], "class": "POLL", "gst": [{"lon": 0.0, "device": "/dev/ttyUSB0", "orient": 0.0, "alt": 0.0, "minor": 0.0, "time": "1970-01-01T00:00:00.000Z", "major": 0.0, "class": "GST", "rms": 0.0, "lat": 0.0}], "tpv": [{"eps": 48.19, "ept": 0.005, "device": "/dev/ttyUSB0", "alt": 285.581, "mode": 3, "epc": 311.31, "class": "TPV", "lat": 33.756699804, "epy": 24.097, "speed": 1.358, "track": 250.4501, "epv": 155.654, "time": "2020-06-20T14:50:54.000Z", "lon": -84.640970614, "climb": 0.005, "epx": 19.717}]}
{"active": 1, "time": "2018-04-11T08:20:30.002Z", "sky": [{"tdop": 5.55, "device": "/dev/ttyUSB0", "hdop": 0.8, "satellites": [{"PRN": 7, "az": 168, "ss": 33, "el": 54, "used": true}, {"PRN": 11, "az": 49, "ss": 37, "el": 38, "used": true}, {"PRN": 28, "az": 319, "ss": 30, "el": 48, "used": true}, {"PRN": 1, "az": 85, "ss": 30, "el": 53, "used": true}, {"PRN": 30, "az": 246, "ss": 37, "el": 74, "used": true}, {"PRN": 8, "az": 51, "ss": 28, "el": 13, "used": true}, {"PRN": 13, "az": 292, "ss": 24, "el": 18, "used": true}, {"PRN": 17, "az": 249, "ss": 32, "el": 41, "used": true}, {"PRN": 19, "az": 238, "ss": 26, "el": 18, "used": true}, {"PRN": 22, "az": 105, "ss": 26, "el": 7, "used": true}, {"PRN": 18, "az": 48, "ss": 0, "el": 26, "used": false}, {"PRN": 133, "az": 240, "ss": 32, "el": 28, "used": true}], "time": "2020-06-20T14:50:58.000Z", "pdop": 7.08, "gdop": 9.0, "class": "SKY", "ydop": 1.61, "vdop": 6.77, "xdop": 1.31}], "class": "POLL", "gst": [{"lon": 0.0, "device": "/dev/ttyUSB0", "orient": 0.0, "alt": 0.0, "minor": 0.0, "time": "1970-01-01T00:00:00.000Z", "major": 0.0, "class": "GST", "rms": 0.0, "lat": 0.0}], "tpv": [{"eps": 48.19, "ept": 0.005, "device": "/dev/ttyUSB0", "alt": 286.487, "mode": 3, "epc": 311.31, "class": "TPV", "lat": 33.756672658, "epy": 24.097, "speed": 1.254, "track": 227.039, "epv": 155.654, "time": "2020-06-20T14:50:59.000Z", "lon": -84.641038115, "climb": -0.071, "epx": 19.717}]}
{"active": 1, "time": "2018-04-11T08:20:35.027Z", "sky": [{"tdop": 5.55, "device": "/dev/ttyUSB0", "hdop": 0.8, "satellites": [{"PRN": 7, "az": 168, "ss": 36, "el": 54, "used": true}, {"PRN": 11, "az": 49, "ss": 32, "el": 38, "used": true}, {"PRN": 28, "az": 319, "ss": 30, "el": 48, "used": true}, {"PRN": 1, "az": 85, "ss": 33, "el": 53, "used": true}, {"PRN": 30, "az": 246, "ss": 40, "el": 74, "used": true}, {"PRN": 8, "az": 51, "ss": 27, "el": 13, "used": true}, {"PRN": 13, "az": 292, "ss": 24, "el": 18, "used": true}, {"PRN": 17, "az": 249, "ss": 38, "el": 41, "used": true}, {"PRN": 19, "az": 238, "ss": 25, "el": 18, "used": true}, {"PRN": 22, "az": 105, "ss": 26, "el": 7, "used": true}, {"PRN": 18, "az": 48, "ss": 0, "el": 26, "used": false}, {"PRN": 133, "az": 240, "ss": 37, "el": 28, "used": true}], "time": "2020-06-20T14:51:04.000Z", "pdop": 7.08, "gdop": 9.0, "class": "SKY", "ydop": 1.61, "vdop": 6.77, "xdop": 1.31}], "class": "POLL", "gst": [{"lon": 0.0, "device": "/dev/ttyUSB0", "orient": 0.0, "alt": 0.0, "minor": 0.0, "time": "1970-01-01T00:00:00.000Z", "major": 0.0, "class": "GST", "rms": 0.0, "lat": 0.0}], "tpv": [{"eps": 48.19, "ept": 0.005, "device": "/dev/ttyUSB0", "alt": 285.377, "mode": 3, "epc": 311.31, "class": "TPV", "lat": 33.756635976, "epy": 24.097, "speed": 1.328, "track": 241.4837, "epv": 155.654, "time": "2020-06-20T14:51:04.000Z", "lon": -84.641115353, "climb": 0.049, "epx": 19.717}]}
{"active": 1, "time": "2018-04-11T08:20:40.053Z", "sky": [{"tdop": 5.55, "device": "/dev/ttyUSB0", "hdop": 0.8, "satellites": [{"PRN": 7, "az": 168, "ss": 36, "el": 54, "used": true}, {"PRN": 11, "az": 49, "ss": 33, "el": 38, "used": true}, {"PRN": 28, "az": 319, "ss": 36, "el": 48, "used": true}, {"PRN": 1, "az": 85, "ss": 35, "el": 53, "used": true}, {"PRN": 30, "az": 246, "ss": 42, "el": 74, "used": true}, {"PRN": 8, "az": 51, "ss": 26, "el": 13, "used": true}, {"PRN": 13, "az": 292, "ss": 25, "el": 18, "used": true}, {"PRN": 17, "az": 249, "ss": 39, "el": 41, "used": true}, {"PRN": 19, "az": 238, "ss": 25, "el": 18, "used": true}, {"PRN": 22, "az": 105, "ss": 26, "el": 7, "used": true}, {"PRN": 18, "az": 48, "ss": 0, "el": 26, "used": false}, {"PRN": 133, "az": 240, "ss": 37, "el": 28, "used": true}], "time": "2020-06-20T14:51:07.000Z", "pdop": 7.08, "gdop": 9.0, "class": "SKY", "ydop": 1.61, "vdop": 6.77, "xdop": 1.31}], "class": "POLL", "gst": [{"lon": 0.0, "device": "/dev/ttyUSB0", "orient": 0.0, "alt": 0.0, "minor": 0.0, "time": "1970-01-01T00:00:00.000Z", "major": 0.0, "class": "GST", "rms": 0.0, "lat": 0.0}], "tpv": [{"eps": 12.05, "ept": 0.005, "device": "/dev/ttyUSB0", "alt": 283.905, "mode": 3, "epc": 77.83, "class": "TPV", "lat": 33.756579784, "epy": 6.024, "speed": 1.648, "track": 232.2619, "epv": 38.914, "time": "2020-06-20T14:51:09.000Z", "lon": -84.641204345, "climb": -0.066, "epx": 4.929}]}
{"active": 1, "time": "2018-04-11T08:20:45.078Z", "sky": [{"tdop": 5.55, "device": "/dev/ttyUSB0", "hdop": 1.0, "satellites": [{"PRN": 7, "az": 168, "ss": 44, "el": 54, "used": true}, {"PRN": 11, "az": 49, "ss": 31, "el": 38, "used": true}, {"PRN": 28, "az": 319, "ss": 30, "el": 48, "used": true}, {"PRN": 1, "az": 85, "ss": 40, "el": 53, "used": true}, {"PRN": 30, "az": 246, "ss": 43, "el": 74, "used": true}, {"PRN": 8, "az": 51, "ss": 25, "el": 13, "used": true}, {"PRN": 13, "az": 292, "ss": 24, "el": 18, "used": true}, {"PRN": 17, "az": 249, "ss": 39, "el": 41, "used": true}, {"PRN": 19, "az": 238, "ss": 24, "el": 18, "used": true}, {"PRN": 22, "az": 105, "ss": 29, "el": 7, "used": true}, {"PRN": 18, "az": 48, "ss": 0, "el": 26, "used": false}, {"PRN": 133, "az": 240, "ss": 30, "el": 28, "used": true}], "time": "2020-06-20T14:51:13.000Z", "pdop": 7.08, "gdop": 9.0, "class": "SKY", "ydop": 1.61, "vdop": 6.77, "xdop": 1.31}], "class": "POLL", "gst": [{"lon": 0.0, "device": "/dev/ttyUSB0", "orient": 0.0, "alt": 0.0, "minor": 0.0, "time": "1970-01-01T00:00:00.000Z", "major": 0.0, "class": "GST", "rms": 0.0, "lat": 0.0}], "tpv": [{"eps": 12.05, "ept": 0.005, "device": "/dev/ttyUSB0", "alt": 284.228, "mode": 3, "epc": 77.83, "class": "TPV", "lat": 33.756566992, "epy": 6.024, "speed": 1.896, "track": 265.6152, "epv": 38.914, "time": "2020-06-20T14:51:14.000Z", "lon": -84.641313821, "climb": -0.008, "epx": 4.929}]}
{"active": 1, "time": "2018-04-11T08:20:50.105Z", "sky": [{"tdop": 5.55, "device": "/dev/ttyUSB0", "hdop": 0.8, "satellites": [{"PRN": 7, "az": 168, "ss": 44, "el": 54, "used": true}, {"PRN": 11, "az": 49, "ss": 31, "el": 38, "used": true}, {"PRN": 28, "az": 319, "ss": 31, "el": 48, "used": true}, {"PRN": 1, "az": 85, "ss": 42, "el": 53, "used": true}, {"PRN": 30, "az": 246, "ss": 44, "el": 74, "used": true}, {"PRN": 8, "az": 51, "ss": 27, "el": 13, "used": true}, {"PRN": 13, "az": 292, "ss": 24, "el": 18, "used": true}, {"PRN": 17, "az": 249, "ss": 39, "el": 41, "used": true}, {"PRN": 19, "az": 238, "ss": 24, "el": 18, "used": true}, {"PRN": 22, "az": 105, "ss": 29, "el": 7, "used": true}, {"PRN": 18, "az": 48, "ss": 0, "el": 26, "used": false}, {"PRN": 133, "az": 240, "ss": 26, "el": 28, "used": true}], "time": "2020-06-20T14:51:19.000Z", "pdop": 7.08, "gdop": 9.0, "class": "SKY", "ydop": 1.61, "vdop": 6.77, "xdop": 1.31}], "class": "POLL", "gst": [{"lon": 0.0, "device": "/dev/ttyUSB0", "orient": 0.0, "alt": 0.0, "minor": 0.0, "time": "1970-01-01T00:00:00.000Z", "major": 0.0, "class": "GST", "rms": 0.0, "lat": 0.0}], "tpv": [{"eps": 12.05, "ept": 0.005, "device": "/dev/ttyUSB0", "alt": 283.801, "mode": 3, "epc": 77.83, "class": "TPV", "lat": 33.756558719, "epy": 6.024, "speed": 1.505, "track": 270.3306, "epv": 38.914, "time": "2020-06-20T14:51:19.000Z", "lon": -84.641411543, "climb": -0.013, "epx": 4.929}]}
{"active": 1, "time": "2018-04-11T08:20:55.130Z", "sky": [{"tdop": 5.55, "device": "/dev/ttyUSB0", "hdop": 0.8, "satellites": [{"PRN": 7, "az": 168, "ss": 44, "el": 54, "used": true}, {"PRN": 11, "az": 49, "ss": 33, "el": 38, "used": true}, {"PRN": 28, "az": 319, "ss": 30, "el": 48, "used": true}, {"PRN": 1, "az": 85, "ss": 42, "el": 53, "used": true}, {"PRN": 30, "az": 246, "ss": 44, "el": 74, "used": true}, {"PRN": 8, "az": 51, "ss": 26, "el": 13, "used": true}, {"PRN": 13, "az": 292, "ss": 24, "el": 18, "used": true}, {"PRN": 17, "az": 249, "ss": 36, "el": 41, "used": true}, {"PRN": 19, "az": 238, "ss": 24, "el": 18, "used": true}, {"PRN": 22, "az": 105, "ss": 30, "el": 7, "used": true}, {"PRN": 18, "az": 48, "ss": 0, "el": 26, "used": false}, {"PRN": 133, "az": 240, "ss": 28, "el": 28, "used": true}], "time": "2020-06-20T14:51:22.000Z", "pdop": 7.08, "gdop": 9.0, "class": "SKY", "ydop": 1.61, "vdop": 6.77, "xdop": 1.31}], "class": "POLL", "gst": [{"lon": 0.0, "device": "/dev/ttyUSB0", "orient": 0.0, "alt": 0.0, "minor": 0.0, "time": "1970-01-01T00:00:00.000Z", "major": 0.0, "class": "GST", "rms": 0.0, "lat": 0.0}], "tpv": [{"eps": 12.05, "ept": 0.005, "device": "/dev/ttyUSB0", "alt": 284.435, "mode": 3, "epc": 77.83, "class": "TPV", "lat": 33.756544055, "epy": 6.024, "speed": 1.282, "track": 245.5697, "epv": 38.914, "time": "2020-06-20T14:51:24.000Z", "lon": -84.641478035, "climb": 0.118, "epx": 4.929}]}
