{"time": "2018-04-11T17:17:37.831Z", "sky": [{"hdop": 1.0, "time": "2000-12-23T18:39:13.000Z", "class": "SKY", "ydop": 0.9, "satellites": [{"used": true, "PRN": 2, "az": 64, "ss": 44, "el": 50}, {"used": true, "PRN": 5, "az": 21, "ss": 30, "el": 73}, {"used": true, "PRN": 12, "az": 214, "ss": 33, "el": 25}, {"used": true, "PRN": 13, "az": 147, "ss": 40, "el": 30}, {"used": true, "PRN": 15, "az": 183, "ss": 35, "el": 19}, {"used": true, "PRN": 29, "az": 316, "ss": 35, "el": 45}, {"used": true, "PRN": 6, "az": 87, "ss": 35, "el": 12}, {"used": true, "PRN": 25, "az": 252, "ss": 36, "el": 29}, {"used": false, "PRN": 4, "az": 316, "ss": 0, "el": 54}, {"used": false, "PRN": 9, "az": 60, "ss": 0, "el": 29}, {"used": false, "PRN": 21, "az": 291, "ss": 0, "el": 16}, {"used": true, "PRN": 131, "az": 228, "ss": 37, "el": 36}], "tdop": 1.28, "xdop": 0.64, "vdop": 2.02, "device": "/dev/ttyUSB0", "pdop": 2.3, "gdop": 2.63}], "tpv": [{"climb": 0.113, "time": "2000-12-23T18:39:14.000Z", "alt": 850.612, "epd": 86.5671, "ept": 0.005, "lon": -84.020156182, "eps": 26.99, "speed": 14.891, "mode": 3, "lat": 34.685245745, "class": "TPV", "epx": 9.592, "epv": 46.443, "epc": 92.89, "track": 322.2783, "device": "/dev/ttyUSB0", "epy": 13.493}], "class": "POLL", "active": 1, "gst": [{"time": "1970-01-01T00:00:00.000Z", "alt": 0.0, "rms": 0.0, "class": "GST", "major": 0.0, "orient": 0.0, "minor": 0.0, "lon": 0.0, "device": "/dev/ttyUSB0", "lat": 0.0}]}
{"time": "2018-04-11T17:17:42.976Z", "sky": [{"hdop": 1.0, "time": "2000-12-23T18:39:19.000Z", "class": "SKY", "ydop": 0.9, "satellites": [{"used": true, "PRN": 2, "az": 64, "ss": 29, "el": 50}, {"used": true, "PRN": 5, "az": 21, "ss": 37, "el": 73}, {"used": true, "PRN": 12, "az": 214, "ss": 39, "el": 25}, {"used": true, "PRN": 13, "az": 147, "ss": 40, "el": 30}, {"used": true, "PRN": 15, "az": 183, "ss": 37, "el": 19}, {"used": true, "PRN": 29, "az": 316, "ss": 32, "el": 45}, {"used": false, "PRN": 6, "az": 87, "ss": 10, "el": 12}, {"used": true, "PRN": 25, "az": 252, "ss": 22, "el": 29}, {"used": false, "PRN": 4, "az": 316, "ss": 0, "el": 54}, {"used": false, "PRN": 9, "az": 60, "ss": 0, "el": 29}, {"used": false, "PRN": 21, "az": 291, "ss": 0, "el": 16}, {"used": true, "PRN": 131, "az": 228, "ss": 31, "el": 36}], "tdop": 1.28, "xdop": 0.64, "vdop": 2.02, "device": "/dev/ttyUSB0", "pdop": 2.3, "gdop": 2.63}], "tpv": [{"climb": -0.019, "time": "2000-12-23T18:39:20.000Z", "alt": 853.054, "epd": 72.6406, "ept": 0.005, "lon": -84.020873764, "eps": 26.99, "speed": 18.983, "mode": 3, "lat": 34.685975867, "class": "TPV", "epx": 9.592, "epv": 46.443, "epc": 92.89, "track": 321.0301, "device": "/dev/ttyUSB0", "epy": 13.493}], "class": "POLL", "active": 1, "gst": [{"time": "1970-01-01T00:00:00.000Z", "alt": 0.0, "rms": 0.0, "class": "GST", "major": 0.0, "orient": 0.0, "minor": 0.0, "lon": 0.0, "device": "/dev/ttyUSB0", "lat": 0.0}]}
{"time": "2018-04-11T17:17:48.004Z", "sky": [{"hdop": 1.8, "time": "2000-12-23T18:39:22.000Z", "class": "SKY", "ydop": 0.9, "satellites": [{"used": true, "PRN": 2, "az": 64, "ss": 29, "el": 50}, {"used": true, "PRN": 5, "az": 21, "ss": 39, "el": 73}, {"used": true, "PRN": 12, "az": 214, "ss": 36, "el": 25}, {"used": true, "PRN": 13, "az": 147, "ss": 33, "el": 30}, {"used": true, "PRN": 15, "az": 183, "ss": 30, "el": 19}, {"used": true, "PRN": 29, "az": 316, "ss": 28, "el": 45}, {"used": true, "PRN": 6, "az": 87, "ss": 15, "el": 12}, {"used": true, "PRN": 25, "az": 252, "ss": 25, "el": 29}, {"used": false, "PRN": 4, "az": 316, "ss": 0, "el": 54}, {"used": false, "PRN": 9, "az": 60, "ss": 0, "el": 29}, {"used": false, "PRN": 21, "az": 291, "ss": 0, "el": 16}, {"used": true, "PRN": 131, "az": 228, "ss": 33, "el": 36}], "tdop": 1.28, "xdop": 0.64, "vdop": 2.02, "device": "/dev/ttyUSB0", "pdop": 2.3, "gdop": 2.63}], "tpv": [{"climb": -0.045, "time": "2000-12-23T18:39:24.000Z", "alt": 853.689, "epd": 69.3335, "ept": 0.005, "lon": -84.02132801, "eps": 26.99, "speed": 18.969, "mode": 3, "lat": 34.686530926, "class": "TPV", "epx": 9.592, "epv": 46.443, "epc": 92.89, "track": 329.2186, "device": "/dev/ttyUSB0", "epy": 13.493}], "class": "POLL", "active": 1, "gst": [{"time": "1970-01-01T00:00:00.000Z", "alt": 0.0, "rms": 0.0, "class": "GST", "major": 0.0, "orient": 0.0, "minor": 0.0, "lon": 0.0, "device": "/dev/ttyUSB0", "lat": 0.0}]}
{"time": "2018-04-11T17:17:53.032Z", "sky": [{"hdop": 1.0, "time": "2000-12-23T18:39:28.000Z", "class": "SKY", "ydop": 0.9, "satellites": [{"used": true, "PRN": 2, "az": 64, "ss": 35, "el": 50}, {"used": true, "PRN": 5, "az": 21, "ss": 32, "el": 73}, {"used": true, "PRN": 12, "az": 214, "ss": 32, "el": 25}, {"used": true, "PRN": 13, "az": 147, "ss": 44, "el": 30}, {"used": true, "PRN": 15, "az": 183, "ss": 30, "el": 19}, {"used": true, "PRN": 29, "az": 316, "ss": 43, "el": 45}, {"used": false, "PRN": 6, "az": 87, "ss": 0, "el": 12}, {"used": true, "PRN": 25, "az": 252, "ss": 31, "el": 29}, {"used": false, "PRN": 4, "az": 316, "ss": 0, "el": 54}, {"used": false, "PRN": 9, "az": 60, "ss": 0, "el": 29}, {"used": false, "PRN": 21, "az": 291, "ss": 0, "el": 16}, {"used": true, "PRN": 131, "az": 228, "ss": 33, "el": 36}], "tdop": 1.28, "xdop": 0.64, "vdop": 2.02, "device": "/dev/ttyUSB0", "pdop": 2.3, "gdop": 2.63}], "tpv": [{"climb": 0.156, "time": "2000-12-23T18:39:30.000Z", "alt": 855.168, "epd": 71.5084, "ept": 0.005, "lon": -84.021822374, "eps": 26.99, "speed": 18.65, "mode": 3, "lat": 34.687453403, "class": "TPV", "epx": 9.592, "epv": 46.443, "epc": 92.89, "track": 337.4352, "device": "/dev/ttyUSB0", "epy": 13.493}], "class": "POLL", "active": 1, "gst": [{"time": "1970-01-01T00:00:00.000Z", "alt": 0.0, "rms": 0.0, "class": "GST", "major": 0.0, "orient": 0.0, "minor": 0.0, "lon": 0.0, "device": "/dev/ttyUSB0", "lat": 0.0}]}
{"time": "2018-04-11T17:17:58.060Z", "sky": [{"hdop": 1.0, "time": "2000-12-23T18:39:34.000Z", "class": "SKY", "ydop": 0.9, "satellites": [{"used": true, "PRN": 2, "az": 64, "ss": 43, "el": 50}, {"used": true, "PRN": 5, "az": 21, "ss": 32, "el": 73}, {"used": true, "PRN": 12, "az": 214, "ss": 33, "el": 25}, {"used": true, "PRN": 13, "az": 147, "ss": 46, "el": 30}, {"used": true, "PRN": 15, "az": 183, "ss": 30, "el": 19}, {"used": true, "PRN": 29, "az": 316, "ss": 44, "el": 45}, {"used": true, "PRN": 6, "az": 87, "ss": 24, "el": 12}, {"used": true, "PRN": 25, "az": 252, "ss": 32, "el": 29}, {"used": false, "PRN": 4, "az": 316, "ss": 0, "el": 54}, {"used": false, "PRN": 9, "az": 60, "ss": 0, "el": 29}, {"used": false, "PRN": 21, "az": 291, "ss": 0, "el": 16}, {"used": true, "PRN": 131, "az": 228, "ss": 43, "el": 36}], "tdop": 1.28, "xdop": 0.64, "vdop": 2.02, "device": "/dev/ttyUSB0", "pdop": 2.3, "gdop": 2.63}], "tpv": [{"climb": 0.633, "time": "2000-12-23T18:39:35.000Z", "alt": 857.576, "epd": 76.2976, "ept": 0.005, "lon": -84.022165328, "eps": 26.99, "speed": 17.65, "mode": 3, "lat": 34.688205681, "class": "TPV", "epx": 9.592, "epv": 46.443, "epc": 92.89, "track": 341.5268, "device": "/dev/ttyUSB0", "epy": 13.493}], "class": "POLL", "active": 1, "gst": [{"time": "1970-01-01T00:00:00.000Z", "alt": 0.0, "rms": 0.0, "class": "GST", "major": 0.0, "orient": 0.0, "minor": 0.0, "lon": 0.0, "device": "/dev/ttyUSB0", "lat": 0.0}]}
{"time": "2018-04-11T17:18:03.090Z", "sky": [{"hdop": 1.0, "time": "2000-12-23T18:39:37.000Z", "class": "SKY", "ydop": 0.9, "satellites": [{"used": true, "PRN": 2, "az": 64, "ss": 31, "el": 50}, {"used": true, "PRN": 5, "az": 21, "ss": 37, "el": 73}, {"used": true, "PRN": 12, "az": 214, "ss": 33, "el": 25}, {"used": true, "PRN": 13, "az": 147, "ss": 47, "el": 30}, {"used": true, "PRN": 15, "az": 183, "ss": 28, "el": 19}, {"used": true, "PRN": 29, "az": 316, "ss": 40, "el": 45}, {"used": true, "PRN": 6, "az": 87, "ss": 21, "el": 12}, {"used": true, "PRN": 25, "az": 252, "ss": 32, "el": 29}, {"used": false, "PRN": 4, "az": 316, "ss": 0, "el": 54}, {"used": false, "PRN": 9, "az": 60, "ss": 0, "el": 29}, {"used": false, "PRN": 21, "az": 291, "ss": 0, "el": 16}, {"used": true, "PRN": 131, "az": 228, "ss": 41, "el": 36}], "tdop": 1.28, "xdop": 0.64, "vdop": 2.02, "device": "/dev/ttyUSB0", "pdop": 2.3, "gdop": 2.63}], "tpv": [{"climb": 0.535, "time": "2000-12-23T18:39:39.000Z", "alt": 862.462, "epd": 75.0277, "ept": 0.005, "lon": -84.022311181, "eps": 26.99, "speed": 17.613, "mode": 3, "lat": 34.688832884, "class": "TPV", "epx": 9.592, "epv": 46.443, "epc": 92.89, "track": 355.893, "device": "/dev/ttyUSB0", "epy": 13.493}], "class": "POLL", "active": 1, "gst": [{"time": "1970-01-01T00:00:00.000Z", "alt": 0.0, "rms": 0.0, "class": "GST", "major": 0.0, "orient": 0.0, "minor": 0.0, "lon": 0.0, "device": "/dev/ttyUSB0", "lat": 0.0}]}
{"time": "2018-04-11T17:18:08.120Z", "sky": [{"hdop": 1.0, "time": "2000-12-23T18:39:43.000Z", "class": "SKY", "ydop": 0.9, "satellites": [{"used": true, "PRN": 2, "az": 64, "ss": 45, "el": 50}, {"used": true, "PRN": 5, "az": 21, "ss": 41, "el": 73}, {"used": true, "PRN": 12, "az": 214, "ss": 29, "el": 25}, {"used": true, "PRN": 13, "az": 147, "ss": 32, "el": 30}, {"used": true, "PRN": 15, "az": 183, "ss": 35, "el": 19}, {"used": true, "PRN": 29, "az": 316, "ss": 43, "el": 45}, {"used": true, "PRN": 6, "az": 87, "ss": 20, "el": 12}, {"used": true, "PRN": 25, "az": 252, "ss": 31, "el": 29}, {"used": false, "PRN": 4, "az": 316, "ss": 0, "el": 54}, {"used": false, "PRN": 9, "az": 60, "ss": 0, "el": 29}, {"used": false, "PRN": 21, "az": 291, "ss": 0, "el": 16}, {"used": true, "PRN": 131, "az": 228, "ss": 42, "el": 36}], "tdop": 1.28, "xdop": 0.64, "vdop": 2.02, "device": "/dev/ttyUSB0", "pdop": 2.3, "gdop": 2.63}], "tpv": [{"climb": -0.109, "time": "2000-12-23T18:39:45.000Z", "alt": 865.966, "epd": 69.3175, "ept": 0.005, "lon": -84.022353797, "eps": 26.99, "speed": 18.933, "mode": 3, "lat": 34.689808529, "class": "TPV", "epx": 9.592, "epv": 46.443, "epc": 92.89, "track": 358.4968, "device": "/dev/ttyUSB0", "epy": 13.493}], "class": "POLL", "active": 1, "gst": [{"time": "1970-01-01T00:00:00.000Z", "alt": 0.0, "rms": 0.0, "class": "GST", "major": 0.0, "orient": 0.0, "minor": 0.0, "lon": 0.0, "device": "/dev/ttyUSB0", "lat": 0.0}]}
{"time": "2018-04-11T17:18:13.146Z", "sky": [{"hdop": 1.0, "time": "2000-12-23T18:39:49.000Z", "class": "SKY", "ydop": 0.9, "satellites": [{"used": true, "PRN": 2, "az": 64, "ss": 36, "el": 50}, {"used": true, "PRN": 5, "az": 21, "ss": 32, "el": 73}, {"used": true, "PRN": 12, "az": 214, "ss": 28, "el": 25}, {"used": true, "PRN": 13, "az": 147, "ss": 26, "el": 30}, {"used": true, "PRN": 15, "az": 183, "ss": 36, "el": 19}, {"used": true, "PRN": 29, "az": 316, "ss": 32, "el": 45}, {"used": true, "PRN": 6, "az": 87, "ss": 13, "el": 12}, {"used": true, "PRN": 25, "az": 252, "ss": 24, "el": 29}, {"used": false, "PRN": 4, "az": 316, "ss": 0, "el": 54}, {"used": false, "PRN": 9, "az": 60, "ss": 0, "el": 29}, {"used": false, "PRN": 21, "az": 291, "ss": 0, "el": 16}, {"used": true, "PRN": 131, "az": 228, "ss": 37, "el": 36}], "tdop": 1.28, "xdop": 0.64, "vdop": 2.02, "device": "/dev/ttyUSB0", "pdop": 2.3, "gdop": 2.63}], "tpv": [{"climb": -0.319, "time": "2000-12-23T18:39:50.000Z", "alt": 865.663, "epd": 68.9696, "ept": 0.005, "lon": -84.022399823, "eps": 26.99, "speed": 19.613, "mode": 3, "lat": 34.690687347, "class": "TPV", "epx": 9.592, "epv": 46.443, "epc": 92.89, "track": 354.6605, "device": "/dev/ttyUSB0", "epy": 13.493}], "class": "POLL", "active": 1, "gst": [{"time": "1970-01-01T00:00:00.000Z", "alt": 0.0, "rms": 0.0, "class": "GST", "major": 0.0, "orient": 0.0, "minor": 0.0, "lon": 0.0, "device": "/dev/ttyUSB0", "lat": 0.0}]}
{"time": "2018-04-11T17:18:18.173Z", "sky": [{"hdop": 1.8, "time": "2000-12-23T18:39:52.000Z", "class": "SKY", "ydop": 0.9, "satellites": [{"used": true, "PRN": 2, "az": 64, "ss": 36, "el": 50}, {"used": true, "PRN": 5, "az": 21, "ss": 39, "el": 73}, {"used": true, "PRN": 12, "az": 214, "ss": 30, "el": 25}, {"used": true, "PRN": 13, "az": 147, "ss": 41, "el": 30}, {"used": true, "PRN": 15, "az": 183, "ss": 28, "el": 19}, {"used": true, "PRN": 29, "az": 316, "ss": 38, "el": 45}, {"used": false, "PRN": 6, "az": 87, "ss": 6, "el": 12}, {"used": true, "PRN": 25, "az": 252, "ss": 27, "el": 29}, {"used": false, "PRN": 4, "az": 316, "ss": 0, "el": 54}, {"used": false, "PRN": 9, "az": 60, "ss": 0, "el": 29}, {"used": false, "PRN": 21, "az": 291, "ss": 0, "el": 16}, {"used": true, "PRN": 131, "az": 228, "ss": 33, "el": 36}], "tdop": 1.28, "xdop": 0.64, "vdop": 2.02, "device": "/dev/ttyUSB0", "pdop": 2.3, "gdop": 2.63}], "tpv": [{"climb": -0.036, "time": "2000-12-23T18:39:54.000Z", "alt": 865.779, "epd": 70.1221, "ept": 0.005, "lon": -84.022626823, "eps": 26.99, "speed": 18.717, "mode": 3, "lat": 34.69134433, "class": "TPV", "epx": 9.592, "epv": 46.443, "epc": 92.89, "track": 339.2864, "device": "/dev/ttyUSB0", "epy": 13.493}], "class": "POLL", "active": 1, "gst": [{"time": "1970-01-01T00:00:00.000Z", "alt": 0.0, "rms": 0.0, "class": "GST", "major": 0.0, "orient": 0.0, "minor": 0.0, "lon": 0.0, "device": "/dev/ttyUSB0", "lat": 0.0}]}
{"time": "2018-04-11T17:18:23.204Z", "sky": [{"hdop": 1.8, "time": "2000-12-23T18:39:58.000Z", "class": "SKY", "ydop": 0.9, "satellites": [{"used": true, "PRN": 2, "az": 64, "ss": 41, "el": 50}, {"used": true, "PRN": 5, "az": 21, "ss": 40, "el": 73}, {"used": true, "PRN": 12, "az": 214, "ss": 42, "el": 25}, {"used": true, "PRN": 13, "az": 147, "ss": 47, "el": 30}, {"used": true, "PRN": 15, "az": 183, "ss": 36, "el": 19}, {"used": true, "PRN": 29, "az": 316, "ss": 35, "el": 45}, {"used": false, "PRN": 6, "az": 87, "ss": 6, "el": 12}, {"used": true, "PRN": 25, "az": 252, "ss": 33, "el": 29}, {"used": false, "PRN": 4, "az": 316, "ss": 0, "el": 54}, {"used": false, "PRN": 9, "az": 60, "ss": 0, "el": 29}, {"used": false, "PRN": 21, "az": 291, "ss": 0, "el": 16}, {"used": true, "PRN": 131, "az": 228, "ss": 34, "el": 36}], "tdop": 1.28, "xdop": 0.64, "vdop": 2.02, "device": "/dev/ttyUSB0", "pdop": 2.3, "gdop": 2.63}], "tpv": [{"climb": 0.26, "time": "2000-12-23T18:40:00.000Z", "alt": 868.716, "epd": 68.8631, "ept": 0.005, "lon": -84.023212596, "eps": 26.99, "speed": 19.059, "mode": 3, "lat": 34.692235842, "class": "TPV", "epx": 9.592, "epv": 46.443, "epc": 92.89, "track": 325.0975, "device": "/dev/ttyUSB0", "epy": 13.493}], "class": "POLL", "active": 1, "gst": [{"time": "1970-01-01T00:00:00.000Z", "alt": 0.0, "rms": 0.0, "class": "GST", "major": 0.0, "orient": 0.0, "minor": 0.0, "lon": 0.0, "device": "/dev/ttyUSB0", "lat": 0.0}]}
{"time": "2018-04-11T17:18:28.231Z", "sky": [{"hdop": 1.8, "time": "2000-12-23T18:40:04.000Z", "class": "SKY", "ydop": 0.9, "satellites": [{"used": true, "PRN": 2, "az": 64, "ss": 35, "el": 50}, {"used": true, "PRN": 5, "az": 21, "ss": 35, "el": 73}, {"used": true, "PRN": 12, "az": 214, "ss": 39, "el": 25}, {"used": true, "PRN": 13, "az": 147, "ss": 40, "el": 30}, {"used": true, "PRN": 15, "az": 183, "ss": 27, "el": 19}, {"used": true, "PRN": 29, "az": 316, "ss": 33, "el": 45}, {"used": false, "PRN": 6, "az": 87, "ss": 4, "el": 12}, {"used": true, "PRN": 25, "az": 252, "ss": 33, "el": 29}, {"used": false, "PRN": 4, "az": 316, "ss": 0, "el": 54}, {"used": false, "PRN": 9, "az": 60, "ss": 0, "el": 29}, {"used": false, "PRN": 21, "az": 291, "ss": 0, "el": 16}, {"used": true, "PRN": 131, "az": 228, "ss": 38, "el": 36}], "tdop": 1.28, "xdop": 0.64, "vdop": 2.02, "device": "/dev/ttyUSB0", "pdop": 2.3, "gdop": 2.63}], "tpv": [{"climb": 0.262, "time": "2000-12-23T18:40:05.000Z", "alt": 870.954, "epd": 69.2473, "ept": 0.005, "lon": -84.023937079, "eps": 26.99, "speed": 19.947, "mode": 3, "lat": 34.69286863, "class": "TPV", "epx": 9.592, "epv": 46.443, "epc": 92.89, "track": 313.1929, "device": "/dev/ttyUSB0", "epy": 13.493}], "class": "POLL", "active": 1, "gst": [{"time": "1970-01-01T00:00:00.000Z", "alt": 0.0, "rms": 0.0, "class": "GST", "major": 0.0, "orient": 0.0, "minor": 0.0, "lon": 0.0, "device": "/dev/ttyUSB0", "lat": 0.0}]}
{"time": "2018-04-11T17:18:33.252Z", "sky": [{"hdop": 1.8, "time": "2000-12-23T18:40:07.000Z", "class": "SKY", "ydop": 0.9, "satellites": [{"used": true, "PRN": 2, "az": 64, "ss": 42, "el": 50}, {"used": true, "PRN": 5, "az": 21, "ss": 35, "el": 73}, {"used": true, "PRN": 12, "az": 214, "ss": 39, "el": 25}, {"used": true, "PRN": 13, "az": 147, "ss": 40, "el": 30}, {"used": true, "PRN": 15, "az": 183, "ss": 25, "el": 19}, {"used": true, "PRN": 29, "az": 316, "ss": 29, "el": 45}, {"used": false, "PRN": 6, "az": 87, "ss": 4, "el": 12}, {"used": true, "PRN": 25, "az": 252, "ss": 33, "el": 29}, {"used": false, "PRN": 4, "az": 316, "ss": 0, "el": 54}, {"used": false, "PRN": 9, "az": 60, "ss": 0, "el": 29}, {"used": false, "PRN": 21, "az": 291, "ss": 0, "el": 16}, {"used": true, "PRN": 131, "az": 228, "ss": 39, "el": 36}], "tdop": 1.28, "xdop": 0.64, "vdop": 2.02, "device": "/dev/ttyUSB0", "pdop": 2.3, "gdop": 2.63}], "tpv": [{"climb": 0.027, "time": "2000-12-23T18:40:09.000Z", "alt": 872.864, "epd": 67.1091, "ept": 0.005, "lon": -84.024596961, "eps": 26.99, "speed": 20.016, "mode": 3, "lat": 34.693328083, "class": "TPV", "epx": 9.592, "epv": 46.443, "epc": 92.89, "track": 306.2645, "device": "/dev/ttyUSB0", "epy": 13.493}], "class": "POLL", "active": 1, "gst": [{"time": "1970-01-01T00:00:00.000Z", "alt": 0.0, "rms": 0.0, "class": "GST", "major": 0.0, "orient": 0.0, "minor": 0.0, "lon": 0.0, "device": "/dev/ttyUSB0", "lat": 0.0}]}
{"time": "2018-04-11T17:18:38.283Z", "sky": [{"hdop": 1.8, "time": "2000-12-23T18:40:13.000Z", "class": "SKY", "ydop": 0.9, "satellites": [{"used": true, "PRN": 2, "az": 64, "ss": 42, "el": 50}, {"used": true, "PRN": 5, "az": 21, "ss": 37, "el": 73}, {"used": true, "PRN": 12, "az": 214, "ss": 26, "el": 25}, {"used": true, "PRN": 13, "az": 147, "ss": 42, "el": 30}, {"used": true, "PRN": 15, "az": 183, "ss": 32, "el": 19}, {"used": true, "PRN": 29, "az": 316, "ss": 27, "el": 45}, {"used": false, "PRN": 6, "az": 87, "ss": 4, "el": 12}, {"used": true, "PRN": 25, "az": 252, "ss": 28, "el": 29}, {"used": false, "PRN": 4, "az": 316, "ss": 0, "el": 54}, {"used": false, "PRN": 9, "az": 60, "ss": 0, "el": 29}, {"used": false, "PRN": 21, "az": 291, "ss": 0, "el": 16}, {"used": true, "PRN": 131, "az": 228, "ss": 34, "el": 36}], "tdop": 1.28, "xdop": 0.64, "vdop": 2.02, "device": "/dev/ttyUSB0", "pdop": 2.3, "gdop": 2.63}], "tpv": [{"climb": -0.047, "time": "2000-12-23T18:40:15.000Z", "alt": 872.115, "epd": 75.2969, "ept": 0.005, "lon": -84.025710913, "eps": 26.99, "speed": 17.553, "mode": 3, "lat": 34.6936945, "class": "TPV", "epx": 9.592, "epv": 46.443, "epc": 92.89, "track": 285.1697, "device": "/dev/ttyUSB0", "epy": 13.493}], "class": "POLL", "active": 1, "gst": [{"time": "1970-01-01T00:00:00.000Z", "alt": 0.0, "rms": 0.0, "class": "GST", "major": 0.0, "orient": 0.0, "minor": 0.0, "lon": 0.0, "device": "/dev/ttyUSB0", "lat": 0.0}]}
{"time": "2018-04-11T17:18:43.309Z", "sky": [{"hdop": 1.8, "time": "2000-12-23T18:40:19.000Z", "class": "SKY", "ydop": 0.9, "satellites": [{"used": true, "PRN": 2, "az": 64, "ss": 40, "el": 50}, {"used": true, "PRN": 5, "az": 21, "ss": 29, "el": 73}, {"used": true, "PRN": 12, "az": 214, "ss": 34, "el": 25}, {"used": true, "PRN": 13, "az": 147, "ss": 37, "el": 30}, {"used": true, "PRN": 15, "az": 183, "ss": 38, "el": 19}, {"used": true, "PRN": 29, "az": 316, "ss": 27, "el": 45}, {"used": false, "PRN": 6, "az": 87, "ss": 0, "el": 12}, {"used": true, "PRN": 25, "az": 252, "ss": 27, "el": 29}, {"used": false, "PRN": 4, "az": 316, "ss": 0, "el": 54}, {"used": false, "PRN": 9, "az": 60, "ss": 0, "el": 29}, {"used": false, "PRN": 21, "az": 291, "ss": 0, "el": 16}, {"used": true, "PRN": 131, "az": 228, "ss": 30, "el": 36}], "tdop": 1.28, "xdop": 0.64, "vdop": 2.02, "device": "/dev/ttyUSB0", "pdop": 2.3, "gdop": 2.63}], "tpv": [{"climb": 0.048, "time": "2000-12-23T18:40:20.000Z", "alt": 871.549, "epd": 74.0119, "ept": 0.005, "lon": -84.026611219, "eps": 26.99, "speed": 18.125, "mode": 3, "lat": 34.693983048, "class": "TPV", "epx": 9.592, "epv": 46.443, "epc": 92.89, "track": 297.3545, "device": "/dev/ttyUSB0", "epy": 13.493}], "class": "POLL", "active": 1, "gst": [{"time": "1970-01-01T00:00:00.000Z", "alt": 0.0, "rms": 0.0, "class": "GST", "major": 0.0, "orient": 0.0, "minor": 0.0, "lon": 0.0, "device": "/dev/ttyUSB0", "lat": 0.0}]}
{"time": "2018-04-11T17:18:48.335Z", "sky": [{"hdop": 1.8, "time": "2000-12-23T18:40:25.000Z", "class": "SKY", "ydop": 0.9, "satellites": [{"used": true, "PRN": 2, "az": 64, "ss": 36, "el": 50}, {"used": true, "PRN": 5, "az": 21, "ss": 34, "el": 73}, {"used": true, "PRN": 12, "az": 214, "ss": 29, "el": 25}, {"used": true, "PRN": 13, "az": 147, "ss": 44, "el": 30}, {"used": true, "PRN": 15, "az": 183, "ss": 34, "el": 19}, {"used": true, "PRN": 29, "az": 316, "ss": 41, "el": 45}, {"used": false, "PRN": 6, "az": 87, "ss": 10, "el": 12}, {"used": true, "PRN": 25, "az": 252, "ss": 30, "el": 29}, {"used": false, "PRN": 4, "az": 316, "ss": 0, "el": 54}, {"used": false, "PRN": 9, "az": 60, "ss": 0, "el": 29}, {"used": false, "PRN": 21, "az": 291, "ss": 0, "el": 16}, {"used": true, "PRN": 131, "az": 228, "ss": 35, "el": 36}], "tdop": 1.28, "xdop": 0.64, "vdop": 2.02, "device": "/dev/ttyUSB0", "pdop": 2.3, "gdop": 2.63}], "tpv": [{"climb": -0.24, "time": "2000-12-23T18:40:24.000Z", "alt": 870.162, "epd": 76.7096, "ept": 0.005, "lon": -84.027184298, "eps": 26.99, "speed": 16.745, "mode": 3, "lat": 34.694386341, "class": "TPV", "epx": 9.592, "epv": 46.443, "epc": 92.89, "track": 322.2529, "device": "/dev/ttyUSB0", "epy": 13.493}], "class": "POLL", "active": 1, "gst": [{"time": "1970-01-01T00:00:00.000Z", "alt": 0.0, "rms": 0.0, "class": "GST", "major": 0.0, "orient": 0.0, "minor": 0.0, "lon": 0.0, "device": "/dev/ttyUSB0", "lat": 0.0}]}
{"time": "2018-04-11T17:18:53.367Z", "sky": [{"hdop": 1.8, "time": "2000-12-23T18:40:28.000Z", "class": "SKY", "ydop": 0.9, "satellites": [{"used": true, "PRN": 2, "az": 64, "ss": 33, "el": 50}, {"used": true, "PRN": 5, "az": 21, "ss": 35, "el": 73}, {"used": true, "PRN": 12, "az": 214, "ss": 28, "el": 25}, {"used": true, "PRN": 13, "az": 147, "ss": 47, "el": 30}, {"used": true, "PRN": 15, "az": 183, "ss": 27, "el": 19}, {"used": true, "PRN": 29, "az": 316, "ss": 42, "el": 45}, {"used": false, "PRN": 6, "az": 87, "ss": 10, "el": 12}, {"used": true, "PRN": 25, "az": 252, "ss": 26, "el": 29}, {"used": false, "PRN": 4, "az": 316, "ss": 0, "el": 54}, {"used": false, "PRN": 9, "az": 60, "ss": 0, "el": 29}, {"used": false, "PRN": 21, "az": 291, "ss": 0, "el": 16}, {"used": true, "PRN": 131, "az": 228, "ss": 34, "el": 36}], "tdop": 1.28, "xdop": 0.64, "vdop": 2.02, "device": "/dev/ttyUSB0", "pdop": 2.3, "gdop": 2.63}], "tpv": [{"climb": 0.227, "time": "2000-12-23T18:40:30.000Z", "alt": 871.836, "epd": 63.2381, "ept": 0.005, "lon": -84.027539447, "eps": 26.99, "speed": 21.155, "mode": 3, "lat": 34.695417308, "class": "TPV", "epx": 9.592, "epv": 46.443, "epc": 92.89, "track": 344.3154, "device": "/dev/ttyUSB0", "epy": 13.493}], "class": "POLL", "active": 1, "gst": [{"time": "1970-01-01T00:00:00.000Z", "alt": 0.0, "rms": 0.0, "class": "GST", "major": 0.0, "orient": 0.0, "minor": 0.0, "lon": 0.0, "device": "/dev/ttyUSB0", "lat": 0.0}]}
{"time": "2018-04-11T17:18:58.392Z", "sky": [{"hdop": 1.8, "time": "2000-12-23T18:40:34.000Z", "class": "SKY", "ydop": 0.9, "satellites": [{"used": true, "PRN": 2, "az": 64, "ss": 34, "el": 50}, {"used": true, "PRN": 5, "az": 21, "ss": 34, "el": 73}, {"used": true, "PRN": 12, "az": 214, "ss": 28, "el": 25}, {"used": true, "PRN": 13, "az": 147, "ss": 48, "el": 30}, {"used": true, "PRN": 15, "az": 183, "ss": 23, "el": 19}, {"used": true, "PRN": 29, "az": 316, "ss": 41, "el": 45}, {"used": false, "PRN": 6, "az": 87, "ss": 0, "el": 12}, {"used": true, "PRN": 25, "az": 252, "ss": 27, "el": 29}, {"used": false, "PRN": 4, "az": 316, "ss": 0, "el": 54}, {"used": false, "PRN": 9, "az": 60, "ss": 0, "el": 29}, {"used": false, "PRN": 21, "az": 291, "ss": 0, "el": 16}, {"used": true, "PRN": 131, "az": 228, "ss": 33, "el": 36}], "tdop": 1.28, "xdop": 0.64, "vdop": 2.02, "device": "/dev/ttyUSB0", "pdop": 2.3, "gdop": 2.63}], "tpv": [{"climb": 0.383, "time": "2000-12-23T18:40:35.000Z", "alt": 875.685, "epd": 69.0599, "ept": 0.005, "lon": -84.027873399, "eps": 26.99, "speed": 19.345, "mode": 3, "lat": 34.696314131, "class": "TPV", "epx": 9.592, "epv": 46.443, "epc": 92.89, "track": 339.5929, "device": "/dev/ttyUSB0", "epy": 13.493}], "class": "POLL", "active": 1, "gst": [{"time": "1970-01-01T00:00:00.000Z", "alt": 0.0, "rms": 0.0, "class": "GST", "major": 0.0, "orient": 0.0, "minor": 0.0, "lon": 0.0, "device": "/dev/ttyUSB0", "lat": 0.0}]}
{"time": "2018-04-11T17:19:03.419Z", "sky": [{"hdop": 1.8, "time": "2000-12-23T18:40:40.000Z", "class": "SKY", "ydop": 0.9, "satellites": [{"used": true, "PRN": 2, "az": 64, "ss": 37, "el": 50}, {"used": true, "PRN": 5, "az": 21, "ss": 36, "el": 73}, {"used": true, "PRN": 12, "az": 214, "ss": 22, "el": 25}, {"used": true, "PRN": 13, "az": 147, "ss": 32, "el": 30}, {"used": true, "PRN": 15, "az": 183, "ss": 24, "el": 19}, {"used": true, "PRN": 29, "az": 316, "ss": 38, "el": 45}, {"used": false, "PRN": 4, "az": 316, "ss": 2, "el": 54}, {"used": true, "PRN": 25, "az": 252, "ss": 26, "el": 29}, {"used": false, "PRN": 6, "az": 87, "ss": 1, "el": 12}, {"used": false, "PRN": 9, "az": 60, "ss": 0, "el": 29}, {"used": false, "PRN": 21, "az": 291, "ss": 0, "el": 16}, {"used": true, "PRN": 131, "az": 228, "ss": 33, "el": 36}], "tdop": 1.28, "xdop": 0.64, "vdop": 2.02, "device": "/dev/ttyUSB0", "pdop": 2.3, "gdop": 2.63}], "tpv": [{"climb": 0.182, "time": "2000-12-23T18:40:40.000Z", "alt": 877.473, "epd": 72.8859, "ept": 0.005, "lon": -84.028101092, "eps": 26.99, "speed": 17.101, "mode": 3, "lat": 34.697136125, "class": "TPV", "epx": 9.592, "epv": 46.443, "epc": 92.89, "track": 355.7665, "device": "/dev/ttyUSB0", "epy": 13.493}], "class": "POLL", "active": 1, "gst": [{"time": "1970-01-01T00:00:00.000Z", "alt": 0.0, "rms": 0.0, "class": "GST", "major": 0.0, "orient": 0.0, "minor": 0.0, "lon": 0.0, "device": "/dev/ttyUSB0", "lat": 0.0}]}
{"time": "2018-04-11T17:19:08.449Z", "sky": [{"hdop": 1.8, "time": "2000-12-23T18:40:43.000Z", "class": "SKY", "ydop": 0.9, "satellites": [{"used": true, "PRN": 2, "az": 64, "ss": 38, "el": 50}, {"used": true, "PRN": 5, "az": 21, "ss": 41, "el": 73}, {"used": true, "PRN": 12, "az": 214, "ss": 25, "el": 25}, {"used": true, "PRN": 13, "az": 147, "ss": 32, "el": 30}, {"used": true, "PRN": 15, "az": 183, "ss": 36, "el": 19}, {"used": true, "PRN": 29, "az": 316, "ss": 30, "el": 45}, {"used": false, "PRN": 6, "az": 87, "ss": 16, "el": 12}, {"used": true, "PRN": 25, "az": 252, "ss": 25, "el": 29}, {"used": false, "PRN": 4, "az": 316, "ss": 0, "el": 54}, {"used": false, "PRN": 9, "az": 60, "ss": 0, "el": 29}, {"used": false, "PRN": 21, "az": 291, "ss": 0, "el": 16}, {"used": true, "PRN": 131, "az": 228, "ss": 41, "el": 36}], "tdop": 1.28, "xdop": 0.64, "vdop": 2.02, "device": "/dev/ttyUSB0", "pdop": 2.3, "gdop": 2.63}], "tpv": [{"climb": -0.198, "time": "2000-12-23T18:40:45.000Z", "alt": 875.094, "epd": 75.8465, "ept": 0.005, "lon": -84.027899818, "eps": 26.99, "speed": 16.656, "mode": 3, "lat": 34.697918354, "class": "TPV", "epx": 9.592, "epv": 46.443, "epc": 92.89, "track": 9.9544, "device": "/dev/ttyUSB0", "epy": 13.493}], "class": "POLL", "active": 1, "gst": [{"time": "1970-01-01T00:00:00.000Z", "alt": 0.0, "rms": 0.0, "class": "GST", "major": 0.0, "orient": 0.0, "minor": 0.0, "lon": 0.0, "device": "/dev/ttyUSB0", "lat": 0.0}]}
{"time": "2018-04-11T17:19:13.476Z", "sky": [{"hdop": 1.8, "time": "2000-12-23T18:40:49.000Z", "class": "SKY", "ydop": 0.9, "satellites": [{"used": true, "PRN": 2, "az": 64, "ss": 29, "el": 50}, {"used": true, "PRN": 5, "az": 21, "ss": 34, "el": 73}, {"used": true, "PRN": 12, "az": 214, "ss": 22, "el": 25}, {"used": true, "PRN": 13, "az": 147, "ss": 34, "el": 30}, {"used": true, "PRN": 15, "az": 183, "ss": 23, "el": 19}, {"used": true, "PRN": 29, "az": 316, "ss": 35, "el": 45}, {"used": false, "PRN": 6, "az": 87, "ss": 0, "el": 12}, {"used": true, "PRN": 25, "az": 252, "ss": 14, "el": 29}, {"used": false, "PRN": 4, "az": 316, "ss": 0, "el": 54}, {"used": false, "PRN": 9, "az": 60, "ss": 0, "el": 29}, {"used": false, "PRN": 21, "az": 291, "ss": 0, "el": 16}, {"used": true, "PRN": 131, "az": 228, "ss": 29, "el": 36}], "tdop": 1.28, "xdop": 0.64, "vdop": 2.02, "device": "/dev/ttyUSB0", "pdop": 2.3, "gdop": 2.63}], "tpv": [{"climb": -0.168, "time": "2000-12-23T18:40:50.000Z", "alt": 872.557, "epd": 81.1803, "ept": 0.005, "lon": -84.028012666, "eps": 26.99, "speed": 15.428, "mode": 3, "lat": 34.698602911, "class": "TPV", "epx": 9.592, "epv": 46.443, "epc": 92.89, "track": 331.0123, "device": "/dev/ttyUSB0", "epy": 13.493}], "class": "POLL", "active": 1, "gst": [{"time": "1970-01-01T00:00:00.000Z", "alt": 0.0, "rms": 0.0, "class": "GST", "major": 0.0, "orient": 0.0, "minor": 0.0, "lon": 0.0, "device": "/dev/ttyUSB0", "lat": 0.0}]}
{"time": "2018-04-11T17:19:18.503Z", "sky": [{"hdop": 2.0, "time": "2000-12-23T18:40:55.000Z", "class": "SKY", "ydop": 0.9, "satellites": [{"used": true, "PRN": 2, "az": 64, "ss": 34, "el": 50}, {"used": true, "PRN": 5, "az": 21, "ss": 36, "el": 73}, {"used": true, "PRN": 12, "az": 214, "ss": 16, "el": 25}, {"used": true, "PRN": 13, "az": 147, "ss": 41, "el": 30}, {"used": true, "PRN": 15, "az": 183, "ss": 20, "el": 19}, {"used": true, "PRN": 29, "az": 316, "ss": 30, "el": 45}, {"used": false, "PRN": 25, "az": 252, "ss": 0, "el": 29}, {"used": false, "PRN": 6, "az": 87, "ss": 0, "el": 12}, {"used": false, "PRN": 4, "az": 316, "ss": 0, "el": 54}, {"used": false, "PRN": 9, "az": 60, "ss": 0, "el": 29}, {"used": false, "PRN": 21, "az": 291, "ss": 0, "el": 16}, {"used": true, "PRN": 131, "az": 228, "ss": 23, "el": 36}], "tdop": 1.28, "xdop": 0.64, "vdop": 2.02, "device": "/dev/ttyUSB0", "pdop": 2.3, "gdop": 2.63}], "tpv": [{"climb": -0.284, "time": "2000-12-23T18:40:55.000Z", "alt": 869.837, "epd": 79.3272, "ept": 0.005, "lon": -84.028540734, "eps": 26.99, "speed": 16.447, "mode": 3, "lat": 34.699157062, "class": "TPV", "epx": 9.592, "epv": 46.443, "epc": 92.89, "track": 331.7495, "device": "/dev/ttyUSB0", "epy": 13.493}], "class": "POLL", "active": 1, "gst": [{"time": "1970-01-01T00:00:00.000Z", "alt": 0.0, "rms": 0.0, "class": "GST", "major": 0.0, "orient": 0.0, "minor": 0.0, "lon": 0.0, "device": "/dev/ttyUSB0", "lat": 0.0}]}
{"time": "2018-04-11T17:19:23.533Z", "sky": [{"hdop": 2.0, "time": "2000-12-23T18:40:58.000Z", "class": "SKY", "ydop": 0.9, "satellites": [{"used": true, "PRN": 2, "az": 64, "ss": 33, "el": 50}, {"used": true, "PRN": 5, "az": 21, "ss": 36, "el": 73}, {"used": true, "PRN": 12, "az": 214, "ss": 15, "el": 25}, {"used": true, "PRN": 13, "az": 147, "ss": 37, "el": 30}, {"used": true, "PRN": 15, "az": 183, "ss": 19, "el": 19}, {"used": true, "PRN": 29, "az": 316, "ss": 33, "el": 45}, {"used": false, "PRN": 25, "az": 252, "ss": 0, "el": 29}, {"used": false, "PRN": 6, "az": 87, "ss": 0, "el": 12}, {"used": false, "PRN": 4, "az": 316, "ss": 0, "el": 54}, {"used": false, "PRN": 9, "az": 60, "ss": 0, "el": 29}, {"used": false, "PRN": 21, "az": 291, "ss": 0, "el": 16}, {"used": true, "PRN": 131, "az": 228, "ss": 25, "el": 36}], "tdop": 1.28, "xdop": 0.64, "vdop": 2.02, "device": "/dev/ttyUSB0", "pdop": 2.3, "gdop": 2.63}], "tpv": [{"climb": -0.355, "time": "2000-12-23T18:41:00.000Z", "alt": 867.017, "epd": 74.6039, "ept": 0.005, "lon": -84.029004322, "eps": 26.99, "speed": 17.835, "mode": 3, "lat": 34.699843391, "class": "TPV", "epx": 9.592, "epv": 46.443, "epc": 92.89, "track": 322.1439, "device": "/dev/ttyUSB0", "epy": 13.493}], "class": "POLL", "active": 1, "gst": [{"time": "1970-01-01T00:00:00.000Z", "alt": 0.0, "rms": 0.0, "class": "GST", "major": 0.0, "orient": 0.0, "minor": 0.0, "lon": 0.0, "device": "/dev/ttyUSB0", "lat": 0.0}]}
{"time": "2018-04-11T17:19:28.561Z", "sky": [{"hdop": 2.0, "time": "2000-12-23T18:41:04.000Z", "class": "SKY", "ydop": 0.9, "satellites": [{"used": true, "PRN": 2, "az": 64, "ss": 39, "el": 50}, {"used": true, "PRN": 5, "az": 21, "ss": 36, "el": 73}, {"used": true, "PRN": 12, "az": 214, "ss": 15, "el": 25}, {"used": true, "PRN": 13, "az": 147, "ss": 25, "el": 30}, {"used": true, "PRN": 15, "az": 183, "ss": 17, "el": 19}, {"used": true, "PRN": 29, "az": 316, "ss": 31, "el": 45}, {"used": false, "PRN": 25, "az": 252, "ss": 16, "el": 29}, {"used": false, "PRN": 6, "az": 87, "ss": 0, "el": 12}, {"used": false, "PRN": 4, "az": 316, "ss": 0, "el": 54}, {"used": false, "PRN": 9, "az": 60, "ss": 0, "el": 29}, {"used": false, "PRN": 21, "az": 291, "ss": 0, "el": 16}, {"used": true, "PRN": 131, "az": 228, "ss": 22, "el": 36}], "tdop": 1.28, "xdop": 0.64, "vdop": 2.02, "device": "/dev/ttyUSB0", "pdop": 2.3, "gdop": 2.63}], "tpv": [{"climb": -0.334, "time": "2000-12-23T18:41:05.000Z", "alt": 862.658, "epd": 67.2453, "ept": 0.005, "lon": -84.029806026, "eps": 26.99, "speed": 19.393, "mode": 3, "lat": 34.700385854, "class": "TPV", "epx": 9.592, "epv": 46.443, "epc": 92.89, "track": 301.9638, "device": "/dev/ttyUSB0", "epy": 13.493}], "class": "POLL", "active": 1, "gst": [{"time": "1970-01-01T00:00:00.000Z", "alt": 0.0, "rms": 0.0, "class": "GST", "major": 0.0, "orient": 0.0, "minor": 0.0, "lon": 0.0, "device": "/dev/ttyUSB0", "lat": 0.0}]}
{"time": "2018-04-11T17:19:33.586Z", "sky": [{"hdop": 2.0, "time": "2000-12-23T18:41:10.000Z", "class": "SKY", "ydop": 0.9, "satellites": [{"used": true, "PRN": 2, "az": 64, "ss": 38, "el": 50}, {"used": true, "PRN": 5, "az": 21, "ss": 39, "el": 73}, {"used": true, "PRN": 12, "az": 214, "ss": 5, "el": 25}, {"used": true, "PRN": 13, "az": 147, "ss": 24, "el": 30}, {"used": true, "PRN": 15, "az": 183, "ss": 15, "el": 19}, {"used": true, "PRN": 29, "az": 316, "ss": 30, "el": 45}, {"used": true, "PRN": 25, "az": 252, "ss": 18, "el": 29}, {"used": false, "PRN": 6, "az": 87, "ss": 0, "el": 12}, {"used": false, "PRN": 4, "az": 316, "ss": 0, "el": 54}, {"used": false, "PRN": 9, "az": 60, "ss": 0, "el": 29}, {"used": false, "PRN": 21, "az": 291, "ss": 0, "el": 16}, {"used": true, "PRN": 131, "az": 228, "ss": 25, "el": 36}], "tdop": 1.28, "xdop": 0.64, "vdop": 2.02, "device": "/dev/ttyUSB0", "pdop": 2.3, "gdop": 2.63}], "tpv": [{"climb": -0.308, "time": "2000-12-23T18:41:10.000Z", "alt": 859.857, "epd": 70.2015, "ept": 0.005, "lon": -84.030729904, "eps": 26.99, "speed": 18.467, "mode": 3, "lat": 34.70077608, "class": "TPV", "epx": 9.592, "epv": 46.443, "epc": 92.89, "track": 293.9998, "device": "/dev/ttyUSB0", "epy": 13.493}], "class": "POLL", "active": 1, "gst": [{"time": "1970-01-01T00:00:00.000Z", "alt": 0.0, "rms": 0.0, "class": "GST", "major": 0.0, "orient": 0.0, "minor": 0.0, "lon": 0.0, "device": "/dev/ttyUSB0", "lat": 0.0}]}
{"time": "2018-04-11T17:19:38.612Z", "sky": [{"hdop": 2.0, "time": "2000-12-23T18:41:13.000Z", "class": "SKY", "ydop": 0.9, "satellites": [{"used": true, "PRN": 2, "az": 64, "ss": 37, "el": 50}, {"used": true, "PRN": 5, "az": 21, "ss": 38, "el": 73}, {"used": true, "PRN": 12, "az": 214, "ss": 16, "el": 25}, {"used": true, "PRN": 13, "az": 147, "ss": 22, "el": 30}, {"used": true, "PRN": 15, "az": 183, "ss": 14, "el": 19}, {"used": true, "PRN": 29, "az": 316, "ss": 28, "el": 45}, {"used": true, "PRN": 25, "az": 252, "ss": 18, "el": 29}, {"used": false, "PRN": 6, "az": 87, "ss": 0, "el": 12}, {"used": false, "PRN": 4, "az": 316, "ss": 0, "el": 54}, {"used": false, "PRN": 9, "az": 60, "ss": 0, "el": 29}, {"used": false, "PRN": 21, "az": 291, "ss": 0, "el": 16}, {"used": true, "PRN": 131, "az": 228, "ss": 28, "el": 36}], "tdop": 1.28, "xdop": 0.64, "vdop": 2.02, "device": "/dev/ttyUSB0", "pdop": 2.3, "gdop": 2.63}], "tpv": [{"climb": -0.482, "time": "2000-12-23T18:41:15.000Z", "alt": 856.307, "epd": 81.5804, "ept": 0.005, "lon": -84.031550922, "eps": 26.99, "speed": 14.551, "mode": 3, "lat": 34.701061347, "class": "TPV", "epx": 9.592, "epv": 46.443, "epc": 92.89, "track": 287.1329, "device": "/dev/ttyUSB0", "epy": 13.493}], "class": "POLL", "active": 1, "gst": [{"time": "1970-01-01T00:00:00.000Z", "alt": 0.0, "rms": 0.0, "class": "GST", "major": 0.0, "orient": 0.0, "minor": 0.0, "lon": 0.0, "device": "/dev/ttyUSB0", "lat": 0.0}]}
{"time": "2018-04-11T17:19:43.638Z", "sky": [{"hdop": 2.0, "time": "2000-12-23T18:41:19.000Z", "class": "SKY", "ydop": 0.9, "satellites": [{"used": true, "PRN": 2, "az": 64, "ss": 33, "el": 50}, {"used": true, "PRN": 5, "az": 21, "ss": 38, "el": 73}, {"used": false, "PRN": 12, "az": 214, "ss": 20, "el": 25}, {"used": false, "PRN": 13, "az": 147, "ss": 0, "el": 30}, {"used": true, "PRN": 15, "az": 183, "ss": 8, "el": 19}, {"used": true, "PRN": 29, "az": 316, "ss": 30, "el": 45}, {"used": true, "PRN": 25, "az": 252, "ss": 24, "el": 29}, {"used": false, "PRN": 6, "az": 87, "ss": 0, "el": 12}, {"used": false, "PRN": 4, "az": 316, "ss": 0, "el": 54}, {"used": false, "PRN": 9, "az": 60, "ss": 0, "el": 29}, {"used": false, "PRN": 21, "az": 291, "ss": 0, "el": 16}, {"used": true, "PRN": 131, "az": 228, "ss": 32, "el": 36}], "tdop": 1.28, "xdop": 0.64, "vdop": 2.02, "device": "/dev/ttyUSB0", "pdop": 2.3, "gdop": 2.63}], "tpv": [{"climb": -0.203, "time": "2000-12-23T18:41:20.000Z", "alt": 851.944, "ept": 0.005, "lon": -84.032163297, "eps": 26.99, "speed": 10.227, "mode": 3, "lat": 34.701033761, "class": "TPV", "epx": 9.592, "epv": 46.443, "epc": 92.89, "track": 256.175, "device": "/dev/ttyUSB0", "epy": 13.493}], "class": "POLL", "active": 1, "gst": [{"time": "1970-01-01T00:00:00.000Z", "alt": 0.0, "rms": 0.0, "class": "GST", "major": 0.0, "orient": 0.0, "minor": 0.0, "lon": 0.0, "device": "/dev/ttyUSB0", "lat": 0.0}]}
{"time": "2018-04-11T17:19:48.662Z", "sky": [{"hdop": 1.8, "time": "2000-12-23T18:41:25.000Z", "class": "SKY", "ydop": 0.9, "satellites": [{"used": true, "PRN": 2, "az": 64, "ss": 35, "el": 50}, {"used": true, "PRN": 5, "az": 21, "ss": 35, "el": 73}, {"used": true, "PRN": 12, "az": 214, "ss": 11, "el": 25}, {"used": true, "PRN": 13, "az": 147, "ss": 24, "el": 30}, {"used": false, "PRN": 15, "az": 183, "ss": 6, "el": 19}, {"used": true, "PRN": 29, "az": 316, "ss": 29, "el": 45}, {"used": true, "PRN": 25, "az": 252, "ss": 18, "el": 29}, {"used": false, "PRN": 6, "az": 87, "ss": 0, "el": 12}, {"used": false, "PRN": 4, "az": 316, "ss": 0, "el": 54}, {"used": false, "PRN": 9, "az": 60, "ss": 0, "el": 29}, {"used": false, "PRN": 21, "az": 291, "ss": 0, "el": 16}, {"used": true, "PRN": 131, "az": 228, "ss": 25, "el": 36}], "tdop": 1.28, "xdop": 0.64, "vdop": 2.02, "device": "/dev/ttyUSB0", "pdop": 2.3, "gdop": 2.63}], "tpv": [{"climb": -0.068, "time": "2000-12-23T18:41:25.000Z", "alt": 848.49, "ept": 0.005, "lon": -84.032791065, "eps": 26.99, "speed": 11.934, "mode": 3, "lat": 34.700956651, "class": "TPV", "epx": 9.592, "epv": 46.443, "epc": 92.89, "track": 276.8114, "device": "/dev/ttyUSB0", "epy": 13.493}], "class": "POLL", "active": 1, "gst": [{"time": "1970-01-01T00:00:00.000Z", "alt": 0.0, "rms": 0.0, "class": "GST", "major": 0.0, "orient": 0.0, "minor": 0.0, "lon": 0.0, "device": "/dev/ttyUSB0", "lat": 0.0}]}
{"time": "2018-04-11T17:19:53.687Z", "sky": [{"hdop": 2.0, "time": "2000-12-23T18:41:28.000Z", "class": "SKY", "ydop": 0.9, "satellites": [{"used": true, "PRN": 2, "az": 64, "ss": 36, "el": 50}, {"used": true, "PRN": 5, "az": 21, "ss": 35, "el": 73}, {"used": true, "PRN": 12, "az": 214, "ss": 12, "el": 25}, {"used": true, "PRN": 13, "az": 147, "ss": 24, "el": 30}, {"used": true, "PRN": 15, "az": 183, "ss": 8, "el": 19}, {"used": true, "PRN": 29, "az": 316, "ss": 29, "el": 45}, {"used": false, "PRN": 25, "az": 252, "ss": 0, "el": 29}, {"used": false, "PRN": 6, "az": 87, "ss": 0, "el": 12}, {"used": false, "PRN": 4, "az": 316, "ss": 0, "el": 54}, {"used": false, "PRN": 9, "az": 60, "ss": 0, "el": 29}, {"used": false, "PRN": 21, "az": 291, "ss": 0, "el": 16}, {"used": true, "PRN": 131, "az": 228, "ss": 25, "el": 36}], "tdop": 1.28, "xdop": 0.64, "vdop": 2.02, "device": "/dev/ttyUSB0", "pdop": 2.3, "gdop": 2.63}], "tpv": [{"climb": -0.114, "time": "2000-12-23T18:41:30.000Z", "alt": 846.632, "epd": 78.8011, "ept": 0.005, "lon": -84.033521213, "eps": 26.99, "speed": 16.114, "mode": 3, "lat": 34.701154615, "class": "TPV", "epx": 9.592, "epv": 46.443, "epc": 92.89, "track": 297.8545, "device": "/dev/ttyUSB0", "epy": 13.493}], "class": "POLL", "active": 1, "gst": [{"time": "1970-01-01T00:00:00.000Z", "alt": 0.0, "rms": 0.0, "class": "GST", "major": 0.0, "orient": 0.0, "minor": 0.0, "lon": 0.0, "device": "/dev/ttyUSB0", "lat": 0.0}]}
{"time": "2018-04-11T17:19:58.714Z", "sky": [{"hdop": 1.0, "time": "2000-12-23T18:41:34.000Z", "class": "SKY", "ydop": 0.9, "satellites": [{"used": true, "PRN": 2, "az": 64, "ss": 40, "el": 50}, {"used": true, "PRN": 5, "az": 21, "ss": 36, "el": 73}, {"used": true, "PRN": 12, "az": 214, "ss": 12, "el": 25}, {"used": true, "PRN": 13, "az": 147, "ss": 25, "el": 30}, {"used": false, "PRN": 15, "az": 183, "ss": 6, "el": 19}, {"used": true, "PRN": 29, "az": 316, "ss": 31, "el": 45}, {"used": true, "PRN": 6, "az": 87, "ss": 17, "el": 12}, {"used": true, "PRN": 25, "az": 252, "ss": 27, "el": 29}, {"used": false, "PRN": 4, "az": 316, "ss": 0, "el": 54}, {"used": false, "PRN": 9, "az": 60, "ss": 0, "el": 29}, {"used": false, "PRN": 21, "az": 291, "ss": 0, "el": 16}, {"used": true, "PRN": 131, "az": 228, "ss": 26, "el": 36}], "tdop": 1.28, "xdop": 0.64, "vdop": 2.02, "device": "/dev/ttyUSB0", "pdop": 2.3, "gdop": 2.63}], "tpv": [{"climb": -0.323, "time": "2000-12-23T18:41:35.000Z", "alt": 843.045, "ept": 0.005, "lon": -84.034209728, "eps": 26.99, "speed": 13.303, "mode": 3, "lat": 34.701451082, "class": "TPV", "epx": 9.592, "epv": 46.443, "epc": 92.89, "track": 289.6861, "device": "/dev/ttyUSB0", "epy": 13.493}], "class": "POLL", "active": 1, "gst": [{"time": "1970-01-01T00:00:00.000Z", "alt": 0.0, "rms": 0.0, "class": "GST", "major": 0.0, "orient": 0.0, "minor": 0.0, "lon": 0.0, "device": "/dev/ttyUSB0", "lat": 0.0}]}
{"time": "2018-04-11T17:20:03.739Z", "sky": [{"hdop": 1.6, "time": "2000-12-23T18:41:40.000Z", "class": "SKY", "ydop": 0.9, "satellites": [{"used": true, "PRN": 2, "az": 64, "ss": 34, "el": 50}, {"used": true, "PRN": 5, "az": 21, "ss": 40, "el": 73}, {"used": true, "PRN": 12, "az": 214, "ss": 22, "el": 25}, {"used": false, "PRN": 13, "az": 147, "ss": 0, "el": 30}, {"used": true, "PRN": 15, "az": 183, "ss": 7, "el": 19}, {"used": true, "PRN": 29, "az": 316, "ss": 33, "el": 45}, {"used": true, "PRN": 6, "az": 87, "ss": 18, "el": 12}, {"used": true, "PRN": 25, "az": 252, "ss": 24, "el": 29}, {"used": false, "PRN": 4, "az": 316, "ss": 0, "el": 54}, {"used": false, "PRN": 9, "az": 60, "ss": 0, "el": 29}, {"used": false, "PRN": 21, "az": 291, "ss": 0, "el": 16}, {"used": true, "PRN": 131, "az": 228, "ss": 34, "el": 36}], "tdop": 1.28, "xdop": 0.64, "vdop": 2.02, "device": "/dev/ttyUSB0", "pdop": 2.3, "gdop": 2.63}], "tpv": [{"climb": -0.279, "time": "2000-12-23T18:41:40.000Z", "alt": 839.678, "ept": 0.005, "lon": -84.034826644, "eps": 26.99, "speed": 11.018, "mode": 3, "lat": 34.701373429, "class": "TPV", "epx": 9.592, "epv": 46.443, "epc": 92.89, "track": 245.7803, "device": "/dev/ttyUSB0", "epy": 13.493}], "class": "POLL", "active": 1, "gst": [{"time": "1970-01-01T00:00:00.000Z", "alt": 0.0, "rms": 0.0, "class": "GST", "major": 0.0, "orient": 0.0, "minor": 0.0, "lon": 0.0, "device": "/dev/ttyUSB0", "lat": 0.0}]}
{"time": "2018-04-11T17:20:08.766Z", "sky": [{"hdop": 1.6, "time": "2000-12-23T18:41:43.000Z", "class": "SKY", "ydop": 0.9, "satellites": [{"used": true, "PRN": 2, "az": 64, "ss": 38, "el": 50}, {"used": true, "PRN": 5, "az": 21, "ss": 41, "el": 73}, {"used": true, "PRN": 12, "az": 214, "ss": 21, "el": 25}, {"used": false, "PRN": 13, "az": 147, "ss": 17, "el": 30}, {"used": false, "PRN": 15, "az": 183, "ss": 0, "el": 19}, {"used": true, "PRN": 29, "az": 316, "ss": 33, "el": 45}, {"used": true, "PRN": 6, "az": 87, "ss": 17, "el": 12}, {"used": true, "PRN": 25, "az": 252, "ss": 24, "el": 29}, {"used": false, "PRN": 4, "az": 316, "ss": 0, "el": 54}, {"used": false, "PRN": 9, "az": 60, "ss": 0, "el": 29}, {"used": false, "PRN": 21, "az": 291, "ss": 0, "el": 16}, {"used": true, "PRN": 131, "az": 228, "ss": 26, "el": 36}], "tdop": 1.28, "xdop": 0.64, "vdop": 2.02, "device": "/dev/ttyUSB0", "pdop": 2.3, "gdop": 2.63}], "tpv": [{"climb": -0.087, "time": "2000-12-23T18:41:45.000Z", "alt": 835.738, "epd": 86.6275, "ept": 0.005, "lon": -84.035428008, "eps": 26.99, "speed": 13.504, "mode": 3, "lat": 34.701047192, "class": "TPV", "epx": 9.592, "epv": 46.443, "epc": 92.89, "track": 242.0697, "device": "/dev/ttyUSB0", "epy": 13.493}], "class": "POLL", "active": 1, "gst": [{"time": "1970-01-01T00:00:00.000Z", "alt": 0.0, "rms": 0.0, "class": "GST", "major": 0.0, "orient": 0.0, "minor": 0.0, "lon": 0.0, "device": "/dev/ttyUSB0", "lat": 0.0}]}
{"time": "2018-04-11T17:20:13.792Z", "sky": [{"hdop": 1.2, "time": "2000-12-23T18:41:49.000Z", "class": "SKY", "ydop": 0.9, "satellites": [{"used": true, "PRN": 2, "az": 64, "ss": 37, "el": 50}, {"used": true, "PRN": 5, "az": 21, "ss": 36, "el": 73}, {"used": false, "PRN": 12, "az": 214, "ss": 6, "el": 25}, {"used": true, "PRN": 13, "az": 147, "ss": 19, "el": 30}, {"used": false, "PRN": 15, "az": 183, "ss": 0, "el": 19}, {"used": true, "PRN": 29, "az": 316, "ss": 29, "el": 45}, {"used": true, "PRN": 6, "az": 87, "ss": 14, "el": 12}, {"used": true, "PRN": 25, "az": 252, "ss": 12, "el": 29}, {"used": false, "PRN": 4, "az": 316, "ss": 0, "el": 54}, {"used": false, "PRN": 9, "az": 60, "ss": 0, "el": 29}, {"used": false, "PRN": 21, "az": 291, "ss": 0, "el": 16}, {"used": false, "PRN": 138, "az": 216, "ss": 0, "el": 42}], "tdop": 1.28, "xdop": 0.64, "vdop": 2.02, "device": "/dev/ttyUSB0", "pdop": 2.3, "gdop": 2.63}], "tpv": [{"climb": -0.263, "time": "2000-12-23T18:41:50.000Z", "alt": 831.87, "epd": 87.7342, "ept": 0.005, "lon": -84.036160269, "eps": 26.99, "speed": 13.433, "mode": 3, "lat": 34.700884964, "class": "TPV", "epx": 9.592, "epv": 46.443, "epc": 92.89, "track": 269.4789, "device": "/dev/ttyUSB0", "epy": 13.493}], "class": "POLL", "active": 1, "gst": [{"time": "1970-01-01T00:00:00.000Z", "alt": 0.0, "rms": 0.0, "class": "GST", "major": 0.0, "orient": 0.0, "minor": 0.0, "lon": 0.0, "device": "/dev/ttyUSB0", "lat": 0.0}]}
{"time": "2018-04-11T17:20:18.818Z", "sky": [{"hdop": 11.2, "time": "2000-12-23T18:41:55.000Z", "class": "SKY", "ydop": 0.9, "satellites": [{"used": true, "PRN": 2, "az": 64, "ss": 36, "el": 50}, {"used": true, "PRN": 5, "az": 21, "ss": 42, "el": 73}, {"used": false, "PRN": 12, "az": 214, "ss": 4, "el": 25}, {"used": false, "PRN": 13, "az": 147, "ss": 0, "el": 30}, {"used": false, "PRN": 25, "az": 252, "ss": 0, "el": 29}, {"used": true, "PRN": 29, "az": 316, "ss": 29, "el": 45}, {"used": true, "PRN": 6, "az": 87, "ss": 18, "el": 12}, {"used": false, "PRN": 15, "az": 183, "ss": 0, "el": 19}, {"used": false, "PRN": 4, "az": 316, "ss": 0, "el": 54}, {"used": false, "PRN": 9, "az": 60, "ss": 0, "el": 29}, {"used": false, "PRN": 21, "az": 291, "ss": 0, "el": 16}, {"used": false, "PRN": 138, "az": 216, "ss": 0, "el": 42}], "tdop": 1.28, "xdop": 0.64, "vdop": 2.02, "device": "/dev/ttyUSB0", "pdop": 2.3, "gdop": 2.63}], "tpv": [{"climb": -0.19, "time": "2000-12-23T18:41:55.000Z", "alt": 827.205, "epd": 72.9189, "ept": 0.005, "lon": -84.036997837, "eps": 26.99, "speed": 16.689, "mode": 3, "lat": 34.701078522, "class": "TPV", "epx": 9.592, "epv": 46.443, "epc": 92.89, "track": 280.9591, "device": "/dev/ttyUSB0", "epy": 13.493}], "class": "POLL", "active": 1, "gst": [{"time": "1970-01-01T00:00:00.000Z", "alt": 0.0, "rms": 0.0, "class": "GST", "major": 0.0, "orient": 0.0, "minor": 0.0, "lon": 0.0, "device": "/dev/ttyUSB0", "lat": 0.0}]}
{"time": "2018-04-11T17:20:23.848Z", "sky": [{"hdop": 2.2, "time": "2000-12-23T18:41:58.000Z", "class": "SKY", "ydop": 0.9, "satellites": [{"used": true, "PRN": 2, "az": 64, "ss": 44, "el": 50}, {"used": true, "PRN": 5, "az": 21, "ss": 43, "el": 73}, {"used": false, "PRN": 13, "az": 147, "ss": 19, "el": 30}, {"used": true, "PRN": 25, "az": 252, "ss": 26, "el": 29}, {"used": false, "PRN": 12, "az": 214, "ss": 0, "el": 25}, {"used": true, "PRN": 29, "az": 316, "ss": 34, "el": 45}, {"used": true, "PRN": 6, "az": 87, "ss": 20, "el": 12}, {"used": false, "PRN": 15, "az": 183, "ss": 0, "el": 19}, {"used": false, "PRN": 4, "az": 316, "ss": 0, "el": 54}, {"used": false, "PRN": 9, "az": 60, "ss": 0, "el": 29}, {"used": false, "PRN": 21, "az": 291, "ss": 0, "el": 16}, {"used": false, "PRN": 138, "az": 216, "ss": 0, "el": 42}], "tdop": 1.28, "xdop": 0.64, "vdop": 2.02, "device": "/dev/ttyUSB0", "pdop": 2.3, "gdop": 2.63}], "tpv": [{"climb": -0.423, "time": "2000-12-23T18:42:00.000Z", "alt": 823.3, "ept": 0.005, "lon": -84.037830224, "eps": 26.99, "speed": 11.884, "mode": 3, "lat": 34.701201565, "class": "TPV", "epx": 9.592, "epv": 46.443, "epc": 92.89, "track": 274.3479, "device": "/dev/ttyUSB0", "epy": 13.493}], "class": "POLL", "active": 1, "gst": [{"time": "1970-01-01T00:00:00.000Z", "alt": 0.0, "rms": 0.0, "class": "GST", "major": 0.0, "orient": 0.0, "minor": 0.0, "lon": 0.0, "device": "/dev/ttyUSB0", "lat": 0.0}]}
{"time": "2018-04-11T17:20:28.879Z", "sky": [{"hdop": 2.2, "time": "2000-12-23T18:42:04.000Z", "class": "SKY", "ydop": 0.9, "satellites": [{"used": true, "PRN": 2, "az": 64, "ss": 43, "el": 50}, {"used": true, "PRN": 5, "az": 21, "ss": 40, "el": 73}, {"used": false, "PRN": 13, "az": 147, "ss": 0, "el": 30}, {"used": true, "PRN": 25, "az": 252, "ss": 26, "el": 29}, {"used": false, "PRN": 12, "az": 214, "ss": 17, "el": 25}, {"used": true, "PRN": 29, "az": 316, "ss": 36, "el": 45}, {"used": true, "PRN": 6, "az": 87, "ss": 19, "el": 12}, {"used": false, "PRN": 15, "az": 183, "ss": 0, "el": 19}, {"used": false, "PRN": 4, "az": 316, "ss": 0, "el": 54}, {"used": false, "PRN": 9, "az": 60, "ss": 0, "el": 29}, {"used": false, "PRN": 21, "az": 291, "ss": 0, "el": 16}, {"used": true, "PRN": 138, "az": 216, "ss": 29, "el": 42}], "tdop": 1.28, "xdop": 0.64, "vdop": 2.02, "device": "/dev/ttyUSB0", "pdop": 2.3, "gdop": 2.63}], "tpv": [{"climb": -0.295, "time": "2000-12-23T18:42:05.000Z", "alt": 818.714, "epd": 87.1756, "ept": 0.005, "lon": -84.038541909, "eps": 26.99, "speed": 12.701, "mode": 3, "lat": 34.701010922, "class": "TPV", "epx": 9.592, "epv": 46.443, "epc": 92.89, "track": 248.4692, "device": "/dev/ttyUSB0", "epy": 13.493}], "class": "POLL", "active": 1, "gst": [{"time": "1970-01-01T00:00:00.000Z", "alt": 0.0, "rms": 0.0, "class": "GST", "major": 0.0, "orient": 0.0, "minor": 0.0, "lon": 0.0, "device": "/dev/ttyUSB0", "lat": 0.0}]}
{"time": "2018-04-11T17:20:33.910Z", "sky": [{"hdop": 2.2, "time": "2000-12-23T18:42:10.000Z", "class": "SKY", "ydop": 0.9, "satellites": [{"used": true, "PRN": 2, "az": 67, "ss": 42, "el": 49}, {"used": true, "PRN": 5, "az": 22, "ss": 40, "el": 72}, {"used": true, "PRN": 12, "az": 214, "ss": 20, "el": 24}, {"used": true, "PRN": 25, "az": 250, "ss": 21, "el": 28}, {"used": false, "PRN": 13, "az": 145, "ss": 0, "el": 31}, {"used": true, "PRN": 29, "az": 316, "ss": 41, "el": 46}, {"used": false, "PRN": 15, "az": 183, "ss": 0, "el": 20}, {"used": false, "PRN": 6, "az": 87, "ss": 0, "el": 11}, {"used": false, "PRN": 4, "az": 319, "ss": 0, "el": 55}, {"used": false, "PRN": 9, "az": 58, "ss": 0, "el": 29}, {"used": false, "PRN": 21, "az": 292, "ss": 0, "el": 17}, {"used": true, "PRN": 138, "az": 216, "ss": 28, "el": 42}], "tdop": 1.28, "xdop": 0.64, "vdop": 2.02, "device": "/dev/ttyUSB0", "pdop": 2.3, "gdop": 2.63}], "tpv": [{"climb": -0.266, "time": "2000-12-23T18:42:10.000Z", "alt": 814.237, "ept": 0.005, "lon": -84.039141647, "eps": 26.99, "speed": 9.046, "mode": 3, "lat": 34.700852487, "class": "TPV", "epx": 9.592, "epv": 46.443, "epc": 92.89, "track": 268.2792, "device": "/dev/ttyUSB0", "epy": 13.493}], "class": "POLL", "active": 1, "gst": [{"time": "1970-01-01T00:00:00.000Z", "alt": 0.0, "rms": 0.0, "class": "GST", "major": 0.0, "orient": 0.0, "minor": 0.0, "lon": 0.0, "device": "/dev/ttyUSB0", "lat": 0.0}]}
{"time": "2018-04-11T17:20:38.943Z", "sky": [{"hdop": 1.0, "time": "2000-12-23T18:42:13.000Z", "class": "SKY", "ydop": 0.9, "satellites": [{"used": true, "PRN": 2, "az": 67, "ss": 35, "el": 49}, {"used": true, "PRN": 5, "az": 22, "ss": 37, "el": 72}, {"used": true, "PRN": 12, "az": 214, "ss": 20, "el": 24}, {"used": true, "PRN": 25, "az": 250, "ss": 20, "el": 28}, {"used": true, "PRN": 13, "az": 145, "ss": 26, "el": 31}, {"used": true, "PRN": 29, "az": 316, "ss": 30, "el": 46}, {"used": true, "PRN": 15, "az": 183, "ss": 18, "el": 20}, {"used": false, "PRN": 6, "az": 87, "ss": 14, "el": 11}, {"used": false, "PRN": 4, "az": 319, "ss": 0, "el": 55}, {"used": false, "PRN": 9, "az": 58, "ss": 0, "el": 29}, {"used": false, "PRN": 21, "az": 292, "ss": 0, "el": 17}, {"used": true, "PRN": 138, "az": 216, "ss": 31, "el": 42}], "tdop": 1.28, "xdop": 0.64, "vdop": 2.02, "device": "/dev/ttyUSB0", "pdop": 2.3, "gdop": 2.63}], "tpv": [{"climb": -0.124, "time": "2000-12-23T18:42:15.000Z", "alt": 810.295, "ept": 0.005, "lon": -84.039422905, "eps": 26.99, "speed": 9.408, "mode": 3, "lat": 34.701162136, "class": "TPV", "epx": 9.592, "epv": 46.443, "epc": 92.89, "track": 5.7593, "device": "/dev/ttyUSB0", "epy": 13.493}], "class": "POLL", "active": 1, "gst": [{"time": "1970-01-01T00:00:00.000Z", "alt": 0.0, "rms": 0.0, "class": "GST", "major": 0.0, "orient": 0.0, "minor": 0.0, "lon": 0.0, "device": "/dev/ttyUSB0", "lat": 0.0}]}
{"time": "2018-04-11T17:20:43.973Z", "sky": [{"hdop": 1.0, "time": "2000-12-23T18:42:19.000Z", "class": "SKY", "ydop": 0.9, "satellites": [{"used": true, "PRN": 2, "az": 67, "ss": 30, "el": 49}, {"used": true, "PRN": 5, "az": 22, "ss": 40, "el": 72}, {"used": true, "PRN": 12, "az": 214, "ss": 22, "el": 24}, {"used": true, "PRN": 25, "az": 250, "ss": 20, "el": 28}, {"used": true, "PRN": 13, "az": 145, "ss": 32, "el": 31}, {"used": true, "PRN": 29, "az": 316, "ss": 35, "el": 46}, {"used": true, "PRN": 15, "az": 183, "ss": 23, "el": 20}, {"used": true, "PRN": 6, "az": 87, "ss": 21, "el": 11}, {"used": false, "PRN": 4, "az": 319, "ss": 8, "el": 55}, {"used": false, "PRN": 9, "az": 58, "ss": 0, "el": 29}, {"used": false, "PRN": 21, "az": 292, "ss": 0, "el": 17}, {"used": false, "PRN": 133, "az": 240, "ss": 0, "el": 27}], "tdop": 1.28, "xdop": 0.64, "vdop": 2.02, "device": "/dev/ttyUSB0", "pdop": 2.3, "gdop": 2.63}], "tpv": [{"climb": -0.146, "time": "2000-12-23T18:42:21.000Z", "alt": 805.812, "ept": 0.005, "lon": -84.039342742, "eps": 26.99, "speed": 9.4, "mode": 3, "lat": 34.701760203, "class": "TPV", "epx": 9.592, "epv": 46.443, "epc": 92.89, "track": 344.801, "device": "/dev/ttyUSB0", "epy": 13.493}], "class": "POLL", "active": 1, "gst": [{"time": "1970-01-01T00:00:00.000Z", "alt": 0.0, "rms": 0.0, "class": "GST", "major": 0.0, "orient": 0.0, "minor": 0.0, "lon": 0.0, "device": "/dev/ttyUSB0", "lat": 0.0}]}
{"time": "2018-04-11T17:20:49.005Z", "sky": [{"hdop": 1.0, "time": "2000-12-23T18:42:25.000Z", "class": "SKY", "ydop": 0.9, "satellites": [{"used": true, "PRN": 2, "az": 67, "ss": 37, "el": 49}, {"used": true, "PRN": 5, "az": 22, "ss": 37, "el": 72}, {"used": true, "PRN": 12, "az": 214, "ss": 21, "el": 24}, {"used": true, "PRN": 25, "az": 250, "ss": 20, "el": 28}, {"used": true, "PRN": 13, "az": 145, "ss": 44, "el": 31}, {"used": true, "PRN": 29, "az": 316, "ss": 27, "el": 46}, {"used": true, "PRN": 15, "az": 183, "ss": 24, "el": 20}, {"used": true, "PRN": 6, "az": 87, "ss": 25, "el": 11}, {"used": false, "PRN": 4, "az": 319, "ss": 0, "el": 55}, {"used": false, "PRN": 9, "az": 58, "ss": 0, "el": 29}, {"used": false, "PRN": 21, "az": 292, "ss": 0, "el": 17}, {"used": false, "PRN": 133, "az": 240, "ss": 0, "el": 27}], "tdop": 1.28, "xdop": 0.64, "vdop": 2.02, "device": "/dev/ttyUSB0", "pdop": 2.3, "gdop": 2.63}], "tpv": [{"climb": -0.115, "time": "2000-12-23T18:42:26.000Z", "alt": 803.832, "ept": 0.005, "lon": -84.039507525, "eps": 26.99, "speed": 9.756, "mode": 3, "lat": 34.702189168, "class": "TPV", "epx": 9.592, "epv": 46.443, "epc": 92.89, "track": 347.0277, "device": "/dev/ttyUSB0", "epy": 13.493}], "class": "POLL", "active": 1, "gst": [{"time": "1970-01-01T00:00:00.000Z", "alt": 0.0, "rms": 0.0, "class": "GST", "major": 0.0, "orient": 0.0, "minor": 0.0, "lon": 0.0, "device": "/dev/ttyUSB0", "lat": 0.0}]}
{"time": "2018-04-11T17:20:54.034Z", "sky": [{"hdop": 1.0, "time": "2000-12-23T18:42:28.000Z", "class": "SKY", "ydop": 0.9, "satellites": [{"used": true, "PRN": 2, "az": 67, "ss": 33, "el": 49}, {"used": true, "PRN": 5, "az": 22, "ss": 33, "el": 72}, {"used": true, "PRN": 12, "az": 214, "ss": 21, "el": 24}, {"used": true, "PRN": 25, "az": 250, "ss": 19, "el": 28}, {"used": true, "PRN": 13, "az": 145, "ss": 30, "el": 31}, {"used": true, "PRN": 29, "az": 316, "ss": 28, "el": 46}, {"used": true, "PRN": 15, "az": 183, "ss": 23, "el": 20}, {"used": true, "PRN": 6, "az": 87, "ss": 25, "el": 11}, {"used": false, "PRN": 4, "az": 319, "ss": 0, "el": 55}, {"used": false, "PRN": 9, "az": 58, "ss": 0, "el": 29}, {"used": false, "PRN": 21, "az": 292, "ss": 0, "el": 17}, {"used": false, "PRN": 133, "az": 240, "ss": 0, "el": 27}], "tdop": 1.28, "xdop": 0.64, "vdop": 2.02, "device": "/dev/ttyUSB0", "pdop": 2.3, "gdop": 2.63}], "tpv": [{"climb": -0.091, "time": "2000-12-23T18:42:30.000Z", "alt": 801.908, "ept": 0.005, "lon": -84.039520344, "eps": 26.99, "speed": 12.105, "mode": 3, "lat": 34.702595853, "class": "TPV", "epx": 9.592, "epv": 46.443, "epc": 92.89, "track": 4.0325, "device": "/dev/ttyUSB0", "epy": 13.493}], "class": "POLL", "active": 1, "gst": [{"time": "1970-01-01T00:00:00.000Z", "alt": 0.0, "rms": 0.0, "class": "GST", "major": 0.0, "orient": 0.0, "minor": 0.0, "lon": 0.0, "device": "/dev/ttyUSB0", "lat": 0.0}]}
{"time": "2018-04-11T17:20:59.066Z", "sky": [{"hdop": 1.0, "time": "2000-12-23T18:42:34.000Z", "class": "SKY", "ydop": 0.9, "satellites": [{"used": true, "PRN": 2, "az": 67, "ss": 38, "el": 49}, {"used": true, "PRN": 5, "az": 22, "ss": 44, "el": 72}, {"used": true, "PRN": 12, "az": 214, "ss": 21, "el": 24}, {"used": true, "PRN": 25, "az": 250, "ss": 19, "el": 28}, {"used": true, "PRN": 13, "az": 145, "ss": 31, "el": 31}, {"used": true, "PRN": 29, "az": 316, "ss": 32, "el": 46}, {"used": true, "PRN": 15, "az": 183, "ss": 24, "el": 20}, {"used": true, "PRN": 6, "az": 87, "ss": 25, "el": 11}, {"used": false, "PRN": 4, "az": 319, "ss": 0, "el": 55}, {"used": false, "PRN": 9, "az": 58, "ss": 0, "el": 29}, {"used": false, "PRN": 21, "az": 292, "ss": 0, "el": 17}, {"used": false, "PRN": 133, "az": 240, "ss": 0, "el": 27}], "tdop": 1.28, "xdop": 0.64, "vdop": 2.02, "device": "/dev/ttyUSB0", "pdop": 2.3, "gdop": 2.63}], "tpv": [{"climb": -0.271, "time": "2000-12-23T18:42:36.000Z", "alt": 798.39, "ept": 0.005, "lon": -84.039436781, "eps": 26.99, "speed": 11.136, "mode": 3, "lat": 34.703253692, "class": "TPV", "epx": 9.592, "epv": 46.443, "epc": 92.89, "track": 350.5024, "device": "/dev/ttyUSB0", "epy": 13.493}], "class": "POLL", "active": 1, "gst": [{"time": "1970-01-01T00:00:00.000Z", "alt": 0.0, "rms": 0.0, "class": "GST", "major": 0.0, "orient": 0.0, "minor": 0.0, "lon": 0.0, "device": "/dev/ttyUSB0", "lat": 0.0}]}
