{"gst": [{"minor": 0.0, "lon": 0.0, "time": "1970-01-01T00:00:00.000Z", "device": "/dev/ttyUSB0", "class": "GST", "lat": 0.0, "orient": 0.0, "rms": 0.0, "major": 0.0, "alt": 0.0}], "time": "2018-04-11T07:17:28.111Z", "tpv": [{"lon": -84.072104879, "time": "2020-05-30T14:05:14.780Z", "device": "/dev/ttyUSB0", "track": 184.2668, "ept": 0.005, "mode": 3, "lat": 33.793137645, "speed": 0.174, "alt": 236.082, "class": "TPV", "climb": 0.034}], "active": 1, "class": "POLL", "sky": [{"hdop": 1.2, "time": "1970-01-01T00:00:00.000Z", "device": "/dev/ttyUSB0", "class": "SKY"}]}
{"gst": [{"minor": 0.0, "lon": 0.0, "time": "1970-01-01T00:00:00.000Z", "device": "/dev/ttyUSB0", "class": "GST", "lat": 0.0, "orient": 0.0, "rms": 0.0, "major": 0.0, "alt": 0.0}], "time": "2018-04-11T07:17:33.259Z", "tpv": [{"track": 0.0, "climb": 0.0, "speed": 0.0, "eps": 31.96, "lon": -84.072090794, "epv": 48.867, "epx": 15.979, "device": "/dev/ttyUSB0", "time": "2020-05-30T14:05:20.000Z", "epy": 10.979, "ept": 0.005, "mode": 3, "lat": 33.793137105, "epc": 97.73, "alt": 232.576, "class": "TPV"}], "active": 1, "class": "POLL", "sky": [{"ydop": 0.73, "vdop": 2.12, "time": "2020-05-30T14:05:19.000Z", "device": "/dev/ttyUSB0", "xdop": 1.07, "hdop": 0.8, "satellites": [{"ss": 33, "PRN": 1, "used": true, "el": 14, "az": 153}, {"ss": 33, "PRN": 4, "used": true, "el": 25, "az": 183}, {"ss": 38, "PRN": 8, "used": true, "el": 67, "az": 54}, {"ss": 39, "PRN": 11, "used": true, "el": 48, "az": 136}, {"ss": 35, "PRN": 27, "used": true, "el": 33, "az": 42}, {"ss": 40, "PRN": 30, "used": true, "el": 27, "az": 312}, {"ss": 20, "PRN": 7, "used": true, "el": 59, "az": 324}, {"ss": 20, "PRN": 16, "used": true, "el": 13, "az": 64}, {"ss": 34, "PRN": 23, "used": true, "el": 37, "az": 202}, {"ss": 16, "PRN": 9, "used": true, "el": 44, "az": 220}, {"ss": 0, "PRN": 18, "used": false, "el": 29, "az": 117}, {"ss": 0, "PRN": 131, "used": false, "el": 37, "az": 228}], "gdop": 2.78, "tdop": 1.24, "class": "SKY", "pdop": 2.49}]}
{"gst": [{"minor": 0.0, "lon": 0.0, "time": "1970-01-01T00:00:00.000Z", "device": "/dev/ttyUSB0", "class": "GST", "lat": 0.0, "orient": 0.0, "rms": 0.0, "major": 0.0, "alt": 0.0}], "time": "2018-04-11T07:17:38.286Z", "tpv": [{"track": 0.0, "climb": 0.0, "speed": 0.0, "eps": 31.96, "lon": -84.072089679, "epv": 48.867, "epx": 15.979, "device": "/dev/ttyUSB0", "time": "2020-05-30T14:05:24.000Z", "epy": 10.979, "ept": 0.005, "mode": 3, "lat": 33.7931346, "epc": 97.73, "alt": 231.193, "class": "TPV"}], "active": 1, "class": "POLL", "sky": [{"ydop": 0.73, "vdop": 2.12, "time": "2020-05-30T14:05:22.000Z", "device": "/dev/ttyUSB0", "xdop": 1.07, "hdop": 0.8, "satellites": [{"ss": 33, "PRN": 1, "used": true, "el": 14, "az": 153}, {"ss": 33, "PRN": 4, "used": true, "el": 25, "az": 183}, {"ss": 38, "PRN": 8, "used": true, "el": 67, "az": 54}, {"ss": 39, "PRN": 11, "used": true, "el": 48, "az": 136}, {"ss": 35, "PRN": 27, "used": true, "el": 33, "az": 42}, {"ss": 40, "PRN": 30, "used": true, "el": 27, "az": 312}, {"ss": 19, "PRN": 7, "used": true, "el": 59, "az": 324}, {"ss": 20, "PRN": 16, "used": true, "el": 13, "az": 64}, {"ss": 34, "PRN": 23, "used": true, "el": 37, "az": 202}, {"ss": 22, "PRN": 9, "used": true, "el": 44, "az": 220}, {"ss": 0, "PRN": 18, "used": false, "el": 29, "az": 117}, {"ss": 0, "PRN": 131, "used": false, "el": 37, "az": 228}], "gdop": 2.78, "tdop": 1.24, "class": "SKY", "pdop": 2.49}]}
{"gst": [{"minor": 0.0, "lon": 0.0, "time": "1970-01-01T00:00:00.000Z", "device": "/dev/ttyUSB0", "class": "GST", "lat": 0.0, "orient": 0.0, "rms": 0.0, "major": 0.0, "alt": 0.0}], "time": "2018-04-11T07:17:43.319Z", "tpv": [{"track": 0.0, "climb": 0.0, "speed": 0.0, "eps": 31.96, "lon": -84.072100419, "epv": 48.867, "epx": 15.979, "device": "/dev/ttyUSB0", "time": "2020-05-30T14:05:30.000Z", "epy": 10.979, "ept": 0.005, "mode": 3, "lat": 33.793120134, "epc": 97.73, "alt": 229.995, "class": "TPV"}], "active": 1, "class": "POLL", "sky": [{"ydop": 0.73, "vdop": 2.12, "time": "2020-05-30T14:05:28.000Z", "device": "/dev/ttyUSB0", "xdop": 1.07, "hdop": 0.8, "satellites": [{"ss": 33, "PRN": 1, "used": true, "el": 14, "az": 153}, {"ss": 32, "PRN": 4, "used": true, "el": 25, "az": 183}, {"ss": 38, "PRN": 8, "used": true, "el": 67, "az": 54}, {"ss": 35, "PRN": 11, "used": true, "el": 48, "az": 136}, {"ss": 36, "PRN": 27, "used": true, "el": 33, "az": 42}, {"ss": 40, "PRN": 30, "used": true, "el": 27, "az": 312}, {"ss": 18, "PRN": 7, "used": true, "el": 59, "az": 324}, {"ss": 19, "PRN": 16, "used": true, "el": 13, "az": 64}, {"ss": 34, "PRN": 23, "used": true, "el": 37, "az": 202}, {"ss": 22, "PRN": 9, "used": true, "el": 44, "az": 220}, {"ss": 0, "PRN": 18, "used": false, "el": 29, "az": 117}, {"ss": 0, "PRN": 131, "used": false, "el": 37, "az": 228}], "gdop": 2.78, "tdop": 1.24, "class": "SKY", "pdop": 2.49}]}
{"gst": [{"minor": 0.0, "lon": 0.0, "time": "1970-01-01T00:00:00.000Z", "device": "/dev/ttyUSB0", "class": "GST", "lat": 0.0, "orient": 0.0, "rms": 0.0, "major": 0.0, "alt": 0.0}], "time": "2018-04-11T07:17:48.346Z", "tpv": [{"track": 0.0, "climb": 0.0, "speed": 0.0, "eps": 31.96, "lon": -84.072111159, "epv": 48.867, "epx": 15.979, "device": "/dev/ttyUSB0", "time": "2020-05-30T14:05:35.000Z", "epy": 10.979, "ept": 0.005, "mode": 3, "lat": 33.793120651, "epc": 97.73, "alt": 229.909, "class": "TPV"}], "active": 1, "class": "POLL", "sky": [{"ydop": 0.73, "vdop": 2.12, "time": "2020-05-30T14:05:34.000Z", "device": "/dev/ttyUSB0", "xdop": 1.07, "hdop": 0.8, "satellites": [{"ss": 10, "PRN": 1, "used": true, "el": 14, "az": 153}, {"ss": 10, "PRN": 4, "used": true, "el": 25, "az": 183}, {"ss": 11, "PRN": 8, "used": true, "el": 67, "az": 54}, {"ss": 11, "PRN": 11, "used": true, "el": 48, "az": 136}, {"ss": 11, "PRN": 27, "used": true, "el": 33, "az": 42}, {"ss": 12, "PRN": 30, "used": true, "el": 27, "az": 312}, {"ss": 5, "PRN": 7, "used": true, "el": 59, "az": 324}, {"ss": 5, "PRN": 16, "used": true, "el": 13, "az": 64}, {"ss": 10, "PRN": 23, "used": true, "el": 37, "az": 202}, {"ss": 6, "PRN": 9, "used": true, "el": 44, "az": 220}, {"ss": 0, "PRN": 18, "used": false, "el": 29, "az": 117}, {"ss": 0, "PRN": 131, "used": false, "el": 37, "az": 228}], "gdop": 2.78, "tdop": 1.24, "class": "SKY", "pdop": 2.49}]}
{"gst": [{"minor": 0.0, "lon": 0.0, "time": "1970-01-01T00:00:00.000Z", "device": "/dev/ttyUSB0", "class": "GST", "lat": 0.0, "orient": 0.0, "rms": 0.0, "major": 0.0, "alt": 0.0}], "time": "2018-04-11T07:17:54.275Z", "tpv": [{"track": 0.0, "climb": 0.0, "speed": 0.0, "eps": 31.96, "lon": -84.072121899, "epv": 48.867, "epx": 15.979, "device": "/dev/ttyUSB0", "time": "2020-05-30T14:05:41.000Z", "epy": 10.979, "ept": 0.005, "mode": 3, "lat": 33.793121169, "epc": 97.73, "alt": 229.823, "class": "TPV"}], "active": 1, "class": "POLL", "sky": [{"ydop": 0.73, "vdop": 2.12, "time": "2020-05-30T14:05:40.000Z", "device": "/dev/ttyUSB0", "xdop": 1.07, "hdop": 0.8, "satellites": [{"ss": 34, "PRN": 1, "used": true, "el": 14, "az": 153}, {"ss": 32, "PRN": 4, "used": true, "el": 25, "az": 183}, {"ss": 38, "PRN": 8, "used": true, "el": 67, "az": 54}, {"ss": 39, "PRN": 11, "used": true, "el": 48, "az": 136}, {"ss": 37, "PRN": 27, "used": true, "el": 33, "az": 42}, {"ss": 39, "PRN": 30, "used": true, "el": 27, "az": 312}, {"ss": 15, "PRN": 7, "used": true, "el": 59, "az": 324}, {"ss": 19, "PRN": 16, "used": true, "el": 13, "az": 64}, {"ss": 32, "PRN": 23, "used": true, "el": 37, "az": 202}, {"ss": 17, "PRN": 9, "used": true, "el": 44, "az": 220}, {"ss": 0, "PRN": 18, "used": false, "el": 29, "az": 117}, {"ss": 0, "PRN": 131, "used": false, "el": 37, "az": 228}], "gdop": 2.78, "tdop": 1.24, "class": "SKY", "pdop": 2.49}]}
{"gst": [{"minor": 0.0, "lon": 0.0, "time": "1970-01-01T00:00:00.000Z", "device": "/dev/ttyUSB0", "class": "GST", "lat": 0.0, "orient": 0.0, "rms": 0.0, "major": 0.0, "alt": 0.0}], "time": "2018-04-11T07:17:59.299Z", "tpv": [{"track": 0.0, "climb": 0.0, "speed": 0.0, "eps": 31.96, "lon": -84.072121899, "epv": 48.867, "epx": 15.979, "device": "/dev/ttyUSB0", "time": "2020-05-30T14:05:45.000Z", "epy": 10.979, "ept": 0.005, "mode": 3, "lat": 33.793121169, "epc": 97.73, "alt": 229.823, "class": "TPV"}], "active": 1, "class": "POLL", "sky": [{"ydop": 0.73, "vdop": 2.12, "time": "2020-05-30T14:05:43.000Z", "device": "/dev/ttyUSB0", "xdop": 1.07, "hdop": 0.8, "satellites": [{"ss": 35, "PRN": 1, "used": true, "el": 14, "az": 153}, {"ss": 32, "PRN": 4, "used": true, "el": 25, "az": 183}, {"ss": 38, "PRN": 8, "used": true, "el": 67, "az": 54}, {"ss": 39, "PRN": 11, "used": true, "el": 48, "az": 136}, {"ss": 38, "PRN": 27, "used": true, "el": 33, "az": 42}, {"ss": 39, "PRN": 30, "used": true, "el": 27, "az": 312}, {"ss": 21, "PRN": 7, "used": true, "el": 59, "az": 324}, {"ss": 18, "PRN": 16, "used": true, "el": 13, "az": 64}, {"ss": 32, "PRN": 23, "used": true, "el": 37, "az": 202}, {"ss": 24, "PRN": 9, "used": true, "el": 44, "az": 220}, {"ss": 0, "PRN": 18, "used": false, "el": 29, "az": 117}, {"ss": 0, "PRN": 131, "used": false, "el": 37, "az": 228}], "gdop": 2.78, "tdop": 1.24, "class": "SKY", "pdop": 2.49}]}
{"gst": [{"minor": 0.0, "lon": 0.0, "time": "1970-01-01T00:00:00.000Z", "device": "/dev/ttyUSB0", "class": "GST", "lat": 0.0, "orient": 0.0, "rms": 0.0, "major": 0.0, "alt": 0.0}], "time": "2018-04-11T07:18:04.330Z", "tpv": [{"track": 0.0, "climb": 0.07, "speed": 0.104, "eps": 31.96, "lon": -84.072132639, "epv": 48.867, "epx": 15.979, "device": "/dev/ttyUSB0", "time": "2020-05-30T14:05:49.000Z", "epy": 10.979, "ept": 0.005, "mode": 3, "lat": 33.793121687, "epc": 97.73, "alt": 229.737, "class": "TPV"}], "active": 1, "class": "POLL", "sky": [{"ydop": 0.73, "vdop": 2.12, "time": "2020-05-30T14:05:49.000Z", "device": "/dev/ttyUSB0", "xdop": 1.07, "hdop": 0.8, "satellites": [{"ss": 36, "PRN": 1, "used": true, "el": 14, "az": 153}, {"ss": 33, "PRN": 4, "used": true, "el": 24, "az": 183}, {"ss": 39, "PRN": 8, "used": true, "el": 67, "az": 54}, {"ss": 39, "PRN": 11, "used": true, "el": 48, "az": 136}, {"ss": 38, "PRN": 27, "used": true, "el": 33, "az": 42}, {"ss": 39, "PRN": 30, "used": true, "el": 27, "az": 312}, {"ss": 25, "PRN": 7, "used": true, "el": 59, "az": 325}, {"ss": 19, "PRN": 16, "used": true, "el": 12, "az": 64}, {"ss": 33, "PRN": 23, "used": true, "el": 37, "az": 202}, {"ss": 23, "PRN": 9, "used": true, "el": 44, "az": 220}, {"ss": 0, "PRN": 18, "used": false, "el": 29, "az": 117}, {"ss": 0, "PRN": 138, "used": false, "el": 43, "az": 217}], "gdop": 2.78, "tdop": 1.24, "class": "SKY", "pdop": 2.49}]}
{"gst": [{"minor": 0.0, "lon": 0.0, "time": "1970-01-01T00:00:00.000Z", "device": "/dev/ttyUSB0", "class": "GST", "lat": 0.0, "orient": 0.0, "rms": 0.0, "major": 0.0, "alt": 0.0}], "time": "2018-04-11T07:18:09.362Z", "tpv": [{"track": 0.0, "climb": 0.0, "speed": 0.0, "eps": 31.96, "lon": -84.072144494, "epv": 48.867, "epx": 15.979, "device": "/dev/ttyUSB0", "time": "2020-05-30T14:05:56.000Z", "epy": 10.979, "ept": 0.005, "mode": 3, "lat": 33.79312471, "epc": 97.73, "alt": 231.034, "class": "TPV"}], "active": 1, "class": "POLL", "sky": [{"ydop": 0.73, "vdop": 2.12, "time": "2020-05-30T14:05:55.000Z", "device": "/dev/ttyUSB0", "xdop": 1.07, "hdop": 0.8, "satellites": [{"ss": 36, "PRN": 1, "used": true, "el": 14, "az": 153}, {"ss": 33, "PRN": 4, "used": true, "el": 24, "az": 183}, {"ss": 39, "PRN": 8, "used": true, "el": 67, "az": 54}, {"ss": 40, "PRN": 11, "used": true, "el": 48, "az": 136}, {"ss": 38, "PRN": 27, "used": true, "el": 33, "az": 42}, {"ss": 37, "PRN": 30, "used": true, "el": 27, "az": 312}, {"ss": 26, "PRN": 7, "used": true, "el": 59, "az": 325}, {"ss": 19, "PRN": 16, "used": true, "el": 12, "az": 64}, {"ss": 33, "PRN": 23, "used": true, "el": 37, "az": 202}, {"ss": 11, "PRN": 9, "used": true, "el": 44, "az": 220}, {"ss": 0, "PRN": 18, "used": false, "el": 29, "az": 117}, {"ss": 28, "PRN": 138, "used": true, "el": 43, "az": 217}], "gdop": 2.78, "tdop": 1.24, "class": "SKY", "pdop": 2.49}]}
{"gst": [{"minor": 0.0, "lon": 0.0, "time": "1970-01-01T00:00:00.000Z", "device": "/dev/ttyUSB0", "class": "GST", "lat": 0.0, "orient": 0.0, "rms": 0.0, "major": 0.0, "alt": 0.0}], "time": "2018-04-11T07:18:14.392Z", "tpv": [{"track": 0.0, "climb": 0.0, "speed": 0.0, "eps": 31.96, "lon": -84.072144494, "epv": 48.867, "epx": 15.979, "device": "/dev/ttyUSB0", "time": "2020-05-30T14:06:00.000Z", "epy": 10.979, "ept": 0.005, "mode": 3, "lat": 33.79312471, "epc": 97.73, "alt": 231.034, "class": "TPV"}], "active": 1, "class": "POLL", "sky": [{"ydop": 0.73, "vdop": 2.12, "time": "2020-05-30T14:06:01.000Z", "device": "/dev/ttyUSB0", "xdop": 1.07, "hdop": 0.8, "satellites": [{"ss": 35, "PRN": 1, "used": true, "el": 14, "az": 153}, {"ss": 38, "PRN": 4, "used": true, "el": 24, "az": 183}, {"ss": 37, "PRN": 8, "used": true, "el": 67, "az": 54}, {"ss": 42, "PRN": 11, "used": true, "el": 48, "az": 136}, {"ss": 31, "PRN": 27, "used": true, "el": 33, "az": 42}, {"ss": 34, "PRN": 30, "used": true, "el": 27, "az": 312}, {"ss": 19, "PRN": 7, "used": true, "el": 59, "az": 325}, {"ss": 19, "PRN": 16, "used": true, "el": 12, "az": 64}, {"ss": 29, "PRN": 23, "used": true, "el": 37, "az": 202}, {"ss": 24, "PRN": 9, "used": true, "el": 44, "az": 220}, {"ss": 0, "PRN": 18, "used": false, "el": 29, "az": 117}, {"ss": 26, "PRN": 138, "used": true, "el": 43, "az": 217}], "gdop": 2.78, "tdop": 1.24, "class": "SKY", "pdop": 2.49}]}
{"gst": [{"minor": 0.0, "lon": 0.0, "time": "1970-01-01T00:00:00.000Z", "device": "/dev/ttyUSB0", "class": "GST", "lat": 0.0, "orient": 0.0, "rms": 0.0, "major": 0.0, "alt": 0.0}], "time": "2018-04-11T07:18:19.423Z", "tpv": [{"track": 0.0, "climb": 0.0, "speed": 0.0, "eps": 31.96, "lon": -84.072144494, "epv": 48.867, "epx": 15.979, "device": "/dev/ttyUSB0", "time": "2020-05-30T14:06:06.000Z", "epy": 10.979, "ept": 0.005, "mode": 3, "lat": 33.793132202, "epc": 97.73, "alt": 231.591, "class": "TPV"}], "active": 1, "class": "POLL", "sky": [{"ydop": 0.73, "vdop": 2.12, "time": "2020-05-30T14:06:04.000Z", "device": "/dev/ttyUSB0", "xdop": 1.07, "hdop": 0.8, "satellites": [{"ss": 35, "PRN": 1, "used": true, "el": 15, "az": 153}, {"ss": 38, "PRN": 4, "used": true, "el": 24, "az": 183}, {"ss": 37, "PRN": 8, "used": true, "el": 67, "az": 54}, {"ss": 42, "PRN": 11, "used": true, "el": 49, "az": 136}, {"ss": 31, "PRN": 27, "used": true, "el": 33, "az": 42}, {"ss": 33, "PRN": 30, "used": true, "el": 27, "az": 312}, {"ss": 19, "PRN": 7, "used": true, "el": 59, "az": 325}, {"ss": 18, "PRN": 16, "used": true, "el": 12, "az": 64}, {"ss": 29, "PRN": 23, "used": true, "el": 37, "az": 202}, {"ss": 24, "PRN": 9, "used": true, "el": 44, "az": 220}, {"ss": 0, "PRN": 18, "used": false, "el": 29, "az": 117}, {"ss": 27, "PRN": 138, "used": true, "el": 43, "az": 217}], "gdop": 2.78, "tdop": 1.24, "class": "SKY", "pdop": 2.49}]}
{"gst": [{"minor": 0.0, "lon": 0.0, "time": "1970-01-01T00:00:00.000Z", "device": "/dev/ttyUSB0", "class": "GST", "lat": 0.0, "orient": 0.0, "rms": 0.0, "major": 0.0, "alt": 0.0}], "time": "2018-04-11T07:18:24.449Z", "tpv": [{"track": 328.2725, "climb": -0.089, "speed": 0.424, "eps": 31.96, "lon": -84.072154119, "epv": 48.867, "epx": 15.979, "device": "/dev/ttyUSB0", "time": "2020-05-30T14:06:11.000Z", "epy": 10.979, "ept": 0.005, "mode": 3, "lat": 33.793145199, "epc": 97.73, "alt": 231.234, "class": "TPV"}], "active": 1, "class": "POLL", "sky": [{"ydop": 0.73, "vdop": 2.12, "time": "2020-05-30T14:06:10.000Z", "device": "/dev/ttyUSB0", "xdop": 1.07, "hdop": 0.8, "satellites": [{"ss": 35, "PRN": 1, "used": true, "el": 15, "az": 153}, {"ss": 38, "PRN": 4, "used": true, "el": 24, "az": 183}, {"ss": 38, "PRN": 8, "used": true, "el": 67, "az": 54}, {"ss": 42, "PRN": 11, "used": true, "el": 49, "az": 136}, {"ss": 31, "PRN": 27, "used": true, "el": 33, "az": 42}, {"ss": 27, "PRN": 30, "used": true, "el": 27, "az": 312}, {"ss": 26, "PRN": 7, "used": true, "el": 59, "az": 325}, {"ss": 19, "PRN": 16, "used": true, "el": 12, "az": 64}, {"ss": 32, "PRN": 23, "used": true, "el": 37, "az": 202}, {"ss": 26, "PRN": 9, "used": true, "el": 44, "az": 220}, {"ss": 0, "PRN": 18, "used": false, "el": 29, "az": 117}, {"ss": 29, "PRN": 138, "used": true, "el": 43, "az": 217}], "gdop": 2.78, "tdop": 1.24, "class": "SKY", "pdop": 2.49}]}
{"gst": [{"minor": 0.0, "lon": 0.0, "time": "1970-01-01T00:00:00.000Z", "device": "/dev/ttyUSB0", "class": "GST", "lat": 0.0, "orient": 0.0, "rms": 0.0, "major": 0.0, "alt": 0.0}], "time": "2018-04-11T07:18:29.479Z", "tpv": [{"track": 219.6071, "climb": 0.023, "speed": 0.215, "eps": 31.96, "lon": -84.072155234, "epv": 48.867, "epx": 15.979, "device": "/dev/ttyUSB0", "time": "2020-05-30T14:06:16.000Z", "epy": 10.979, "ept": 0.005, "mode": 3, "lat": 33.793140212, "epc": 97.73, "alt": 232.061, "class": "TPV"}], "active": 1, "class": "POLL", "sky": [{"ydop": 0.73, "vdop": 2.12, "time": "2020-05-30T14:06:16.000Z", "device": "/dev/ttyUSB0", "xdop": 1.07, "hdop": 0.8, "satellites": [{"ss": 34, "PRN": 1, "used": true, "el": 15, "az": 153}, {"ss": 34, "PRN": 4, "used": true, "el": 24, "az": 183}, {"ss": 44, "PRN": 8, "used": true, "el": 67, "az": 54}, {"ss": 43, "PRN": 11, "used": true, "el": 49, "az": 136}, {"ss": 38, "PRN": 27, "used": true, "el": 33, "az": 42}, {"ss": 33, "PRN": 30, "used": true, "el": 27, "az": 312}, {"ss": 34, "PRN": 7, "used": true, "el": 59, "az": 325}, {"ss": 25, "PRN": 16, "used": true, "el": 12, "az": 64}, {"ss": 33, "PRN": 23, "used": true, "el": 37, "az": 202}, {"ss": 31, "PRN": 9, "used": true, "el": 44, "az": 220}, {"ss": 0, "PRN": 18, "used": false, "el": 29, "az": 117}, {"ss": 34, "PRN": 138, "used": true, "el": 43, "az": 217}], "gdop": 2.78, "tdop": 1.24, "class": "SKY", "pdop": 2.49}]}
{"gst": [{"minor": 0.0, "lon": 0.0, "time": "1970-01-01T00:00:00.000Z", "device": "/dev/ttyUSB0", "class": "GST", "lat": 0.0, "orient": 0.0, "rms": 0.0, "major": 0.0, "alt": 0.0}], "time": "2018-04-11T07:18:34.509Z", "tpv": [{"track": 128.4803, "climb": 0.055, "speed": 0.301, "eps": 7.99, "lon": -84.072113389, "epv": 12.217, "epx": 3.995, "device": "/dev/ttyUSB0", "time": "2020-05-30T14:06:21.000Z", "epy": 2.745, "ept": 0.005, "mode": 3, "lat": 33.793148137, "epc": 24.43, "alt": 234.343, "class": "TPV"}], "active": 1, "class": "POLL", "sky": [{"ydop": 0.73, "vdop": 2.12, "time": "2020-05-30T14:06:19.000Z", "device": "/dev/ttyUSB0", "xdop": 1.07, "hdop": 1.8, "satellites": [{"ss": 34, "PRN": 1, "used": true, "el": 15, "az": 153}, {"ss": 35, "PRN": 4, "used": true, "el": 24, "az": 183}, {"ss": 45, "PRN": 8, "used": true, "el": 67, "az": 54}, {"ss": 43, "PRN": 11, "used": true, "el": 49, "az": 136}, {"ss": 39, "PRN": 27, "used": true, "el": 33, "az": 42}, {"ss": 36, "PRN": 30, "used": true, "el": 27, "az": 312}, {"ss": 34, "PRN": 7, "used": true, "el": 59, "az": 325}, {"ss": 25, "PRN": 16, "used": true, "el": 12, "az": 64}, {"ss": 38, "PRN": 23, "used": true, "el": 37, "az": 202}, {"ss": 30, "PRN": 9, "used": true, "el": 44, "az": 220}, {"ss": 0, "PRN": 18, "used": false, "el": 29, "az": 117}, {"ss": 0, "PRN": 138, "used": false, "el": 43, "az": 217}], "gdop": 2.78, "tdop": 1.24, "class": "SKY", "pdop": 2.49}]}
{"gst": [{"minor": 0.0, "lon": 0.0, "time": "1970-01-01T00:00:00.000Z", "device": "/dev/ttyUSB0", "class": "GST", "lat": 0.0, "orient": 0.0, "rms": 0.0, "major": 0.0, "alt": 0.0}], "time": "2018-04-11T07:18:39.535Z", "tpv": [{"track": 141.0139, "climb": -0.014, "speed": 0.375, "eps": 7.99, "lon": -84.072102649, "epv": 12.217, "epx": 3.995, "device": "/dev/ttyUSB0", "time": "2020-05-30T14:06:26.000Z", "epy": 2.745, "ept": 0.005, "mode": 3, "lat": 33.793140127, "epc": 24.43, "alt": 233.873, "class": "TPV"}], "active": 1, "class": "POLL", "sky": [{"ydop": 0.73, "vdop": 2.12, "time": "2020-05-30T14:06:25.000Z", "device": "/dev/ttyUSB0", "xdop": 1.07, "hdop": 1.8, "satellites": [{"ss": 39, "PRN": 1, "used": true, "el": 15, "az": 153}, {"ss": 35, "PRN": 4, "used": true, "el": 24, "az": 183}, {"ss": 46, "PRN": 8, "used": true, "el": 67, "az": 54}, {"ss": 45, "PRN": 11, "used": true, "el": 49, "az": 136}, {"ss": 40, "PRN": 27, "used": true, "el": 33, "az": 42}, {"ss": 33, "PRN": 30, "used": true, "el": 27, "az": 312}, {"ss": 28, "PRN": 7, "used": true, "el": 59, "az": 325}, {"ss": 24, "PRN": 16, "used": true, "el": 12, "az": 64}, {"ss": 37, "PRN": 23, "used": true, "el": 37, "az": 202}, {"ss": 38, "PRN": 9, "used": true, "el": 44, "az": 220}, {"ss": 0, "PRN": 18, "used": false, "el": 29, "az": 117}, {"ss": 28, "PRN": 138, "used": true, "el": 43, "az": 217}], "gdop": 2.78, "tdop": 1.24, "class": "SKY", "pdop": 2.49}]}
{"gst": [{"minor": 0.0, "lon": 0.0, "time": "1970-01-01T00:00:00.000Z", "device": "/dev/ttyUSB0", "class": "GST", "lat": 0.0, "orient": 0.0, "rms": 0.0, "major": 0.0, "alt": 0.0}], "time": "2018-04-11T07:18:44.560Z", "tpv": [{"track": 93.3052, "climb": 0.021, "speed": 0.249, "eps": 7.99, "lon": -84.072070429, "epv": 12.217, "epx": 3.995, "device": "/dev/ttyUSB0", "time": "2020-05-30T14:06:31.000Z", "epy": 2.745, "ept": 0.005, "mode": 3, "lat": 33.793146066, "epc": 24.43, "alt": 234.687, "class": "TPV"}], "active": 1, "class": "POLL", "sky": [{"ydop": 0.73, "vdop": 2.12, "time": "2020-05-30T14:06:31.000Z", "device": "/dev/ttyUSB0", "xdop": 1.07, "hdop": 1.8, "satellites": [{"ss": 36, "PRN": 1, "used": true, "el": 15, "az": 153}, {"ss": 27, "PRN": 4, "used": true, "el": 24, "az": 183}, {"ss": 41, "PRN": 8, "used": true, "el": 67, "az": 54}, {"ss": 43, "PRN": 11, "used": true, "el": 49, "az": 136}, {"ss": 34, "PRN": 27, "used": true, "el": 33, "az": 42}, {"ss": 32, "PRN": 30, "used": true, "el": 27, "az": 312}, {"ss": 33, "PRN": 7, "used": true, "el": 59, "az": 325}, {"ss": 24, "PRN": 16, "used": true, "el": 12, "az": 64}, {"ss": 37, "PRN": 23, "used": true, "el": 37, "az": 202}, {"ss": 28, "PRN": 9, "used": true, "el": 44, "az": 220}, {"ss": 0, "PRN": 18, "used": false, "el": 29, "az": 117}, {"ss": 31, "PRN": 138, "used": true, "el": 43, "az": 217}], "gdop": 2.78, "tdop": 1.24, "class": "SKY", "pdop": 2.49}]}
{"gst": [{"minor": 0.0, "lon": 0.0, "time": "1970-01-01T00:00:00.000Z", "device": "/dev/ttyUSB0", "class": "GST", "lat": 0.0, "orient": 0.0, "rms": 0.0, "major": 0.0, "alt": 0.0}], "time": "2018-04-11T07:18:49.585Z", "tpv": [{"track": 4.2668, "climb": -0.034, "speed": 0.174, "eps": 31.96, "lon": -84.072081169, "epv": 48.867, "epx": 15.979, "device": "/dev/ttyUSB0", "time": "2020-05-30T14:06:36.000Z", "epy": 10.979, "ept": 0.005, "mode": 3, "lat": 33.793146584, "epc": 97.73, "alt": 234.601, "class": "TPV"}], "active": 1, "class": "POLL", "sky": [{"ydop": 0.73, "vdop": 2.12, "time": "2020-05-30T14:06:34.000Z", "device": "/dev/ttyUSB0", "xdop": 1.07, "hdop": 0.8, "satellites": [{"ss": 11, "PRN": 1, "used": true, "el": 15, "az": 153}, {"ss": 8, "PRN": 4, "used": true, "el": 24, "az": 183}, {"ss": 13, "PRN": 8, "used": true, "el": 67, "az": 54}, {"ss": 13, "PRN": 11, "used": true, "el": 49, "az": 136}, {"ss": 10, "PRN": 27, "used": true, "el": 33, "az": 42}, {"ss": 10, "PRN": 30, "used": true, "el": 27, "az": 312}, {"ss": 10, "PRN": 7, "used": true, "el": 59, "az": 325}, {"ss": 7, "PRN": 16, "used": true, "el": 12, "az": 64}, {"ss": 11, "PRN": 23, "used": true, "el": 37, "az": 202}, {"ss": 8, "PRN": 9, "used": true, "el": 44, "az": 220}, {"ss": 5, "PRN": 28, "used": true, "el": 15, "az": 267}, {"ss": 11, "PRN": 138, "used": true, "el": 43, "az": 217}], "gdop": 2.78, "tdop": 1.24, "class": "SKY", "pdop": 2.49}]}
{"gst": [{"minor": 0.0, "lon": 0.0, "time": "1970-01-01T00:00:00.000Z", "device": "/dev/ttyUSB0", "class": "GST", "lat": 0.0, "orient": 0.0, "rms": 0.0, "major": 0.0, "alt": 0.0}], "time": "2018-04-11T07:18:54.612Z", "tpv": [{"track": 0.0, "climb": 0.0, "speed": 0.0, "eps": 31.96, "lon": -84.072081169, "epv": 48.867, "epx": 15.979, "device": "/dev/ttyUSB0", "time": "2020-05-30T14:06:41.000Z", "epy": 10.979, "ept": 0.005, "mode": 3, "lat": 33.793146584, "epc": 97.73, "alt": 234.601, "class": "TPV"}], "active": 1, "class": "POLL", "sky": [{"ydop": 0.73, "vdop": 2.12, "time": "2020-05-30T14:06:40.000Z", "device": "/dev/ttyUSB0", "xdop": 1.07, "hdop": 0.8, "satellites": [{"ss": 28, "PRN": 1, "used": true, "el": 15, "az": 153}, {"ss": 31, "PRN": 4, "used": true, "el": 24, "az": 183}, {"ss": 45, "PRN": 8, "used": true, "el": 67, "az": 54}, {"ss": 44, "PRN": 11, "used": true, "el": 49, "az": 136}, {"ss": 40, "PRN": 27, "used": true, "el": 33, "az": 42}, {"ss": 28, "PRN": 30, "used": true, "el": 27, "az": 312}, {"ss": 32, "PRN": 7, "used": true, "el": 59, "az": 325}, {"ss": 24, "PRN": 16, "used": true, "el": 12, "az": 64}, {"ss": 34, "PRN": 23, "used": true, "el": 37, "az": 202}, {"ss": 38, "PRN": 9, "used": true, "el": 44, "az": 220}, {"ss": 21, "PRN": 28, "used": true, "el": 15, "az": 267}, {"ss": 27, "PRN": 138, "used": true, "el": 43, "az": 217}], "gdop": 2.78, "tdop": 1.24, "class": "SKY", "pdop": 2.49}]}
{"gst": [{"minor": 0.0, "lon": 0.0, "time": "1970-01-01T00:00:00.000Z", "device": "/dev/ttyUSB0", "class": "GST", "lat": 0.0, "orient": 0.0, "rms": 0.0, "major": 0.0, "alt": 0.0}], "time": "2018-04-11T07:18:59.637Z", "tpv": [{"track": 39.6072, "climb": -0.023, "speed": 0.215, "eps": 31.96, "lon": -84.072081169, "epv": 48.867, "epx": 15.979, "device": "/dev/ttyUSB0", "time": "2020-05-30T14:06:46.000Z", "epy": 10.979, "ept": 0.005, "mode": 3, "lat": 33.793154076, "epc": 97.73, "alt": 235.157, "class": "TPV"}], "active": 1, "class": "POLL", "sky": [{"ydop": 0.73, "vdop": 2.12, "time": "2020-05-30T14:06:46.000Z", "device": "/dev/ttyUSB0", "xdop": 1.07, "hdop": 0.8, "satellites": [{"ss": 35, "PRN": 1, "used": true, "el": 15, "az": 153}, {"ss": 32, "PRN": 4, "used": true, "el": 24, "az": 183}, {"ss": 46, "PRN": 8, "used": true, "el": 67, "az": 54}, {"ss": 45, "PRN": 11, "used": true, "el": 49, "az": 136}, {"ss": 41, "PRN": 27, "used": true, "el": 33, "az": 42}, {"ss": 31, "PRN": 30, "used": true, "el": 27, "az": 312}, {"ss": 36, "PRN": 7, "used": true, "el": 59, "az": 325}, {"ss": 25, "PRN": 16, "used": true, "el": 12, "az": 64}, {"ss": 33, "PRN": 23, "used": true, "el": 37, "az": 202}, {"ss": 33, "PRN": 9, "used": true, "el": 44, "az": 220}, {"ss": 0, "PRN": 18, "used": false, "el": 29, "az": 117}, {"ss": 34, "PRN": 138, "used": true, "el": 43, "az": 217}], "gdop": 2.78, "tdop": 1.24, "class": "SKY", "pdop": 2.49}]}
{"gst": [{"minor": 0.0, "lon": 0.0, "time": "1970-01-01T00:00:00.000Z", "device": "/dev/ttyUSB0", "class": "GST", "lat": 0.0, "orient": 0.0, "rms": 0.0, "major": 0.0, "alt": 0.0}], "time": "2018-04-11T07:19:04.664Z", "tpv": [{"track": 4.2668, "climb": -0.034, "speed": 0.174, "eps": 31.96, "lon": -84.072081169, "epv": 48.867, "epx": 15.979, "device": "/dev/ttyUSB0", "time": "2020-05-30T14:06:51.000Z", "epy": 10.979, "ept": 0.005, "mode": 3, "lat": 33.793154076, "epc": 97.73, "alt": 235.157, "class": "TPV"}], "active": 1, "class": "POLL", "sky": [{"ydop": 0.73, "vdop": 2.12, "time": "2020-05-30T14:06:49.000Z", "device": "/dev/ttyUSB0", "xdop": 1.07, "hdop": 0.8, "satellites": [{"ss": 32, "PRN": 1, "used": true, "el": 15, "az": 153}, {"ss": 36, "PRN": 4, "used": true, "el": 24, "az": 183}, {"ss": 46, "PRN": 8, "used": true, "el": 67, "az": 54}, {"ss": 45, "PRN": 11, "used": true, "el": 49, "az": 136}, {"ss": 41, "PRN": 27, "used": true, "el": 33, "az": 42}, {"ss": 29, "PRN": 30, "used": true, "el": 27, "az": 312}, {"ss": 38, "PRN": 7, "used": true, "el": 59, "az": 325}, {"ss": 24, "PRN": 16, "used": true, "el": 12, "az": 64}, {"ss": 34, "PRN": 23, "used": true, "el": 37, "az": 202}, {"ss": 34, "PRN": 9, "used": true, "el": 44, "az": 220}, {"ss": 0, "PRN": 18, "used": false, "el": 29, "az": 117}, {"ss": 23, "PRN": 138, "used": true, "el": 43, "az": 217}], "gdop": 2.78, "tdop": 1.24, "class": "SKY", "pdop": 2.49}]}
{"gst": [{"minor": 0.0, "lon": 0.0, "time": "1970-01-01T00:00:00.000Z", "device": "/dev/ttyUSB0", "class": "GST", "lat": 0.0, "orient": 0.0, "rms": 0.0, "major": 0.0, "alt": 0.0}], "time": "2018-04-11T07:19:09.691Z", "tpv": [{"track": 0.0, "climb": 0.0, "speed": 0.0, "eps": 31.96, "lon": -84.072091909, "epv": 48.867, "epx": 15.979, "device": "/dev/ttyUSB0", "time": "2020-05-30T14:06:56.000Z", "epy": 10.979, "ept": 0.005, "mode": 3, "lat": 33.793154594, "epc": 97.73, "alt": 235.071, "class": "TPV"}], "active": 1, "class": "POLL", "sky": [{"ydop": 0.73, "vdop": 2.12, "time": "2020-05-30T14:06:55.000Z", "device": "/dev/ttyUSB0", "xdop": 1.07, "hdop": 0.8, "satellites": [{"ss": 39, "PRN": 1, "used": true, "el": 15, "az": 153}, {"ss": 38, "PRN": 4, "used": true, "el": 24, "az": 183}, {"ss": 46, "PRN": 8, "used": true, "el": 67, "az": 54}, {"ss": 44, "PRN": 11, "used": true, "el": 49, "az": 136}, {"ss": 35, "PRN": 27, "used": true, "el": 33, "az": 42}, {"ss": 25, "PRN": 30, "used": true, "el": 27, "az": 312}, {"ss": 33, "PRN": 7, "used": true, "el": 59, "az": 325}, {"ss": 24, "PRN": 16, "used": true, "el": 12, "az": 64}, {"ss": 41, "PRN": 23, "used": true, "el": 37, "az": 202}, {"ss": 36, "PRN": 9, "used": true, "el": 44, "az": 220}, {"ss": 0, "PRN": 18, "used": false, "el": 29, "az": 117}, {"ss": 34, "PRN": 138, "used": true, "el": 43, "az": 217}], "gdop": 2.78, "tdop": 1.24, "class": "SKY", "pdop": 2.49}]}
{"gst": [{"minor": 0.0, "lon": 0.0, "time": "1970-01-01T00:00:00.000Z", "device": "/dev/ttyUSB0", "class": "GST", "lat": 0.0, "orient": 0.0, "rms": 0.0, "major": 0.0, "alt": 0.0}], "time": "2018-04-11T07:19:14.719Z", "tpv": [{"track": 93.3052, "climb": 0.011, "speed": 0.125, "eps": 31.96, "lon": -84.072091909, "epv": 48.867, "epx": 15.979, "device": "/dev/ttyUSB0", "time": "2020-05-30T14:07:01.000Z", "epy": 10.979, "ept": 0.005, "mode": 3, "lat": 33.793154594, "epc": 97.73, "alt": 235.071, "class": "TPV"}], "active": 1, "class": "POLL", "sky": [{"ydop": 0.73, "vdop": 2.12, "time": "2020-05-30T14:07:01.000Z", "device": "/dev/ttyUSB0", "xdop": 1.07, "hdop": 0.8, "satellites": [{"ss": 31, "PRN": 1, "used": true, "el": 15, "az": 153}, {"ss": 37, "PRN": 4, "used": true, "el": 24, "az": 183}, {"ss": 46, "PRN": 8, "used": true, "el": 67, "az": 54}, {"ss": 44, "PRN": 11, "used": true, "el": 49, "az": 136}, {"ss": 36, "PRN": 27, "used": true, "el": 33, "az": 42}, {"ss": 24, "PRN": 30, "used": true, "el": 27, "az": 312}, {"ss": 34, "PRN": 7, "used": true, "el": 59, "az": 325}, {"ss": 24, "PRN": 16, "used": true, "el": 12, "az": 64}, {"ss": 42, "PRN": 23, "used": true, "el": 37, "az": 202}, {"ss": 36, "PRN": 9, "used": true, "el": 44, "az": 220}, {"ss": 0, "PRN": 18, "used": false, "el": 29, "az": 117}, {"ss": 29, "PRN": 138, "used": true, "el": 43, "az": 217}], "gdop": 2.78, "tdop": 1.24, "class": "SKY", "pdop": 2.49}]}
{"gst": [{"minor": 0.0, "lon": 0.0, "time": "1970-01-01T00:00:00.000Z", "device": "/dev/ttyUSB0", "class": "GST", "lat": 0.0, "orient": 0.0, "rms": 0.0, "major": 0.0, "alt": 0.0}], "time": "2018-04-11T07:19:19.744Z", "tpv": [{"track": 0.0, "climb": 0.0, "speed": 0.0, "eps": 31.96, "lon": -84.072091909, "epv": 48.867, "epx": 15.979, "device": "/dev/ttyUSB0", "time": "2020-05-30T14:07:06.000Z", "epy": 10.979, "ept": 0.005, "mode": 3, "lat": 33.793154594, "epc": 97.73, "alt": 235.071, "class": "TPV"}], "active": 1, "class": "POLL", "sky": [{"ydop": 0.73, "vdop": 2.12, "time": "2020-05-30T14:07:04.000Z", "device": "/dev/ttyUSB0", "xdop": 1.07, "hdop": 0.8, "satellites": [{"ss": 33, "PRN": 1, "used": true, "el": 15, "az": 153}, {"ss": 30, "PRN": 4, "used": true, "el": 24, "az": 183}, {"ss": 46, "PRN": 8, "used": true, "el": 67, "az": 54}, {"ss": 44, "PRN": 11, "used": true, "el": 49, "az": 136}, {"ss": 37, "PRN": 27, "used": true, "el": 33, "az": 42}, {"ss": 24, "PRN": 30, "used": true, "el": 27, "az": 312}, {"ss": 34, "PRN": 7, "used": true, "el": 59, "az": 325}, {"ss": 24, "PRN": 16, "used": true, "el": 12, "az": 64}, {"ss": 43, "PRN": 23, "used": true, "el": 37, "az": 202}, {"ss": 36, "PRN": 9, "used": true, "el": 44, "az": 220}, {"ss": 0, "PRN": 18, "used": false, "el": 29, "az": 117}, {"ss": 29, "PRN": 138, "used": true, "el": 43, "az": 217}], "gdop": 2.78, "tdop": 1.24, "class": "SKY", "pdop": 2.49}]}
{"gst": [{"minor": 0.0, "lon": 0.0, "time": "1970-01-01T00:00:00.000Z", "device": "/dev/ttyUSB0", "class": "GST", "lat": 0.0, "orient": 0.0, "rms": 0.0, "major": 0.0, "alt": 0.0}], "time": "2018-04-11T07:19:24.776Z", "tpv": [{"track": 128.4803, "climb": 0.111, "speed": 0.602, "eps": 31.96, "lon": -84.072103764, "epv": 48.867, "epx": 15.979, "device": "/dev/ttyUSB0", "time": "2020-05-30T14:07:11.000Z", "epy": 10.979, "ept": 0.005, "mode": 3, "lat": 33.793150124, "epc": 97.73, "alt": 235.812, "class": "TPV"}], "active": 1, "class": "POLL", "sky": [{"ydop": 0.73, "vdop": 2.12, "time": "2020-05-30T14:07:10.000Z", "device": "/dev/ttyUSB0", "xdop": 1.07, "hdop": 0.8, "satellites": [{"ss": 38, "PRN": 1, "used": true, "el": 15, "az": 153}, {"ss": 33, "PRN": 4, "used": true, "el": 24, "az": 183}, {"ss": 46, "PRN": 8, "used": true, "el": 67, "az": 54}, {"ss": 45, "PRN": 11, "used": true, "el": 49, "az": 136}, {"ss": 40, "PRN": 27, "used": true, "el": 33, "az": 42}, {"ss": 31, "PRN": 30, "used": true, "el": 27, "az": 312}, {"ss": 34, "PRN": 7, "used": true, "el": 59, "az": 325}, {"ss": 23, "PRN": 16, "used": true, "el": 12, "az": 64}, {"ss": 33, "PRN": 23, "used": true, "el": 37, "az": 202}, {"ss": 34, "PRN": 9, "used": true, "el": 44, "az": 220}, {"ss": 0, "PRN": 18, "used": false, "el": 29, "az": 117}, {"ss": 28, "PRN": 138, "used": true, "el": 43, "az": 217}], "gdop": 2.78, "tdop": 1.24, "class": "SKY", "pdop": 2.49}]}
{"gst": [{"minor": 0.0, "lon": 0.0, "time": "1970-01-01T00:00:00.000Z", "device": "/dev/ttyUSB0", "class": "GST", "lat": 0.0, "orient": 0.0, "rms": 0.0, "major": 0.0, "alt": 0.0}], "time": "2018-04-11T07:19:29.806Z", "tpv": [{"track": 144.1186, "climb": -0.112, "speed": 1.207, "eps": 31.96, "lon": -84.072072659, "epv": 48.867, "epx": 15.979, "device": "/dev/ttyUSB0", "time": "2020-05-30T14:07:16.000Z", "epy": 10.979, "ept": 0.005, "mode": 3, "lat": 33.793121107, "epc": 97.73, "alt": 235.227, "class": "TPV"}], "active": 1, "class": "POLL", "sky": [{"ydop": 0.73, "vdop": 2.12, "time": "2020-05-30T14:07:16.000Z", "device": "/dev/ttyUSB0", "xdop": 1.07, "hdop": 0.8, "satellites": [{"ss": 35, "PRN": 1, "used": true, "el": 15, "az": 153}, {"ss": 42, "PRN": 4, "used": true, "el": 24, "az": 183}, {"ss": 46, "PRN": 8, "used": true, "el": 67, "az": 54}, {"ss": 45, "PRN": 11, "used": true, "el": 49, "az": 136}, {"ss": 31, "PRN": 27, "used": true, "el": 33, "az": 42}, {"ss": 33, "PRN": 30, "used": true, "el": 27, "az": 312}, {"ss": 42, "PRN": 7, "used": true, "el": 59, "az": 325}, {"ss": 23, "PRN": 16, "used": true, "el": 12, "az": 64}, {"ss": 38, "PRN": 23, "used": true, "el": 37, "az": 202}, {"ss": 32, "PRN": 9, "used": true, "el": 44, "az": 220}, {"ss": 0, "PRN": 18, "used": false, "el": 29, "az": 117}, {"ss": 32, "PRN": 138, "used": true, "el": 43, "az": 217}], "gdop": 2.78, "tdop": 1.24, "class": "SKY", "pdop": 2.49}]}
{"gst": [{"minor": 0.0, "lon": 0.0, "time": "1970-01-01T00:00:00.000Z", "device": "/dev/ttyUSB0", "class": "GST", "lat": 0.0, "orient": 0.0, "rms": 0.0, "major": 0.0, "alt": 0.0}], "time": "2018-04-11T07:19:34.837Z", "tpv": [{"track": 157.0647, "climb": -0.055, "speed": 1.43, "eps": 7.99, "lon": -84.072064149, "epv": 12.217, "epx": 3.995, "device": "/dev/ttyUSB0", "time": "2020-05-30T14:07:21.000Z", "epy": 2.745, "ept": 0.005, "mode": 3, "lat": 33.793073153, "epc": 24.43, "alt": 234.185, "class": "TPV"}], "active": 1, "class": "POLL", "sky": [{"ydop": 0.73, "vdop": 2.12, "time": "2020-05-30T14:07:19.000Z", "device": "/dev/ttyUSB0", "xdop": 1.07, "hdop": 1.8, "satellites": [{"ss": 32, "PRN": 1, "used": true, "el": 15, "az": 153}, {"ss": 41, "PRN": 4, "used": true, "el": 24, "az": 183}, {"ss": 47, "PRN": 8, "used": true, "el": 67, "az": 54}, {"ss": 45, "PRN": 11, "used": true, "el": 49, "az": 136}, {"ss": 35, "PRN": 27, "used": true, "el": 33, "az": 42}, {"ss": 36, "PRN": 30, "used": true, "el": 27, "az": 312}, {"ss": 44, "PRN": 7, "used": true, "el": 59, "az": 325}, {"ss": 23, "PRN": 16, "used": true, "el": 12, "az": 64}, {"ss": 33, "PRN": 23, "used": true, "el": 37, "az": 202}, {"ss": 35, "PRN": 9, "used": true, "el": 44, "az": 220}, {"ss": 0, "PRN": 18, "used": false, "el": 29, "az": 117}, {"ss": 38, "PRN": 138, "used": true, "el": 43, "az": 217}], "gdop": 2.78, "tdop": 1.24, "class": "SKY", "pdop": 2.49}]}
{"gst": [{"minor": 0.0, "lon": 0.0, "time": "1970-01-01T00:00:00.000Z", "device": "/dev/ttyUSB0", "class": "GST", "lat": 0.0, "orient": 0.0, "rms": 0.0, "major": 0.0, "alt": 0.0}], "time": "2018-04-11T07:19:39.868Z", "tpv": [{"track": 118.385, "climb": 0.066, "speed": 0.409, "eps": 7.99, "lon": -84.072035275, "epv": 12.217, "epx": 3.995, "device": "/dev/ttyUSB0", "time": "2020-05-30T14:07:27.000Z", "epy": 2.745, "ept": 0.005, "mode": 3, "lat": 33.793026668, "epc": 24.43, "alt": 234.698, "class": "TPV"}], "active": 1, "class": "POLL", "sky": [{"ydop": 0.73, "vdop": 2.12, "time": "2020-05-30T14:07:25.000Z", "device": "/dev/ttyUSB0", "xdop": 1.07, "hdop": 0.8, "satellites": [{"ss": 38, "PRN": 1, "used": true, "el": 15, "az": 153}, {"ss": 41, "PRN": 4, "used": true, "el": 24, "az": 183}, {"ss": 42, "PRN": 8, "used": true, "el": 67, "az": 54}, {"ss": 39, "PRN": 11, "used": true, "el": 49, "az": 136}, {"ss": 34, "PRN": 27, "used": true, "el": 33, "az": 42}, {"ss": 37, "PRN": 30, "used": true, "el": 27, "az": 312}, {"ss": 46, "PRN": 7, "used": true, "el": 59, "az": 325}, {"ss": 23, "PRN": 16, "used": true, "el": 12, "az": 64}, {"ss": 44, "PRN": 23, "used": true, "el": 37, "az": 202}, {"ss": 42, "PRN": 9, "used": true, "el": 44, "az": 220}, {"ss": 0, "PRN": 18, "used": false, "el": 29, "az": 117}, {"ss": 42, "PRN": 138, "used": true, "el": 43, "az": 217}], "gdop": 2.78, "tdop": 1.24, "class": "SKY", "pdop": 2.49}]}
{"gst": [{"minor": 0.0, "lon": 0.0, "time": "1970-01-01T00:00:00.000Z", "device": "/dev/ttyUSB0", "class": "GST", "lat": 0.0, "orient": 0.0, "rms": 0.0, "major": 0.0, "alt": 0.0}], "time": "2018-04-11T07:19:44.906Z", "tpv": [{"track": 0.0, "climb": 0.0, "speed": 0.0, "eps": 7.99, "lon": -84.072037505, "epv": 12.217, "epx": 3.995, "device": "/dev/ttyUSB0", "time": "2020-05-30T14:07:32.000Z", "epy": 2.745, "ept": 0.005, "mode": 3, "lat": 33.793016693, "epc": 24.43, "alt": 236.351, "class": "TPV"}], "active": 1, "class": "POLL", "sky": [{"ydop": 0.73, "vdop": 2.12, "time": "2020-05-30T14:07:31.000Z", "device": "/dev/ttyUSB0", "xdop": 1.07, "hdop": 0.8, "satellites": [{"ss": 31, "PRN": 1, "used": true, "el": 15, "az": 153}, {"ss": 40, "PRN": 4, "used": true, "el": 24, "az": 183}, {"ss": 42, "PRN": 8, "used": true, "el": 67, "az": 54}, {"ss": 33, "PRN": 11, "used": true, "el": 49, "az": 136}, {"ss": 32, "PRN": 27, "used": true, "el": 33, "az": 42}, {"ss": 32, "PRN": 30, "used": true, "el": 27, "az": 312}, {"ss": 41, "PRN": 7, "used": true, "el": 59, "az": 325}, {"ss": 23, "PRN": 16, "used": true, "el": 12, "az": 64}, {"ss": 46, "PRN": 23, "used": true, "el": 37, "az": 202}, {"ss": 43, "PRN": 9, "used": true, "el": 44, "az": 220}, {"ss": 0, "PRN": 18, "used": false, "el": 29, "az": 117}, {"ss": 33, "PRN": 138, "used": true, "el": 43, "az": 217}], "gdop": 2.78, "tdop": 1.24, "class": "SKY", "pdop": 2.49}]}
{"gst": [{"minor": 0.0, "lon": 0.0, "time": "1970-01-01T00:00:00.000Z", "device": "/dev/ttyUSB0", "class": "GST", "lat": 0.0, "orient": 0.0, "rms": 0.0, "major": 0.0, "alt": 0.0}], "time": "2018-04-11T07:19:49.936Z", "tpv": [{"track": 128.4804, "climb": 0.055, "speed": 0.301, "eps": 7.99, "lon": -84.072026765, "epv": 12.217, "epx": 3.995, "device": "/dev/ttyUSB0", "time": "2020-05-30T14:07:36.000Z", "epy": 2.745, "ept": 0.005, "mode": 3, "lat": 33.793023668, "epc": 24.43, "alt": 236.993, "class": "TPV"}], "active": 1, "class": "POLL", "sky": [{"ydop": 0.73, "vdop": 2.12, "time": "2020-05-30T14:07:34.000Z", "device": "/dev/ttyUSB0", "xdop": 1.07, "hdop": 0.8, "satellites": [{"ss": 30, "PRN": 1, "used": true, "el": 15, "az": 153}, {"ss": 40, "PRN": 4, "used": true, "el": 24, "az": 183}, {"ss": 41, "PRN": 8, "used": true, "el": 67, "az": 54}, {"ss": 29, "PRN": 11, "used": true, "el": 49, "az": 136}, {"ss": 25, "PRN": 27, "used": true, "el": 33, "az": 42}, {"ss": 37, "PRN": 30, "used": true, "el": 27, "az": 312}, {"ss": 39, "PRN": 7, "used": true, "el": 59, "az": 325}, {"ss": 23, "PRN": 16, "used": true, "el": 12, "az": 64}, {"ss": 39, "PRN": 23, "used": true, "el": 37, "az": 202}, {"ss": 38, "PRN": 9, "used": true, "el": 44, "az": 220}, {"ss": 0, "PRN": 18, "used": false, "el": 29, "az": 117}, {"ss": 40, "PRN": 138, "used": true, "el": 43, "az": 217}], "gdop": 2.78, "tdop": 1.24, "class": "SKY", "pdop": 2.49}]}
{"gst": [{"minor": 0.0, "lon": 0.0, "time": "1970-01-01T00:00:00.000Z", "device": "/dev/ttyUSB0", "class": "GST", "lat": 0.0, "orient": 0.0, "rms": 0.0, "major": 0.0, "alt": 0.0}], "time": "2018-04-11T07:19:54.967Z", "tpv": [{"track": 93.3053, "climb": 0.021, "speed": 0.249, "eps": 7.99, "lon": -84.0720064, "epv": 12.217, "epx": 3.995, "device": "/dev/ttyUSB0", "time": "2020-05-30T14:07:42.000Z", "epy": 2.745, "ept": 0.005, "mode": 3, "lat": 33.793017644, "epc": 24.43, "alt": 237.992, "class": "TPV"}], "active": 1, "class": "POLL", "sky": [{"ydop": 0.73, "vdop": 2.12, "time": "2020-05-30T14:07:40.000Z", "device": "/dev/ttyUSB0", "xdop": 1.07, "hdop": 1.0, "satellites": [{"ss": 31, "PRN": 1, "used": true, "el": 15, "az": 153}, {"ss": 39, "PRN": 4, "used": true, "el": 24, "az": 183}, {"ss": 41, "PRN": 8, "used": true, "el": 67, "az": 54}, {"ss": 32, "PRN": 11, "used": true, "el": 49, "az": 136}, {"ss": 33, "PRN": 27, "used": true, "el": 33, "az": 42}, {"ss": 32, "PRN": 30, "used": true, "el": 27, "az": 312}, {"ss": 38, "PRN": 7, "used": true, "el": 59, "az": 325}, {"ss": 27, "PRN": 16, "used": true, "el": 12, "az": 64}, {"ss": 47, "PRN": 23, "used": true, "el": 37, "az": 202}, {"ss": 43, "PRN": 9, "used": true, "el": 44, "az": 220}, {"ss": 0, "PRN": 18, "used": false, "el": 29, "az": 117}, {"ss": 44, "PRN": 138, "used": true, "el": 43, "az": 217}], "gdop": 2.78, "tdop": 1.24, "class": "SKY", "pdop": 2.49}]}
{"gst": [{"minor": 0.0, "lon": 0.0, "time": "1970-01-01T00:00:00.000Z", "device": "/dev/ttyUSB0", "class": "GST", "lat": 0.0, "orient": 0.0, "rms": 0.0, "major": 0.0, "alt": 0.0}], "time": "2018-04-11T07:19:59.998Z", "tpv": [{"track": 2.945, "climb": 0.073, "speed": 1.005, "eps": 7.99, "lon": -84.071994545, "epv": 12.217, "epx": 3.995, "device": "/dev/ttyUSB0", "time": "2020-05-30T14:07:47.000Z", "epy": 2.745, "ept": 0.005, "mode": 3, "lat": 33.793037098, "epc": 24.43, "alt": 238.363, "class": "TPV"}], "active": 1, "class": "POLL", "sky": [{"ydop": 0.73, "vdop": 2.12, "time": "2020-05-30T14:07:46.000Z", "device": "/dev/ttyUSB0", "xdop": 1.07, "hdop": 1.0, "satellites": [{"ss": 31, "PRN": 1, "used": true, "el": 15, "az": 153}, {"ss": 38, "PRN": 4, "used": true, "el": 24, "az": 183}, {"ss": 36, "PRN": 8, "used": true, "el": 67, "az": 54}, {"ss": 34, "PRN": 11, "used": true, "el": 49, "az": 136}, {"ss": 32, "PRN": 27, "used": true, "el": 33, "az": 42}, {"ss": 30, "PRN": 30, "used": true, "el": 27, "az": 312}, {"ss": 43, "PRN": 7, "used": true, "el": 59, "az": 325}, {"ss": 24, "PRN": 16, "used": true, "el": 12, "az": 64}, {"ss": 46, "PRN": 23, "used": true, "el": 37, "az": 202}, {"ss": 41, "PRN": 9, "used": true, "el": 44, "az": 220}, {"ss": 0, "PRN": 18, "used": false, "el": 29, "az": 117}, {"ss": 38, "PRN": 138, "used": true, "el": 43, "az": 217}], "gdop": 2.78, "tdop": 1.24, "class": "SKY", "pdop": 2.49}]}
{"gst": [{"minor": 0.0, "lon": 0.0, "time": "1970-01-01T00:00:00.000Z", "device": "/dev/ttyUSB0", "class": "GST", "lat": 0.0, "orient": 0.0, "rms": 0.0, "major": 0.0, "alt": 0.0}], "time": "2018-04-11T07:20:05.025Z", "tpv": [{"track": 4.2669, "climb": -0.034, "speed": 0.174, "eps": 7.99, "lon": -84.071993429, "epv": 12.217, "epx": 3.995, "device": "/dev/ttyUSB0", "time": "2020-05-30T14:07:51.000Z", "epy": 2.745, "ept": 0.005, "mode": 3, "lat": 33.79305707, "epc": 24.43, "alt": 238.649, "class": "TPV"}], "active": 1, "class": "POLL", "sky": [{"ydop": 0.73, "vdop": 2.12, "time": "2020-05-30T14:07:49.000Z", "device": "/dev/ttyUSB0", "xdop": 1.07, "hdop": 1.0, "satellites": [{"ss": 36, "PRN": 1, "used": true, "el": 15, "az": 153}, {"ss": 39, "PRN": 4, "used": true, "el": 24, "az": 183}, {"ss": 38, "PRN": 8, "used": true, "el": 67, "az": 54}, {"ss": 34, "PRN": 11, "used": true, "el": 49, "az": 136}, {"ss": 27, "PRN": 27, "used": true, "el": 33, "az": 42}, {"ss": 31, "PRN": 30, "used": true, "el": 27, "az": 312}, {"ss": 43, "PRN": 7, "used": true, "el": 59, "az": 325}, {"ss": 24, "PRN": 16, "used": true, "el": 12, "az": 64}, {"ss": 45, "PRN": 23, "used": true, "el": 37, "az": 202}, {"ss": 42, "PRN": 9, "used": true, "el": 44, "az": 220}, {"ss": 0, "PRN": 18, "used": false, "el": 29, "az": 117}, {"ss": 42, "PRN": 138, "used": true, "el": 43, "az": 217}], "gdop": 2.78, "tdop": 1.24, "class": "SKY", "pdop": 2.49}]}
{"gst": [{"minor": 0.0, "lon": 0.0, "time": "1970-01-01T00:00:00.000Z", "device": "/dev/ttyUSB0", "class": "GST", "lat": 0.0, "orient": 0.0, "rms": 0.0, "major": 0.0, "alt": 0.0}], "time": "2018-04-11T07:20:10.055Z", "tpv": [{"track": 0.0, "climb": 0.0, "speed": 0.0, "eps": 7.99, "lon": -84.072013794, "epv": 12.217, "epx": 3.995, "device": "/dev/ttyUSB0", "time": "2020-05-30T14:07:57.000Z", "epy": 2.745, "ept": 0.005, "mode": 3, "lat": 33.793063093, "epc": 24.43, "alt": 237.651, "class": "TPV"}], "active": 1, "class": "POLL", "sky": [{"ydop": 0.73, "vdop": 2.12, "time": "2020-05-30T14:07:55.000Z", "device": "/dev/ttyUSB0", "xdop": 1.07, "hdop": 1.0, "satellites": [{"ss": 34, "PRN": 1, "used": true, "el": 15, "az": 153}, {"ss": 39, "PRN": 4, "used": true, "el": 24, "az": 183}, {"ss": 33, "PRN": 8, "used": true, "el": 67, "az": 54}, {"ss": 29, "PRN": 11, "used": true, "el": 49, "az": 136}, {"ss": 28, "PRN": 27, "used": true, "el": 33, "az": 42}, {"ss": 38, "PRN": 30, "used": true, "el": 27, "az": 312}, {"ss": 50, "PRN": 7, "used": true, "el": 59, "az": 325}, {"ss": 23, "PRN": 16, "used": true, "el": 12, "az": 64}, {"ss": 45, "PRN": 23, "used": true, "el": 37, "az": 202}, {"ss": 42, "PRN": 9, "used": true, "el": 44, "az": 220}, {"ss": 0, "PRN": 18, "used": false, "el": 29, "az": 117}, {"ss": 41, "PRN": 138, "used": true, "el": 43, "az": 217}], "gdop": 2.78, "tdop": 1.24, "class": "SKY", "pdop": 2.49}]}
{"gst": [{"minor": 0.0, "lon": 0.0, "time": "1970-01-01T00:00:00.000Z", "device": "/dev/ttyUSB0", "class": "GST", "lat": 0.0, "orient": 0.0, "rms": 0.0, "major": 0.0, "alt": 0.0}], "time": "2018-04-11T07:20:15.080Z", "tpv": [{"track": 180.0, "climb": -0.07, "speed": 0.104, "eps": 7.99, "lon": -84.07201491, "epv": 12.217, "epx": 3.995, "device": "/dev/ttyUSB0", "time": "2020-05-30T14:08:02.000Z", "epy": 2.745, "ept": 0.005, "mode": 3, "lat": 33.793050614, "epc": 24.43, "alt": 237.921, "class": "TPV"}], "active": 1, "class": "POLL", "sky": [{"ydop": 0.73, "vdop": 2.12, "time": "2020-05-30T14:08:01.000Z", "device": "/dev/ttyUSB0", "xdop": 1.07, "hdop": 1.0, "satellites": [{"ss": 32, "PRN": 1, "used": true, "el": 15, "az": 153}, {"ss": 39, "PRN": 4, "used": true, "el": 24, "az": 183}, {"ss": 28, "PRN": 8, "used": true, "el": 67, "az": 54}, {"ss": 32, "PRN": 11, "used": true, "el": 49, "az": 136}, {"ss": 28, "PRN": 27, "used": true, "el": 33, "az": 42}, {"ss": 23, "PRN": 30, "used": true, "el": 27, "az": 312}, {"ss": 37, "PRN": 7, "used": true, "el": 59, "az": 325}, {"ss": 23, "PRN": 16, "used": true, "el": 12, "az": 64}, {"ss": 44, "PRN": 23, "used": true, "el": 37, "az": 202}, {"ss": 42, "PRN": 9, "used": true, "el": 44, "az": 220}, {"ss": 0, "PRN": 18, "used": false, "el": 29, "az": 117}, {"ss": 41, "PRN": 138, "used": true, "el": 43, "az": 217}], "gdop": 2.78, "tdop": 1.24, "class": "SKY", "pdop": 2.49}]}
{"gst": [{"minor": 0.0, "lon": 0.0, "time": "1970-01-01T00:00:00.000Z", "device": "/dev/ttyUSB0", "class": "GST", "lat": 0.0, "orient": 0.0, "rms": 0.0, "major": 0.0, "alt": 0.0}], "time": "2018-04-11T07:20:20.106Z", "tpv": [{"track": 2.6692, "climb": 0.036, "speed": 0.277, "eps": 7.99, "lon": -84.07202565, "epv": 12.217, "epx": 3.995, "device": "/dev/ttyUSB0", "time": "2020-05-30T14:08:06.000Z", "epy": 2.745, "ept": 0.005, "mode": 3, "lat": 33.793058624, "epc": 24.43, "alt": 238.391, "class": "TPV"}], "active": 1, "class": "POLL", "sky": [{"ydop": 0.73, "vdop": 2.12, "time": "2020-05-30T14:08:04.000Z", "device": "/dev/ttyUSB0", "xdop": 1.07, "hdop": 1.0, "satellites": [{"ss": 26, "PRN": 1, "used": true, "el": 15, "az": 153}, {"ss": 33, "PRN": 4, "used": true, "el": 24, "az": 183}, {"ss": 30, "PRN": 8, "used": true, "el": 67, "az": 54}, {"ss": 30, "PRN": 11, "used": true, "el": 49, "az": 136}, {"ss": 25, "PRN": 27, "used": true, "el": 33, "az": 42}, {"ss": 24, "PRN": 30, "used": true, "el": 27, "az": 312}, {"ss": 25, "PRN": 7, "used": true, "el": 59, "az": 325}, {"ss": 16, "PRN": 16, "used": true, "el": 12, "az": 64}, {"ss": 38, "PRN": 23, "used": true, "el": 37, "az": 202}, {"ss": 41, "PRN": 9, "used": true, "el": 44, "az": 220}, {"ss": 0, "PRN": 18, "used": false, "el": 29, "az": 117}, {"ss": 38, "PRN": 138, "used": true, "el": 43, "az": 217}], "gdop": 2.78, "tdop": 1.24, "class": "SKY", "pdop": 2.49}]}
{"gst": [{"minor": 0.0, "lon": 0.0, "time": "1970-01-01T00:00:00.000Z", "device": "/dev/ttyUSB0", "class": "GST", "lat": 0.0, "orient": 0.0, "rms": 0.0, "major": 0.0, "alt": 0.0}], "time": "2018-04-11T07:20:25.138Z", "tpv": [{"track": 93.3052, "climb": 0.032, "speed": 0.374, "eps": 7.99, "lon": -84.07203862, "epv": 12.217, "epx": 3.995, "device": "/dev/ttyUSB0", "time": "2020-05-30T14:08:12.000Z", "epy": 2.745, "ept": 0.005, "mode": 3, "lat": 33.793049167, "epc": 24.43, "alt": 239.959, "class": "TPV"}], "active": 1, "class": "POLL", "sky": [{"ydop": 0.73, "vdop": 2.12, "time": "2020-05-30T14:08:10.000Z", "device": "/dev/ttyUSB0", "xdop": 1.07, "hdop": 1.0, "satellites": [{"ss": 29, "PRN": 1, "used": true, "el": 15, "az": 153}, {"ss": 41, "PRN": 4, "used": true, "el": 24, "az": 183}, {"ss": 43, "PRN": 8, "used": true, "el": 67, "az": 54}, {"ss": 26, "PRN": 11, "used": true, "el": 49, "az": 136}, {"ss": 33, "PRN": 27, "used": true, "el": 33, "az": 42}, {"ss": 0, "PRN": 30, "used": false, "el": 27, "az": 312}, {"ss": 44, "PRN": 7, "used": true, "el": 59, "az": 325}, {"ss": 28, "PRN": 16, "used": true, "el": 12, "az": 64}, {"ss": 45, "PRN": 23, "used": true, "el": 37, "az": 202}, {"ss": 45, "PRN": 9, "used": true, "el": 44, "az": 220}, {"ss": 0, "PRN": 18, "used": false, "el": 29, "az": 117}, {"ss": 44, "PRN": 138, "used": true, "el": 43, "az": 217}], "gdop": 2.78, "tdop": 1.24, "class": "SKY", "pdop": 2.49}]}
{"gst": [{"minor": 0.0, "lon": 0.0, "time": "1970-01-01T00:00:00.000Z", "device": "/dev/ttyUSB0", "class": "GST", "lat": 0.0, "orient": 0.0, "rms": 0.0, "major": 0.0, "alt": 0.0}], "time": "2018-04-11T07:20:30.163Z", "tpv": [{"track": 30.8596, "climb": -0.057, "speed": 1.095, "eps": 7.99, "lon": -84.07202565, "epv": 12.217, "epx": 3.995, "device": "/dev/ttyUSB0", "time": "2020-05-30T14:08:17.000Z", "epy": 2.745, "ept": 0.005, "mode": 3, "lat": 33.793073608, "epc": 24.43, "alt": 239.504, "class": "TPV"}], "active": 1, "class": "POLL", "sky": [{"ydop": 0.73, "vdop": 2.12, "time": "2020-05-30T14:08:16.000Z", "device": "/dev/ttyUSB0", "xdop": 1.07, "hdop": 1.0, "satellites": [{"ss": 28, "PRN": 1, "used": true, "el": 15, "az": 153}, {"ss": 34, "PRN": 4, "used": true, "el": 24, "az": 183}, {"ss": 32, "PRN": 8, "used": true, "el": 67, "az": 54}, {"ss": 33, "PRN": 11, "used": true, "el": 49, "az": 136}, {"ss": 31, "PRN": 27, "used": true, "el": 33, "az": 42}, {"ss": 34, "PRN": 30, "used": true, "el": 27, "az": 312}, {"ss": 43, "PRN": 7, "used": true, "el": 59, "az": 325}, {"ss": 23, "PRN": 16, "used": true, "el": 12, "az": 64}, {"ss": 46, "PRN": 23, "used": true, "el": 37, "az": 202}, {"ss": 45, "PRN": 9, "used": true, "el": 44, "az": 220}, {"ss": 0, "PRN": 18, "used": false, "el": 29, "az": 117}, {"ss": 45, "PRN": 138, "used": true, "el": 43, "az": 217}], "gdop": 2.78, "tdop": 1.24, "class": "SKY", "pdop": 2.49}]}
{"gst": [{"minor": 0.0, "lon": 0.0, "time": "1970-01-01T00:00:00.000Z", "device": "/dev/ttyUSB0", "class": "GST", "lat": 0.0, "orient": 0.0, "rms": 0.0, "major": 0.0, "alt": 0.0}], "time": "2018-04-11T07:20:35.190Z", "tpv": [{"track": 54.7818, "climb": 0.02, "speed": 1.281, "eps": 7.99, "lon": -84.071980459, "epv": 12.217, "epx": 3.995, "device": "/dev/ttyUSB0", "time": "2020-05-30T14:08:21.000Z", "epy": 2.745, "ept": 0.005, "mode": 3, "lat": 33.793096496, "epc": 24.43, "alt": 239.306, "class": "TPV"}], "active": 1, "class": "POLL", "sky": [{"ydop": 0.73, "vdop": 2.12, "time": "2020-05-30T14:08:19.000Z", "device": "/dev/ttyUSB0", "xdop": 1.07, "hdop": 1.0, "satellites": [{"ss": 33, "PRN": 1, "used": true, "el": 15, "az": 151}, {"ss": 34, "PRN": 4, "used": true, "el": 23, "az": 183}, {"ss": 37, "PRN": 8, "used": true, "el": 66, "az": 52}, {"ss": 33, "PRN": 11, "used": true, "el": 49, "az": 135}, {"ss": 32, "PRN": 27, "used": true, "el": 32, "az": 42}, {"ss": 33, "PRN": 30, "used": true, "el": 28, "az": 312}, {"ss": 37, "PRN": 7, "used": true, "el": 60, "az": 325}, {"ss": 24, "PRN": 16, "used": true, "el": 12, "az": 64}, {"ss": 45, "PRN": 23, "used": true, "el": 36, "az": 201}, {"ss": 45, "PRN": 9, "used": true, "el": 43, "az": 219}, {"ss": 0, "PRN": 18, "used": false, "el": 30, "az": 117}, {"ss": 43, "PRN": 138, "used": true, "el": 43, "az": 217}], "gdop": 2.78, "tdop": 1.24, "class": "SKY", "pdop": 2.49}]}
{"gst": [{"minor": 0.0, "lon": 0.0, "time": "1970-01-01T00:00:00.000Z", "device": "/dev/ttyUSB0", "class": "GST", "lat": 0.0, "orient": 0.0, "rms": 0.0, "major": 0.0, "alt": 0.0}], "time": "2018-04-11T07:20:40.220Z", "tpv": [{"track": 20.7435, "climb": 0.072, "speed": 1.235, "eps": 7.99, "lon": -84.071911558, "epv": 12.217, "epx": 3.995, "device": "/dev/ttyUSB0", "time": "2020-05-30T14:08:27.000Z", "epy": 2.745, "ept": 0.005, "mode": 3, "lat": 33.793165784, "epc": 24.43, "alt": 240.408, "class": "TPV"}], "active": 1, "class": "POLL", "sky": [{"ydop": 0.73, "vdop": 2.12, "time": "2020-05-30T14:08:25.000Z", "device": "/dev/ttyUSB0", "xdop": 1.07, "hdop": 1.0, "satellites": [{"ss": 32, "PRN": 1, "used": true, "el": 15, "az": 151}, {"ss": 34, "PRN": 4, "used": true, "el": 23, "az": 183}, {"ss": 36, "PRN": 8, "used": true, "el": 66, "az": 52}, {"ss": 38, "PRN": 11, "used": true, "el": 49, "az": 135}, {"ss": 33, "PRN": 27, "used": true, "el": 32, "az": 42}, {"ss": 32, "PRN": 30, "used": true, "el": 28, "az": 312}, {"ss": 38, "PRN": 7, "used": true, "el": 60, "az": 325}, {"ss": 24, "PRN": 16, "used": true, "el": 12, "az": 64}, {"ss": 45, "PRN": 23, "used": true, "el": 36, "az": 201}, {"ss": 43, "PRN": 9, "used": true, "el": 43, "az": 219}, {"ss": 0, "PRN": 18, "used": false, "el": 30, "az": 117}, {"ss": 39, "PRN": 138, "used": true, "el": 43, "az": 217}], "gdop": 2.78, "tdop": 1.24, "class": "SKY", "pdop": 2.49}]}
{"gst": [{"minor": 0.0, "lon": 0.0, "time": "1970-01-01T00:00:00.000Z", "device": "/dev/ttyUSB0", "class": "GST", "lat": 0.0, "orient": 0.0, "rms": 0.0, "major": 0.0, "alt": 0.0}], "time": "2018-04-11T07:20:45.247Z", "tpv": [{"track": 3.0501, "climb": 0.075, "speed": 1.456, "eps": 7.99, "lon": -84.071872646, "epv": 12.217, "epx": 3.995, "device": "/dev/ttyUSB0", "time": "2020-05-30T14:08:32.000Z", "epy": 2.745, "ept": 0.005, "mode": 3, "lat": 33.793254093, "epc": 24.43, "alt": 240.156, "class": "TPV"}], "active": 1, "class": "POLL", "sky": [{"ydop": 0.73, "vdop": 2.12, "time": "2020-05-30T14:08:31.000Z", "device": "/dev/ttyUSB0", "xdop": 1.07, "hdop": 1.0, "satellites": [{"ss": 34, "PRN": 1, "used": true, "el": 15, "az": 151}, {"ss": 35, "PRN": 4, "used": true, "el": 23, "az": 183}, {"ss": 37, "PRN": 8, "used": true, "el": 66, "az": 52}, {"ss": 38, "PRN": 11, "used": true, "el": 49, "az": 135}, {"ss": 40, "PRN": 27, "used": true, "el": 32, "az": 42}, {"ss": 35, "PRN": 30, "used": true, "el": 28, "az": 312}, {"ss": 42, "PRN": 7, "used": true, "el": 60, "az": 325}, {"ss": 24, "PRN": 16, "used": true, "el": 12, "az": 64}, {"ss": 40, "PRN": 23, "used": true, "el": 36, "az": 201}, {"ss": 42, "PRN": 9, "used": true, "el": 43, "az": 219}, {"ss": 23, "PRN": 28, "used": true, "el": 15, "az": 267}, {"ss": 40, "PRN": 138, "used": true, "el": 43, "az": 217}], "gdop": 2.78, "tdop": 1.24, "class": "SKY", "pdop": 2.49}]}
{"gst": [{"minor": 0.0, "lon": 0.0, "time": "1970-01-01T00:00:00.000Z", "device": "/dev/ttyUSB0", "class": "GST", "lat": 0.0, "orient": 0.0, "rms": 0.0, "major": 0.0, "alt": 0.0}], "time": "2018-04-11T07:20:50.272Z", "tpv": [{"track": 34.8242, "climb": 0.127, "speed": 1.179, "eps": 7.99, "lon": -84.071838195, "epv": 12.217, "epx": 3.995, "device": "/dev/ttyUSB0", "time": "2020-05-30T14:08:36.000Z", "epy": 2.745, "ept": 0.005, "mode": 3, "lat": 33.793307467, "epc": 24.43, "alt": 242.097, "class": "TPV"}], "active": 1, "class": "POLL", "sky": [{"ydop": 0.73, "vdop": 2.12, "time": "2020-05-30T14:08:37.000Z", "device": "/dev/ttyUSB0", "xdop": 1.07, "hdop": 1.0, "satellites": [{"ss": 32, "PRN": 1, "used": true, "el": 15, "az": 151}, {"ss": 31, "PRN": 4, "used": true, "el": 23, "az": 183}, {"ss": 44, "PRN": 8, "used": true, "el": 66, "az": 52}, {"ss": 36, "PRN": 11, "used": true, "el": 49, "az": 135}, {"ss": 36, "PRN": 27, "used": true, "el": 32, "az": 42}, {"ss": 31, "PRN": 30, "used": true, "el": 28, "az": 312}, {"ss": 43, "PRN": 7, "used": true, "el": 60, "az": 325}, {"ss": 24, "PRN": 16, "used": true, "el": 12, "az": 64}, {"ss": 39, "PRN": 23, "used": true, "el": 36, "az": 201}, {"ss": 39, "PRN": 9, "used": true, "el": 43, "az": 219}, {"ss": 24, "PRN": 28, "used": true, "el": 15, "az": 267}, {"ss": 37, "PRN": 138, "used": true, "el": 43, "az": 217}], "gdop": 2.78, "tdop": 1.24, "class": "SKY", "pdop": 2.49}]}
{"gst": [{"minor": 0.0, "lon": 0.0, "time": "1970-01-01T00:00:00.000Z", "device": "/dev/ttyUSB0", "class": "GST", "lat": 0.0, "orient": 0.0, "rms": 0.0, "major": 0.0, "alt": 0.0}], "time": "2018-04-11T07:20:55.305Z", "tpv": [{"track": 0.0, "climb": 0.0, "speed": 0.0, "eps": 19.97, "lon": -84.071771524, "epv": 12.217, "epx": 3.995, "device": "/dev/ttyUSB0", "time": "2020-05-30T14:08:42.000Z", "epy": 2.745, "ept": 0.005, "mode": 3, "lat": 33.793336811, "epc": 61.08, "alt": 242.628, "class": "TPV"}], "active": 1, "class": "POLL", "sky": [{"ydop": 0.73, "vdop": 2.12, "time": "2020-05-30T14:08:40.000Z", "device": "/dev/ttyUSB0", "xdop": 1.07, "hdop": 1.0, "satellites": [{"ss": 28, "PRN": 1, "used": true, "el": 15, "az": 151}, {"ss": 31, "PRN": 4, "used": true, "el": 23, "az": 183}, {"ss": 43, "PRN": 8, "used": true, "el": 66, "az": 52}, {"ss": 36, "PRN": 11, "used": true, "el": 49, "az": 135}, {"ss": 36, "PRN": 27, "used": true, "el": 32, "az": 42}, {"ss": 31, "PRN": 30, "used": true, "el": 28, "az": 312}, {"ss": 38, "PRN": 7, "used": true, "el": 60, "az": 325}, {"ss": 24, "PRN": 16, "used": true, "el": 12, "az": 64}, {"ss": 41, "PRN": 23, "used": true, "el": 36, "az": 201}, {"ss": 39, "PRN": 9, "used": true, "el": 43, "az": 219}, {"ss": 24, "PRN": 28, "used": true, "el": 15, "az": 267}, {"ss": 40, "PRN": 138, "used": true, "el": 43, "az": 217}], "gdop": 2.78, "tdop": 1.24, "class": "SKY", "pdop": 2.49}]}
