{"active": 1, "time": "2018-03-03T17:17:43.138Z", "gst": [{"lat": 0.0, "orient": 0.0, "rms": 0.0, "alt": 0.0, "device": "/dev/ttyUSB0", "minor": 0.0, "time": "1970-01-01T00:00:00.000Z", "class": "GST", "major": 0.0, "lon": 0.0}], "class": "POLL", "tpv": [{"lat": 33.660033682, "speed": 0.277, "time": "2018-04-07T18:58:30.740Z", "device": "/dev/ttyUSB0", "ept": 0.005, "mode": 3, "class": "TPV", "track": 182.6451, "alt": 239.965, "climb": -0.035, "lon": -84.123912944}], "sky": [{"class": "SKY", "time": "1970-01-01T00:00:00.000Z", "hdop": 1.2, "device": "/dev/ttyUSB0"}]}
{"active": 1, "time": "2018-03-03T17:17:48.166Z", "gst": [{"lat": 0.0, "orient": 0.0, "rms": 0.0, "alt": 0.0, "device": "/dev/ttyUSB0", "minor": 0.0, "time": "1970-01-01T00:00:00.000Z", "class": "GST", "major": 0.0, "lon": 0.0}], "class": "POLL", "tpv": [{"epc": 60.71, "eps": 20.62, "epx": 10.312, "time": "2018-04-07T18:58:36.000Z", "ept": 0.005, "class": "TPV", "alt": 243.831, "epv": 30.353, "lat": 33.660021303, "speed": 0.0, "epy": 8.604, "mode": 3, "device": "/dev/ttyUSB0", "climb": 0.0, "track": 0.0, "lon": -84.123917359}], "sky": [{"gdop": 1.79, "satellites": [{"ss": 47, "az": 316, "PRN": 7, "used": true, "el": 41}, {"ss": 46, "az": 154, "PRN": 8, "used": true, "el": 71}, {"ss": 41, "az": 253, "PRN": 9, "used": true, "el": 56}, {"ss": 38, "az": 52, "PRN": 16, "used": true, "el": 23}, {"ss": 47, "az": 190, "PRN": 23, "used": true, "el": 43}, {"ss": 41, "az": 54, "PRN": 27, "used": true, "el": 51}, {"ss": 35, "az": 306, "PRN": 30, "used": true, "el": 17}, {"ss": 33, "az": 171, "PRN": 11, "used": true, "el": 19}, {"ss": 32, "az": 150, "PRN": 18, "used": true, "el": 10}, {"ss": 22, "az": 253, "PRN": 28, "used": true, "el": 9}, {"ss": 38, "az": 217, "PRN": 138, "used": true, "el": 43}], "hdop": 0.8, "time": "2018-04-07T18:58:35.000Z", "tdop": 0.82, "device": "/dev/ttyUSB0", "xdop": 0.69, "vdop": 1.32, "class": "SKY", "pdop": 1.59, "ydop": 0.57}]}
{"active": 1, "time": "2018-03-03T17:17:53.200Z", "gst": [{"lat": 0.0, "orient": 0.0, "rms": 0.0, "alt": 0.0, "device": "/dev/ttyUSB0", "minor": 0.0, "time": "1970-01-01T00:00:00.000Z", "class": "GST", "major": 0.0, "lon": 0.0}], "class": "POLL", "tpv": [{"epc": 37.94, "eps": 12.89, "epx": 2.578, "time": "2018-04-07T18:58:40.000Z", "ept": 0.005, "class": "TPV", "alt": 249.907, "epv": 7.588, "lat": 33.660006487, "speed": 0.0, "epy": 2.151, "mode": 3, "device": "/dev/ttyUSB0", "climb": 0.0, "track": 0.0, "lon": -84.123923982}], "sky": [{"gdop": 1.79, "satellites": [{"ss": 47, "az": 316, "PRN": 7, "used": true, "el": 41}, {"ss": 47, "az": 154, "PRN": 8, "used": true, "el": 71}, {"ss": 41, "az": 253, "PRN": 9, "used": true, "el": 56}, {"ss": 38, "az": 52, "PRN": 16, "used": true, "el": 23}, {"ss": 47, "az": 190, "PRN": 23, "used": true, "el": 43}, {"ss": 40, "az": 54, "PRN": 27, "used": true, "el": 51}, {"ss": 35, "az": 306, "PRN": 30, "used": true, "el": 17}, {"ss": 33, "az": 171, "PRN": 11, "used": true, "el": 19}, {"ss": 31, "az": 150, "PRN": 18, "used": true, "el": 10}, {"ss": 22, "az": 253, "PRN": 28, "used": true, "el": 9}, {"ss": 37, "az": 217, "PRN": 138, "used": true, "el": 43}], "hdop": 1.2, "time": "2018-04-07T18:58:38.000Z", "tdop": 0.82, "device": "/dev/ttyUSB0", "xdop": 0.69, "vdop": 1.32, "class": "SKY", "pdop": 1.59, "ydop": 0.57}]}
{"active": 1, "time": "2018-03-03T17:17:58.230Z", "gst": [{"lat": 0.0, "orient": 0.0, "rms": 0.0, "alt": 0.0, "device": "/dev/ttyUSB0", "minor": 0.0, "time": "1970-01-01T00:00:00.000Z", "class": "GST", "major": 0.0, "lon": 0.0}], "class": "POLL", "tpv": [{"epc": 15.18, "eps": 5.16, "epx": 2.578, "time": "2018-04-07T18:58:46.000Z", "ept": 0.005, "class": "TPV", "alt": 244.847, "epv": 7.588, "lat": 33.66000437, "speed": 0.0, "epy": 2.151, "mode": 3, "device": "/dev/ttyUSB0", "climb": 0.0, "track": 0.0, "lon": -84.123930291}], "sky": [{"gdop": 1.79, "satellites": [{"ss": 46, "az": 316, "PRN": 7, "used": true, "el": 41}, {"ss": 47, "az": 154, "PRN": 8, "used": true, "el": 71}, {"ss": 42, "az": 253, "PRN": 9, "used": true, "el": 56}, {"ss": 38, "az": 52, "PRN": 16, "used": true, "el": 23}, {"ss": 47, "az": 190, "PRN": 23, "used": true, "el": 43}, {"ss": 39, "az": 54, "PRN": 27, "used": true, "el": 51}, {"ss": 30, "az": 306, "PRN": 30, "used": true, "el": 17}, {"ss": 33, "az": 171, "PRN": 11, "used": true, "el": 19}, {"ss": 27, "az": 150, "PRN": 18, "used": true, "el": 10}, {"ss": 22, "az": 253, "PRN": 28, "used": true, "el": 9}, {"ss": 38, "az": 217, "PRN": 138, "used": true, "el": 43}], "hdop": 0.8, "time": "2018-04-07T18:58:44.000Z", "tdop": 0.82, "device": "/dev/ttyUSB0", "xdop": 0.69, "vdop": 1.32, "class": "SKY", "pdop": 1.59, "ydop": 0.57}]}
{"active": 1, "time": "2018-03-03T17:18:03.293Z", "gst": [{"lat": 0.0, "orient": 0.0, "rms": 0.0, "alt": 0.0, "device": "/dev/ttyUSB0", "minor": 0.0, "time": "1970-01-01T00:00:00.000Z", "class": "GST", "major": 0.0, "lon": 0.0}], "class": "POLL", "tpv": [{"epc": 15.18, "eps": 5.16, "epx": 2.578, "time": "2018-04-07T18:58:51.000Z", "ept": 0.005, "class": "TPV", "alt": 241.724, "epv": 7.588, "lat": 33.660012289, "speed": 0.0, "epy": 2.151, "mode": 3, "device": "/dev/ttyUSB0", "climb": 0.0, "track": 0.0, "lon": -84.123937705}], "sky": [{"gdop": 1.79, "satellites": [{"ss": 45, "az": 316, "PRN": 7, "used": true, "el": 41}, {"ss": 48, "az": 154, "PRN": 8, "used": true, "el": 71}, {"ss": 43, "az": 253, "PRN": 9, "used": true, "el": 56}, {"ss": 35, "az": 52, "PRN": 16, "used": true, "el": 23}, {"ss": 47, "az": 190, "PRN": 23, "used": true, "el": 43}, {"ss": 39, "az": 54, "PRN": 27, "used": true, "el": 51}, {"ss": 32, "az": 306, "PRN": 30, "used": true, "el": 17}, {"ss": 34, "az": 171, "PRN": 11, "used": true, "el": 19}, {"ss": 30, "az": 150, "PRN": 18, "used": true, "el": 10}, {"ss": 18, "az": 253, "PRN": 28, "used": true, "el": 9}, {"ss": 40, "az": 217, "PRN": 138, "used": true, "el": 43}], "hdop": 0.8, "time": "2018-04-07T18:58:50.000Z", "tdop": 0.82, "device": "/dev/ttyUSB0", "xdop": 0.69, "vdop": 1.32, "class": "SKY", "pdop": 1.59, "ydop": 0.57}]}
{"active": 1, "time": "2018-03-03T17:18:08.324Z", "gst": [{"lat": 0.0, "orient": 0.0, "rms": 0.0, "alt": 0.0, "device": "/dev/ttyUSB0", "minor": 0.0, "time": "1970-01-01T00:00:00.000Z", "class": "GST", "major": 0.0, "lon": 0.0}], "class": "POLL", "tpv": [{"epc": 15.18, "eps": 5.16, "epx": 2.578, "time": "2018-04-07T18:58:55.000Z", "ept": 0.005, "class": "TPV", "alt": 241.724, "epv": 7.588, "lat": 33.660012289, "speed": 0.0, "epy": 2.151, "mode": 3, "device": "/dev/ttyUSB0", "climb": 0.0, "track": 0.0, "lon": -84.123937705}], "sky": [{"gdop": 1.79, "satellites": [{"ss": 45, "az": 316, "PRN": 7, "used": true, "el": 41}, {"ss": 48, "az": 154, "PRN": 8, "used": true, "el": 71}, {"ss": 44, "az": 253, "PRN": 9, "used": true, "el": 56}, {"ss": 35, "az": 52, "PRN": 16, "used": true, "el": 23}, {"ss": 47, "az": 190, "PRN": 23, "used": true, "el": 43}, {"ss": 39, "az": 54, "PRN": 27, "used": true, "el": 51}, {"ss": 28, "az": 306, "PRN": 30, "used": true, "el": 17}, {"ss": 34, "az": 171, "PRN": 11, "used": true, "el": 19}, {"ss": 29, "az": 150, "PRN": 18, "used": true, "el": 10}, {"ss": 18, "az": 253, "PRN": 28, "used": true, "el": 9}, {"ss": 40, "az": 217, "PRN": 138, "used": true, "el": 43}], "hdop": 0.8, "time": "2018-04-07T18:58:53.000Z", "tdop": 0.82, "device": "/dev/ttyUSB0", "xdop": 0.69, "vdop": 1.32, "class": "SKY", "pdop": 1.59, "ydop": 0.57}]}
{"active": 1, "time": "2018-03-03T17:18:13.354Z", "gst": [{"lat": 0.0, "orient": 0.0, "rms": 0.0, "alt": 0.0, "device": "/dev/ttyUSB0", "minor": 0.0, "time": "1970-01-01T00:00:00.000Z", "class": "GST", "major": 0.0, "lon": 0.0}], "class": "POLL", "tpv": [{"epc": 15.18, "eps": 5.16, "epx": 2.578, "time": "2018-04-07T18:59:01.000Z", "ept": 0.005, "class": "TPV", "alt": 241.724, "epv": 7.588, "lat": 33.660012289, "speed": 0.0, "epy": 2.151, "mode": 3, "device": "/dev/ttyUSB0", "climb": 0.0, "track": 0.0, "lon": -84.123937705}], "sky": [{"gdop": 1.79, "satellites": [{"ss": 46, "az": 316, "PRN": 7, "used": true, "el": 41}, {"ss": 48, "az": 154, "PRN": 8, "used": true, "el": 71}, {"ss": 43, "az": 253, "PRN": 9, "used": true, "el": 56}, {"ss": 36, "az": 52, "PRN": 16, "used": true, "el": 23}, {"ss": 48, "az": 190, "PRN": 23, "used": true, "el": 43}, {"ss": 40, "az": 54, "PRN": 27, "used": true, "el": 51}, {"ss": 29, "az": 306, "PRN": 30, "used": true, "el": 17}, {"ss": 34, "az": 171, "PRN": 11, "used": true, "el": 19}, {"ss": 31, "az": 150, "PRN": 18, "used": true, "el": 10}, {"ss": 25, "az": 253, "PRN": 28, "used": true, "el": 9}, {"ss": 39, "az": 217, "PRN": 138, "used": true, "el": 43}], "hdop": 0.8, "time": "2018-04-07T18:58:59.000Z", "tdop": 0.82, "device": "/dev/ttyUSB0", "xdop": 0.69, "vdop": 1.32, "class": "SKY", "pdop": 1.59, "ydop": 0.57}]}
{"active": 1, "time": "2018-03-03T17:18:18.381Z", "gst": [{"lat": 0.0, "orient": 0.0, "rms": 0.0, "alt": 0.0, "device": "/dev/ttyUSB0", "minor": 0.0, "time": "1970-01-01T00:00:00.000Z", "class": "GST", "major": 0.0, "lon": 0.0}], "class": "POLL", "tpv": [{"epc": 15.18, "eps": 5.16, "epx": 2.578, "time": "2018-04-07T18:59:06.000Z", "ept": 0.005, "class": "TPV", "alt": 241.724, "epv": 7.588, "lat": 33.660012289, "speed": 0.0, "epy": 2.151, "mode": 3, "device": "/dev/ttyUSB0", "climb": 0.0, "track": 0.0, "lon": -84.123937705}], "sky": [{"gdop": 1.79, "satellites": [{"ss": 47, "az": 316, "PRN": 7, "used": true, "el": 41}, {"ss": 49, "az": 154, "PRN": 8, "used": true, "el": 71}, {"ss": 43, "az": 253, "PRN": 9, "used": true, "el": 56}, {"ss": 37, "az": 52, "PRN": 16, "used": true, "el": 23}, {"ss": 48, "az": 190, "PRN": 23, "used": true, "el": 43}, {"ss": 42, "az": 54, "PRN": 27, "used": true, "el": 51}, {"ss": 36, "az": 306, "PRN": 30, "used": true, "el": 17}, {"ss": 38, "az": 171, "PRN": 11, "used": true, "el": 19}, {"ss": 31, "az": 150, "PRN": 18, "used": true, "el": 10}, {"ss": 27, "az": 253, "PRN": 28, "used": true, "el": 9}, {"ss": 38, "az": 217, "PRN": 138, "used": true, "el": 43}], "hdop": 0.8, "time": "2018-04-07T18:59:05.000Z", "tdop": 0.82, "device": "/dev/ttyUSB0", "xdop": 0.69, "vdop": 1.32, "class": "SKY", "pdop": 1.59, "ydop": 0.57}]}
{"active": 1, "time": "2018-03-03T17:18:23.407Z", "gst": [{"lat": 0.0, "orient": 0.0, "rms": 0.0, "alt": 0.0, "device": "/dev/ttyUSB0", "minor": 0.0, "time": "1970-01-01T00:00:00.000Z", "class": "GST", "major": 0.0, "lon": 0.0}], "class": "POLL", "tpv": [{"epc": 15.18, "eps": 5.16, "epx": 2.578, "time": "2018-04-07T18:59:10.000Z", "ept": 0.005, "class": "TPV", "alt": 241.724, "epv": 7.588, "lat": 33.660012289, "speed": 0.0, "epy": 2.151, "mode": 3, "device": "/dev/ttyUSB0", "climb": 0.0, "track": 0.0, "lon": -84.123937705}], "sky": [{"gdop": 1.79, "satellites": [{"ss": 47, "az": 316, "PRN": 7, "used": true, "el": 41}, {"ss": 49, "az": 154, "PRN": 8, "used": true, "el": 71}, {"ss": 43, "az": 253, "PRN": 9, "used": true, "el": 56}, {"ss": 37, "az": 52, "PRN": 16, "used": true, "el": 23}, {"ss": 49, "az": 190, "PRN": 23, "used": true, "el": 43}, {"ss": 43, "az": 54, "PRN": 27, "used": true, "el": 51}, {"ss": 36, "az": 306, "PRN": 30, "used": true, "el": 17}, {"ss": 31, "az": 171, "PRN": 11, "used": true, "el": 19}, {"ss": 31, "az": 150, "PRN": 18, "used": true, "el": 10}, {"ss": 27, "az": 253, "PRN": 28, "used": true, "el": 9}, {"ss": 39, "az": 217, "PRN": 138, "used": true, "el": 43}], "hdop": 0.8, "time": "2018-04-07T18:59:08.000Z", "tdop": 0.82, "device": "/dev/ttyUSB0", "xdop": 0.69, "vdop": 1.32, "class": "SKY", "pdop": 1.59, "ydop": 0.57}]}
{"active": 1, "time": "2018-03-03T17:18:28.438Z", "gst": [{"lat": 0.0, "orient": 0.0, "rms": 0.0, "alt": 0.0, "device": "/dev/ttyUSB0", "minor": 0.0, "time": "1970-01-01T00:00:00.000Z", "class": "GST", "major": 0.0, "lon": 0.0}], "class": "POLL", "tpv": [{"epc": 15.18, "eps": 5.16, "epx": 2.578, "time": "2018-04-07T18:59:16.000Z", "ept": 0.005, "class": "TPV", "alt": 241.724, "epv": 7.588, "lat": 33.660012289, "speed": 0.0, "epy": 2.151, "mode": 3, "device": "/dev/ttyUSB0", "climb": 0.0, "track": 0.0, "lon": -84.123937705}], "sky": [{"gdop": 1.79, "satellites": [{"ss": 48, "az": 316, "PRN": 7, "used": true, "el": 41}, {"ss": 48, "az": 154, "PRN": 8, "used": true, "el": 71}, {"ss": 42, "az": 253, "PRN": 9, "used": true, "el": 56}, {"ss": 37, "az": 52, "PRN": 16, "used": true, "el": 23}, {"ss": 49, "az": 190, "PRN": 23, "used": true, "el": 43}, {"ss": 45, "az": 54, "PRN": 27, "used": true, "el": 51}, {"ss": 36, "az": 306, "PRN": 30, "used": true, "el": 17}, {"ss": 29, "az": 171, "PRN": 11, "used": true, "el": 19}, {"ss": 24, "az": 150, "PRN": 18, "used": true, "el": 10}, {"ss": 26, "az": 253, "PRN": 28, "used": true, "el": 9}, {"ss": 41, "az": 217, "PRN": 138, "used": true, "el": 43}], "hdop": 0.8, "time": "2018-04-07T18:59:14.000Z", "tdop": 0.82, "device": "/dev/ttyUSB0", "xdop": 0.69, "vdop": 1.32, "class": "SKY", "pdop": 1.59, "ydop": 0.57}]}
{"active": 1, "time": "2018-03-03T17:18:33.464Z", "gst": [{"lat": 0.0, "orient": 0.0, "rms": 0.0, "alt": 0.0, "device": "/dev/ttyUSB0", "minor": 0.0, "time": "1970-01-01T00:00:00.000Z", "class": "GST", "major": 0.0, "lon": 0.0}], "class": "POLL", "tpv": [{"epc": 15.18, "eps": 5.16, "epx": 2.578, "time": "2018-04-07T18:59:21.000Z", "ept": 0.005, "class": "TPV", "alt": 241.724, "epv": 7.588, "lat": 33.660012289, "speed": 0.0, "epy": 2.151, "mode": 3, "device": "/dev/ttyUSB0", "climb": 0.0, "track": 0.0, "lon": -84.123937705}], "sky": [{"gdop": 1.79, "satellites": [{"ss": 48, "az": 316, "PRN": 7, "used": true, "el": 41}, {"ss": 49, "az": 154, "PRN": 8, "used": true, "el": 71}, {"ss": 43, "az": 253, "PRN": 9, "used": true, "el": 56}, {"ss": 38, "az": 52, "PRN": 16, "used": true, "el": 23}, {"ss": 48, "az": 190, "PRN": 23, "used": true, "el": 43}, {"ss": 38, "az": 54, "PRN": 27, "used": true, "el": 51}, {"ss": 35, "az": 306, "PRN": 30, "used": true, "el": 17}, {"ss": 34, "az": 171, "PRN": 11, "used": true, "el": 19}, {"ss": 28, "az": 150, "PRN": 18, "used": true, "el": 10}, {"ss": 32, "az": 253, "PRN": 28, "used": true, "el": 9}, {"ss": 40, "az": 217, "PRN": 138, "used": true, "el": 43}], "hdop": 0.8, "time": "2018-04-07T18:59:20.000Z", "tdop": 0.82, "device": "/dev/ttyUSB0", "xdop": 0.69, "vdop": 1.32, "class": "SKY", "pdop": 1.59, "ydop": 0.57}]}
{"active": 1, "time": "2018-03-03T17:18:38.491Z", "gst": [{"lat": 0.0, "orient": 0.0, "rms": 0.0, "alt": 0.0, "device": "/dev/ttyUSB0", "minor": 0.0, "time": "1970-01-01T00:00:00.000Z", "class": "GST", "major": 0.0, "lon": 0.0}], "class": "POLL", "tpv": [{"epc": 15.18, "eps": 5.16, "epx": 2.578, "time": "2018-04-07T18:59:25.000Z", "ept": 0.005, "class": "TPV", "alt": 241.084, "epv": 7.588, "lat": 33.660005297, "speed": 0.729, "epy": 2.151, "mode": 3, "device": "/dev/ttyUSB0", "climb": 0.001, "track": 214.3652, "lon": -84.123948429}], "sky": [{"gdop": 1.79, "satellites": [{"ss": 36, "az": 316, "PRN": 7, "used": true, "el": 41}, {"ss": 34, "az": 154, "PRN": 8, "used": true, "el": 71}, {"ss": 29, "az": 253, "PRN": 9, "used": true, "el": 56}, {"ss": 25, "az": 52, "PRN": 16, "used": true, "el": 23}, {"ss": 37, "az": 190, "PRN": 23, "used": true, "el": 43}, {"ss": 41, "az": 54, "PRN": 27, "used": true, "el": 51}, {"ss": 30, "az": 306, "PRN": 30, "used": true, "el": 17}, {"ss": 28, "az": 171, "PRN": 11, "used": true, "el": 19}, {"ss": 25, "az": 150, "PRN": 18, "used": true, "el": 10}, {"ss": 18, "az": 253, "PRN": 28, "used": true, "el": 9}, {"ss": 0, "az": 217, "PRN": 138, "used": false, "el": 43}], "hdop": 0.8, "time": "2018-04-07T18:59:26.000Z", "tdop": 0.82, "device": "/dev/ttyUSB0", "xdop": 0.69, "vdop": 1.32, "class": "SKY", "pdop": 1.59, "ydop": 0.57}]}
{"active": 1, "time": "2018-03-03T17:18:43.523Z", "gst": [{"lat": 0.0, "orient": 0.0, "rms": 0.0, "alt": 0.0, "device": "/dev/ttyUSB0", "minor": 0.0, "time": "1970-01-01T00:00:00.000Z", "class": "GST", "major": 0.0, "lon": 0.0}], "class": "POLL", "tpv": [{"epc": 15.18, "eps": 5.16, "epx": 2.578, "time": "2018-04-07T18:59:31.000Z", "ept": 0.005, "class": "TPV", "alt": 242.186, "epv": 7.588, "lat": 33.659987851, "speed": 0.0, "epy": 2.151, "mode": 3, "device": "/dev/ttyUSB0", "climb": 0.0, "track": 0.0, "lon": -84.123950637}], "sky": [{"gdop": 1.79, "satellites": [{"ss": 41, "az": 316, "PRN": 7, "used": true, "el": 41}, {"ss": 36, "az": 154, "PRN": 8, "used": true, "el": 71}, {"ss": 36, "az": 253, "PRN": 9, "used": true, "el": 56}, {"ss": 24, "az": 52, "PRN": 16, "used": true, "el": 23}, {"ss": 42, "az": 190, "PRN": 23, "used": true, "el": 43}, {"ss": 40, "az": 54, "PRN": 27, "used": true, "el": 51}, {"ss": 34, "az": 306, "PRN": 30, "used": true, "el": 17}, {"ss": 35, "az": 171, "PRN": 11, "used": true, "el": 19}, {"ss": 27, "az": 150, "PRN": 18, "used": true, "el": 10}, {"ss": 28, "az": 253, "PRN": 28, "used": true, "el": 9}, {"ss": 32, "az": 217, "PRN": 138, "used": true, "el": 43}], "hdop": 0.8, "time": "2018-04-07T18:59:29.000Z", "tdop": 0.82, "device": "/dev/ttyUSB0", "xdop": 0.69, "vdop": 1.32, "class": "SKY", "pdop": 1.59, "ydop": 0.57}]}
{"active": 1, "time": "2018-03-03T17:18:48.549Z", "gst": [{"lat": 0.0, "orient": 0.0, "rms": 0.0, "alt": 0.0, "device": "/dev/ttyUSB0", "minor": 0.0, "time": "1970-01-01T00:00:00.000Z", "class": "GST", "major": 0.0, "lon": 0.0}], "class": "POLL", "tpv": [{"epc": 15.18, "eps": 5.16, "epx": 2.578, "time": "2018-04-07T18:59:36.000Z", "ept": 0.005, "class": "TPV", "alt": 242.186, "epv": 7.588, "lat": 33.659987851, "speed": 0.0, "epy": 2.151, "mode": 3, "device": "/dev/ttyUSB0", "climb": 0.0, "track": 0.0, "lon": -84.123950637}], "sky": [{"gdop": 1.79, "satellites": [{"ss": 38, "az": 316, "PRN": 7, "used": true, "el": 41}, {"ss": 34, "az": 154, "PRN": 8, "used": true, "el": 71}, {"ss": 35, "az": 253, "PRN": 9, "used": true, "el": 56}, {"ss": 25, "az": 52, "PRN": 16, "used": true, "el": 23}, {"ss": 36, "az": 190, "PRN": 23, "used": true, "el": 43}, {"ss": 31, "az": 54, "PRN": 27, "used": true, "el": 51}, {"ss": 29, "az": 306, "PRN": 30, "used": true, "el": 17}, {"ss": 36, "az": 171, "PRN": 11, "used": true, "el": 19}, {"ss": 28, "az": 150, "PRN": 18, "used": true, "el": 10}, {"ss": 7, "az": 253, "PRN": 28, "used": true, "el": 9}, {"ss": 32, "az": 217, "PRN": 138, "used": true, "el": 43}], "hdop": 0.8, "time": "2018-04-07T18:59:35.000Z", "tdop": 0.82, "device": "/dev/ttyUSB0", "xdop": 0.69, "vdop": 1.32, "class": "SKY", "pdop": 1.59, "ydop": 0.57}]}
{"active": 1, "time": "2018-03-03T17:18:53.577Z", "gst": [{"lat": 0.0, "orient": 0.0, "rms": 0.0, "alt": 0.0, "device": "/dev/ttyUSB0", "minor": 0.0, "time": "1970-01-01T00:00:00.000Z", "class": "GST", "major": 0.0, "lon": 0.0}], "class": "POLL", "tpv": [{"epc": 37.94, "eps": 12.89, "epx": 10.312, "time": "2018-04-07T18:59:41.000Z", "ept": 0.005, "class": "TPV", "alt": 242.186, "epv": 30.353, "lat": 33.659987851, "speed": 0.0, "epy": 8.604, "mode": 3, "device": "/dev/ttyUSB0", "climb": 0.0, "track": 0.0, "lon": -84.123950637}], "sky": [{"gdop": 1.79, "satellites": [{"ss": 43, "az": 316, "PRN": 7, "used": true, "el": 41}, {"ss": 31, "az": 154, "PRN": 8, "used": true, "el": 71}, {"ss": 34, "az": 253, "PRN": 9, "used": true, "el": 56}, {"ss": 18, "az": 52, "PRN": 16, "used": true, "el": 23}, {"ss": 44, "az": 190, "PRN": 23, "used": true, "el": 43}, {"ss": 39, "az": 54, "PRN": 27, "used": true, "el": 51}, {"ss": 34, "az": 306, "PRN": 30, "used": true, "el": 17}, {"ss": 36, "az": 171, "PRN": 11, "used": true, "el": 19}, {"ss": 35, "az": 150, "PRN": 18, "used": true, "el": 10}, {"ss": 18, "az": 253, "PRN": 28, "used": true, "el": 9}, {"ss": 32, "az": 217, "PRN": 138, "used": true, "el": 43}], "hdop": 0.8, "time": "2018-04-07T18:59:41.000Z", "tdop": 0.82, "device": "/dev/ttyUSB0", "xdop": 0.69, "vdop": 1.32, "class": "SKY", "pdop": 1.59, "ydop": 0.57}]}
{"active": 1, "time": "2018-03-03T17:18:58.607Z", "gst": [{"lat": 0.0, "orient": 0.0, "rms": 0.0, "alt": 0.0, "device": "/dev/ttyUSB0", "minor": 0.0, "time": "1970-01-01T00:00:00.000Z", "class": "GST", "major": 0.0, "lon": 0.0}], "class": "POLL", "tpv": [{"epc": 60.71, "eps": 20.62, "epx": 10.312, "time": "2018-04-07T18:59:46.000Z", "ept": 0.005, "class": "TPV", "alt": 242.186, "epv": 30.353, "lat": 33.659987851, "speed": 0.0, "epy": 8.604, "mode": 3, "device": "/dev/ttyUSB0", "climb": 0.0, "track": 0.0, "lon": -84.123950637}], "sky": [{"gdop": 1.79, "satellites": [{"ss": 43, "az": 316, "PRN": 7, "used": true, "el": 42}, {"ss": 32, "az": 154, "PRN": 8, "used": true, "el": 71}, {"ss": 34, "az": 252, "PRN": 9, "used": true, "el": 56}, {"ss": 22, "az": 52, "PRN": 16, "used": true, "el": 23}, {"ss": 43, "az": 190, "PRN": 23, "used": true, "el": 42}, {"ss": 39, "az": 54, "PRN": 27, "used": true, "el": 50}, {"ss": 34, "az": 306, "PRN": 30, "used": true, "el": 17}, {"ss": 33, "az": 171, "PRN": 11, "used": true, "el": 19}, {"ss": 35, "az": 150, "PRN": 18, "used": true, "el": 11}, {"ss": 17, "az": 255, "PRN": 28, "used": true, "el": 9}, {"ss": 28, "az": 217, "PRN": 138, "used": true, "el": 43}], "hdop": 0.8, "time": "2018-04-07T18:59:44.000Z", "tdop": 0.82, "device": "/dev/ttyUSB0", "xdop": 0.69, "vdop": 1.32, "class": "SKY", "pdop": 1.59, "ydop": 0.57}]}
{"active": 1, "time": "2018-03-03T17:19:03.631Z", "gst": [{"lat": 0.0, "orient": 0.0, "rms": 0.0, "alt": 0.0, "device": "/dev/ttyUSB0", "minor": 0.0, "time": "1970-01-01T00:00:00.000Z", "class": "GST", "major": 0.0, "lon": 0.0}], "class": "POLL", "tpv": [{"epc": 60.71, "eps": 20.62, "epx": 10.312, "time": "2018-04-07T18:59:51.000Z", "ept": 0.005, "class": "TPV", "alt": 241.632, "epv": 30.353, "lat": 33.659980347, "speed": 0.0, "epy": 8.604, "mode": 3, "device": "/dev/ttyUSB0", "climb": 0.0, "track": 0.0, "lon": -84.123950637}], "sky": [{"gdop": 1.79, "satellites": [{"ss": 45, "az": 316, "PRN": 7, "used": true, "el": 42}, {"ss": 39, "az": 154, "PRN": 8, "used": true, "el": 71}, {"ss": 40, "az": 252, "PRN": 9, "used": true, "el": 56}, {"ss": 28, "az": 52, "PRN": 16, "used": true, "el": 23}, {"ss": 45, "az": 190, "PRN": 23, "used": true, "el": 42}, {"ss": 40, "az": 54, "PRN": 27, "used": true, "el": 50}, {"ss": 34, "az": 306, "PRN": 30, "used": true, "el": 17}, {"ss": 33, "az": 171, "PRN": 11, "used": true, "el": 19}, {"ss": 22, "az": 150, "PRN": 18, "used": true, "el": 11}, {"ss": 18, "az": 255, "PRN": 28, "used": true, "el": 9}, {"ss": 35, "az": 217, "PRN": 138, "used": true, "el": 43}], "hdop": 0.8, "time": "2018-04-07T18:59:50.000Z", "tdop": 0.82, "device": "/dev/ttyUSB0", "xdop": 0.69, "vdop": 1.32, "class": "SKY", "pdop": 1.59, "ydop": 0.57}]}
{"active": 1, "time": "2018-03-03T17:19:08.656Z", "gst": [{"lat": 0.0, "orient": 0.0, "rms": 0.0, "alt": 0.0, "device": "/dev/ttyUSB0", "minor": 0.0, "time": "1970-01-01T00:00:00.000Z", "class": "GST", "major": 0.0, "lon": 0.0}], "class": "POLL", "tpv": [{"epc": 15.18, "eps": 5.16, "epx": 2.578, "time": "2018-04-07T18:59:56.000Z", "ept": 0.005, "class": "TPV", "alt": 243.288, "epv": 7.588, "lat": 33.659970406, "speed": 0.0, "epy": 2.151, "mode": 3, "device": "/dev/ttyUSB0", "climb": 0.0, "track": 0.0, "lon": -84.123952844}], "sky": [{"gdop": 1.79, "satellites": [{"ss": 45, "az": 316, "PRN": 7, "used": true, "el": 42}, {"ss": 33, "az": 154, "PRN": 8, "used": true, "el": 71}, {"ss": 39, "az": 252, "PRN": 9, "used": true, "el": 56}, {"ss": 22, "az": 52, "PRN": 16, "used": true, "el": 23}, {"ss": 45, "az": 190, "PRN": 23, "used": true, "el": 42}, {"ss": 39, "az": 54, "PRN": 27, "used": true, "el": 50}, {"ss": 36, "az": 306, "PRN": 30, "used": true, "el": 17}, {"ss": 34, "az": 171, "PRN": 11, "used": true, "el": 19}, {"ss": 26, "az": 150, "PRN": 18, "used": true, "el": 11}, {"ss": 17, "az": 255, "PRN": 28, "used": true, "el": 9}, {"ss": 33, "az": 217, "PRN": 138, "used": true, "el": 43}], "hdop": 0.8, "time": "2018-04-07T18:59:56.000Z", "tdop": 0.82, "device": "/dev/ttyUSB0", "xdop": 0.69, "vdop": 1.32, "class": "SKY", "pdop": 1.59, "ydop": 0.57}]}
{"active": 1, "time": "2018-03-03T17:19:13.688Z", "gst": [{"lat": 0.0, "orient": 0.0, "rms": 0.0, "alt": 0.0, "device": "/dev/ttyUSB0", "minor": 0.0, "time": "1970-01-01T00:00:00.000Z", "class": "GST", "major": 0.0, "lon": 0.0}], "class": "POLL", "tpv": [{"epc": 15.18, "eps": 5.16, "epx": 2.578, "time": "2018-04-07T19:00:01.000Z", "ept": 0.005, "class": "TPV", "alt": 244.944, "epv": 7.588, "lat": 33.659960465, "speed": 0.104, "epy": 2.151, "mode": 3, "device": "/dev/ttyUSB0", "climb": 0.069, "track": 0.0, "lon": -84.123955052}], "sky": [{"gdop": 1.79, "satellites": [{"ss": 44, "az": 316, "PRN": 7, "used": true, "el": 42}, {"ss": 33, "az": 154, "PRN": 8, "used": true, "el": 71}, {"ss": 33, "az": 252, "PRN": 9, "used": true, "el": 56}, {"ss": 23, "az": 52, "PRN": 16, "used": true, "el": 23}, {"ss": 41, "az": 190, "PRN": 23, "used": true, "el": 42}, {"ss": 33, "az": 54, "PRN": 27, "used": true, "el": 50}, {"ss": 36, "az": 306, "PRN": 30, "used": true, "el": 17}, {"ss": 34, "az": 171, "PRN": 11, "used": true, "el": 19}, {"ss": 25, "az": 150, "PRN": 18, "used": true, "el": 11}, {"ss": 23, "az": 255, "PRN": 28, "used": true, "el": 9}, {"ss": 22, "az": 217, "PRN": 138, "used": true, "el": 43}], "hdop": 0.8, "time": "2018-04-07T18:59:59.000Z", "tdop": 0.82, "device": "/dev/ttyUSB0", "xdop": 0.69, "vdop": 1.32, "class": "SKY", "pdop": 1.59, "ydop": 0.57}]}
{"active": 1, "time": "2018-03-03T17:19:18.713Z", "gst": [{"lat": 0.0, "orient": 0.0, "rms": 0.0, "alt": 0.0, "device": "/dev/ttyUSB0", "minor": 0.0, "time": "1970-01-01T00:00:00.000Z", "class": "GST", "major": 0.0, "lon": 0.0}], "class": "POLL", "tpv": [{"epc": 15.18, "eps": 5.16, "epx": 2.578, "time": "2018-04-07T19:00:06.000Z", "ept": 0.005, "class": "TPV", "alt": 246.411, "epv": 7.588, "lat": 33.659962486, "speed": 0.104, "epy": 2.151, "mode": 3, "device": "/dev/ttyUSB0", "climb": -0.069, "track": 180.0, "lon": -84.123945431}], "sky": [{"gdop": 1.79, "satellites": [{"ss": 43, "az": 318, "PRN": 7, "used": true, "el": 42}, {"ss": 36, "az": 154, "PRN": 8, "used": true, "el": 72}, {"ss": 34, "az": 252, "PRN": 9, "used": true, "el": 56}, {"ss": 24, "az": 52, "PRN": 16, "used": true, "el": 23}, {"ss": 43, "az": 190, "PRN": 23, "used": true, "el": 42}, {"ss": 36, "az": 52, "PRN": 27, "used": true, "el": 50}, {"ss": 36, "az": 306, "PRN": 30, "used": true, "el": 17}, {"ss": 32, "az": 171, "PRN": 11, "used": true, "el": 19}, {"ss": 21, "az": 150, "PRN": 18, "used": true, "el": 11}, {"ss": 6, "az": 255, "PRN": 28, "used": false, "el": 9}, {"ss": 26, "az": 217, "PRN": 138, "used": true, "el": 43}], "hdop": 0.8, "time": "2018-04-07T19:00:05.000Z", "tdop": 0.82, "device": "/dev/ttyUSB0", "xdop": 0.69, "vdop": 1.32, "class": "SKY", "pdop": 1.59, "ydop": 0.57}]}
{"active": 1, "time": "2018-03-03T17:19:23.740Z", "gst": [{"lat": 0.0, "orient": 0.0, "rms": 0.0, "alt": 0.0, "device": "/dev/ttyUSB0", "minor": 0.0, "time": "1970-01-01T00:00:00.000Z", "class": "GST", "major": 0.0, "lon": 0.0}], "class": "POLL", "tpv": [{"epc": 37.94, "eps": 12.89, "epx": 10.312, "time": "2018-04-07T19:00:11.000Z", "ept": 0.005, "class": "TPV", "alt": 245.029, "epv": 30.353, "lat": 33.659959953, "speed": 0.514, "epy": 8.604, "mode": 3, "device": "/dev/ttyUSB0", "climb": 0.036, "track": 230.8402, "lon": -84.123944327}], "sky": [{"gdop": 1.79, "satellites": [{"ss": 43, "az": 318, "PRN": 7, "used": true, "el": 42}, {"ss": 45, "az": 154, "PRN": 8, "used": true, "el": 72}, {"ss": 39, "az": 252, "PRN": 9, "used": true, "el": 56}, {"ss": 34, "az": 52, "PRN": 16, "used": true, "el": 23}, {"ss": 43, "az": 190, "PRN": 23, "used": true, "el": 42}, {"ss": 44, "az": 52, "PRN": 27, "used": true, "el": 50}, {"ss": 36, "az": 306, "PRN": 30, "used": true, "el": 17}, {"ss": 37, "az": 171, "PRN": 11, "used": true, "el": 19}, {"ss": 33, "az": 150, "PRN": 18, "used": true, "el": 11}, {"ss": 25, "az": 255, "PRN": 28, "used": true, "el": 9}, {"ss": 39, "az": 217, "PRN": 138, "used": true, "el": 43}], "hdop": 0.8, "time": "2018-04-07T19:00:11.000Z", "tdop": 0.82, "device": "/dev/ttyUSB0", "xdop": 0.69, "vdop": 1.32, "class": "SKY", "pdop": 1.59, "ydop": 0.57}]}
{"active": 1, "time": "2018-03-03T17:19:28.766Z", "gst": [{"lat": 0.0, "orient": 0.0, "rms": 0.0, "alt": 0.0, "device": "/dev/ttyUSB0", "minor": 0.0, "time": "1970-01-01T00:00:00.000Z", "class": "GST", "major": 0.0, "lon": 0.0}], "class": "POLL", "tpv": [{"epc": 15.18, "eps": 5.16, "epx": 2.578, "time": "2018-04-07T19:00:16.000Z", "ept": 0.005, "class": "TPV", "alt": 245.857, "epv": 7.588, "lat": 33.659954982, "speed": 0.0, "epy": 2.151, "mode": 3, "device": "/dev/ttyUSB0", "climb": 0.0, "track": 0.0, "lon": -84.123945431}], "sky": [{"gdop": 1.79, "satellites": [{"ss": 43, "az": 318, "PRN": 7, "used": true, "el": 42}, {"ss": 46, "az": 154, "PRN": 8, "used": true, "el": 72}, {"ss": 38, "az": 252, "PRN": 9, "used": true, "el": 56}, {"ss": 37, "az": 52, "PRN": 16, "used": true, "el": 23}, {"ss": 44, "az": 190, "PRN": 23, "used": true, "el": 42}, {"ss": 43, "az": 52, "PRN": 27, "used": true, "el": 50}, {"ss": 35, "az": 306, "PRN": 30, "used": true, "el": 17}, {"ss": 37, "az": 171, "PRN": 11, "used": true, "el": 19}, {"ss": 36, "az": 150, "PRN": 18, "used": true, "el": 11}, {"ss": 26, "az": 255, "PRN": 28, "used": true, "el": 9}, {"ss": 39, "az": 217, "PRN": 138, "used": true, "el": 43}], "hdop": 0.8, "time": "2018-04-07T19:00:14.000Z", "tdop": 0.82, "device": "/dev/ttyUSB0", "xdop": 0.69, "vdop": 1.32, "class": "SKY", "pdop": 1.59, "ydop": 0.57}]}
{"active": 1, "time": "2018-03-03T17:19:33.793Z", "gst": [{"lat": 0.0, "orient": 0.0, "rms": 0.0, "alt": 0.0, "device": "/dev/ttyUSB0", "minor": 0.0, "time": "1970-01-01T00:00:00.000Z", "class": "GST", "major": 0.0, "lon": 0.0}], "class": "POLL", "tpv": [{"epc": 15.18, "eps": 5.16, "epx": 2.578, "time": "2018-04-07T19:00:21.000Z", "ept": 0.005, "class": "TPV", "alt": 245.942, "epv": 7.588, "lat": 33.659954471, "speed": 0.451, "epy": 2.151, "mode": 3, "device": "/dev/ttyUSB0", "climb": -0.126, "track": 215.4797, "lon": -84.123934706}], "sky": [{"gdop": 1.79, "satellites": [{"ss": 46, "az": 318, "PRN": 7, "used": true, "el": 42}, {"ss": 45, "az": 154, "PRN": 8, "used": true, "el": 72}, {"ss": 41, "az": 252, "PRN": 9, "used": true, "el": 56}, {"ss": 25, "az": 52, "PRN": 16, "used": true, "el": 23}, {"ss": 44, "az": 190, "PRN": 23, "used": true, "el": 42}, {"ss": 40, "az": 52, "PRN": 27, "used": true, "el": 50}, {"ss": 36, "az": 306, "PRN": 30, "used": true, "el": 17}, {"ss": 36, "az": 171, "PRN": 11, "used": true, "el": 19}, {"ss": 33, "az": 150, "PRN": 18, "used": true, "el": 11}, {"ss": 27, "az": 255, "PRN": 28, "used": true, "el": 9}, {"ss": 38, "az": 217, "PRN": 138, "used": true, "el": 43}], "hdop": 0.8, "time": "2018-04-07T19:00:20.000Z", "tdop": 0.82, "device": "/dev/ttyUSB0", "xdop": 0.69, "vdop": 1.32, "class": "SKY", "pdop": 1.59, "ydop": 0.57}]}
{"active": 1, "time": "2018-03-03T17:19:38.819Z", "gst": [{"lat": 0.0, "orient": 0.0, "rms": 0.0, "alt": 0.0, "device": "/dev/ttyUSB0", "minor": 0.0, "time": "1970-01-01T00:00:00.000Z", "class": "GST", "major": 0.0, "lon": 0.0}], "class": "POLL", "tpv": [{"epc": 15.18, "eps": 5.16, "epx": 2.578, "time": "2018-04-07T19:00:26.000Z", "ept": 0.005, "class": "TPV", "alt": 246.77, "epv": 7.588, "lat": 33.6599495, "speed": 0.125, "epy": 2.151, "mode": 3, "device": "/dev/ttyUSB0", "climb": -0.011, "track": 273.2648, "lon": -84.12393581}], "sky": [{"gdop": 1.79, "satellites": [{"ss": 46, "az": 318, "PRN": 7, "used": true, "el": 42}, {"ss": 46, "az": 154, "PRN": 8, "used": true, "el": 72}, {"ss": 38, "az": 252, "PRN": 9, "used": true, "el": 56}, {"ss": 31, "az": 52, "PRN": 16, "used": true, "el": 23}, {"ss": 43, "az": 190, "PRN": 23, "used": true, "el": 42}, {"ss": 42, "az": 52, "PRN": 27, "used": true, "el": 50}, {"ss": 32, "az": 306, "PRN": 30, "used": true, "el": 17}, {"ss": 40, "az": 171, "PRN": 11, "used": true, "el": 19}, {"ss": 33, "az": 150, "PRN": 18, "used": true, "el": 11}, {"ss": 31, "az": 255, "PRN": 28, "used": true, "el": 9}, {"ss": 35, "az": 217, "PRN": 138, "used": true, "el": 43}], "hdop": 0.8, "time": "2018-04-07T19:00:26.000Z", "tdop": 0.82, "device": "/dev/ttyUSB0", "xdop": 0.69, "vdop": 1.32, "class": "SKY", "pdop": 1.59, "ydop": 0.57}]}
{"active": 1, "time": "2018-03-03T17:19:43.845Z", "gst": [{"lat": 0.0, "orient": 0.0, "rms": 0.0, "alt": 0.0, "device": "/dev/ttyUSB0", "minor": 0.0, "time": "1970-01-01T00:00:00.000Z", "class": "GST", "major": 0.0, "lon": 0.0}], "class": "POLL", "tpv": [{"epc": 15.18, "eps": 5.16, "epx": 2.578, "time": "2018-04-07T19:00:31.000Z", "ept": 0.005, "class": "TPV", "alt": 249.065, "epv": 7.588, "lat": 33.659946551, "speed": 0.158, "epy": 2.151, "mode": 3, "device": "/dev/ttyUSB0", "climb": 0.08, "track": 52.0566, "lon": -84.123927293}], "sky": [{"gdop": 1.79, "satellites": [{"ss": 47, "az": 318, "PRN": 7, "used": true, "el": 42}, {"ss": 47, "az": 154, "PRN": 8, "used": true, "el": 72}, {"ss": 42, "az": 252, "PRN": 9, "used": true, "el": 56}, {"ss": 30, "az": 52, "PRN": 16, "used": true, "el": 23}, {"ss": 44, "az": 190, "PRN": 23, "used": true, "el": 42}, {"ss": 44, "az": 52, "PRN": 27, "used": true, "el": 50}, {"ss": 33, "az": 306, "PRN": 30, "used": true, "el": 17}, {"ss": 31, "az": 171, "PRN": 11, "used": true, "el": 19}, {"ss": 28, "az": 150, "PRN": 18, "used": true, "el": 11}, {"ss": 30, "az": 255, "PRN": 28, "used": true, "el": 9}, {"ss": 35, "az": 217, "PRN": 138, "used": true, "el": 43}], "hdop": 0.8, "time": "2018-04-07T19:00:29.000Z", "tdop": 0.82, "device": "/dev/ttyUSB0", "xdop": 0.69, "vdop": 1.32, "class": "SKY", "pdop": 1.59, "ydop": 0.57}]}
{"active": 1, "time": "2018-03-03T17:19:48.871Z", "gst": [{"lat": 0.0, "orient": 0.0, "rms": 0.0, "alt": 0.0, "device": "/dev/ttyUSB0", "minor": 0.0, "time": "1970-01-01T00:00:00.000Z", "class": "GST", "major": 0.0, "lon": 0.0}], "class": "POLL", "tpv": [{"epc": 15.18, "eps": 5.16, "epx": 2.578, "time": "2018-04-07T19:00:36.000Z", "ept": 0.005, "class": "TPV", "alt": 249.254, "epv": 7.588, "lat": 33.659934588, "speed": 1.769, "epy": 2.151, "mode": 3, "device": "/dev/ttyUSB0", "climb": 0.108, "track": 167.0967, "lon": -84.123939121}], "sky": [{"gdop": 1.79, "satellites": [{"ss": 47, "az": 318, "PRN": 7, "used": true, "el": 42}, {"ss": 47, "az": 153, "PRN": 8, "used": true, "el": 72}, {"ss": 37, "az": 252, "PRN": 9, "used": true, "el": 56}, {"ss": 30, "az": 52, "PRN": 16, "used": true, "el": 22}, {"ss": 45, "az": 190, "PRN": 23, "used": true, "el": 42}, {"ss": 41, "az": 52, "PRN": 27, "used": true, "el": 50}, {"ss": 32, "az": 306, "PRN": 30, "used": true, "el": 18}, {"ss": 36, "az": 171, "PRN": 11, "used": true, "el": 19}, {"ss": 33, "az": 150, "PRN": 18, "used": true, "el": 11}, {"ss": 26, "az": 255, "PRN": 28, "used": true, "el": 10}, {"ss": 40, "az": 217, "PRN": 138, "used": true, "el": 43}], "hdop": 0.8, "time": "2018-04-07T19:00:35.000Z", "tdop": 0.82, "device": "/dev/ttyUSB0", "xdop": 0.69, "vdop": 1.32, "class": "SKY", "pdop": 1.59, "ydop": 0.57}]}
{"active": 1, "time": "2018-03-03T17:19:53.898Z", "gst": [{"lat": 0.0, "orient": 0.0, "rms": 0.0, "alt": 0.0, "device": "/dev/ttyUSB0", "minor": 0.0, "time": "1970-01-01T00:00:00.000Z", "class": "GST", "major": 0.0, "lon": 0.0}], "class": "POLL", "tpv": [{"epc": 15.18, "eps": 5.16, "epx": 2.578, "time": "2018-04-07T19:00:41.000Z", "ept": 0.005, "class": "TPV", "alt": 248.838, "epv": 7.588, "lat": 33.659872094, "speed": 1.717, "epy": 2.151, "mode": 3, "device": "/dev/ttyUSB0", "climb": 0.07, "track": 136.6146, "lon": -84.12388881}], "sky": [{"gdop": 1.79, "satellites": [{"ss": 48, "az": 318, "PRN": 7, "used": true, "el": 42}, {"ss": 48, "az": 153, "PRN": 8, "used": true, "el": 72}, {"ss": 41, "az": 252, "PRN": 9, "used": true, "el": 56}, {"ss": 36, "az": 52, "PRN": 16, "used": true, "el": 22}, {"ss": 46, "az": 190, "PRN": 23, "used": true, "el": 42}, {"ss": 40, "az": 52, "PRN": 27, "used": true, "el": 50}, {"ss": 37, "az": 306, "PRN": 30, "used": true, "el": 18}, {"ss": 32, "az": 171, "PRN": 11, "used": true, "el": 19}, {"ss": 29, "az": 150, "PRN": 18, "used": true, "el": 11}, {"ss": 28, "az": 255, "PRN": 28, "used": true, "el": 10}, {"ss": 36, "az": 217, "PRN": 138, "used": true, "el": 43}], "hdop": 0.8, "time": "2018-04-07T19:00:41.000Z", "tdop": 0.82, "device": "/dev/ttyUSB0", "xdop": 0.69, "vdop": 1.32, "class": "SKY", "pdop": 1.59, "ydop": 0.57}]}
{"active": 1, "time": "2018-03-03T17:19:58.923Z", "gst": [{"lat": 0.0, "orient": 0.0, "rms": 0.0, "alt": 0.0, "device": "/dev/ttyUSB0", "minor": 0.0, "time": "1970-01-01T00:00:00.000Z", "class": "GST", "major": 0.0, "lon": 0.0}], "class": "POLL", "tpv": [{"epc": 15.18, "eps": 5.16, "epx": 2.578, "time": "2018-04-07T19:00:46.000Z", "ept": 0.005, "class": "TPV", "alt": 247.029, "epv": 7.588, "lat": 33.65985046, "speed": 1.526, "epy": 2.151, "mode": 3, "device": "/dev/ttyUSB0", "climb": -0.01, "track": 84.1029, "lon": -84.12380191}], "sky": [{"gdop": 1.79, "satellites": [{"ss": 48, "az": 318, "PRN": 7, "used": true, "el": 42}, {"ss": 48, "az": 153, "PRN": 8, "used": true, "el": 72}, {"ss": 46, "az": 252, "PRN": 9, "used": true, "el": 56}, {"ss": 37, "az": 52, "PRN": 16, "used": true, "el": 22}, {"ss": 38, "az": 190, "PRN": 23, "used": true, "el": 42}, {"ss": 40, "az": 52, "PRN": 27, "used": true, "el": 50}, {"ss": 44, "az": 306, "PRN": 30, "used": true, "el": 18}, {"ss": 32, "az": 171, "PRN": 11, "used": true, "el": 19}, {"ss": 29, "az": 150, "PRN": 18, "used": true, "el": 11}, {"ss": 28, "az": 255, "PRN": 28, "used": true, "el": 10}, {"ss": 43, "az": 217, "PRN": 138, "used": true, "el": 43}], "hdop": 0.8, "time": "2018-04-07T19:00:44.000Z", "tdop": 0.82, "device": "/dev/ttyUSB0", "xdop": 0.69, "vdop": 1.32, "class": "SKY", "pdop": 1.59, "ydop": 0.57}]}
{"active": 1, "time": "2018-03-03T17:20:03.950Z", "gst": [{"lat": 0.0, "orient": 0.0, "rms": 0.0, "alt": 0.0, "device": "/dev/ttyUSB0", "minor": 0.0, "time": "1970-01-01T00:00:00.000Z", "class": "GST", "major": 0.0, "lon": 0.0}], "class": "POLL", "tpv": [{"epc": 15.18, "eps": 5.16, "epx": 2.578, "time": "2018-04-07T19:00:51.000Z", "ept": 0.005, "class": "TPV", "alt": 245.629, "epv": 7.588, "lat": 33.659858867, "speed": 1.147, "epy": 2.151, "mode": 3, "device": "/dev/ttyUSB0", "climb": -0.111, "track": 86.3012, "lon": -84.123767529}], "sky": [{"gdop": 1.79, "satellites": [{"ss": 36, "az": 318, "PRN": 7, "used": true, "el": 42}, {"ss": 30, "az": 153, "PRN": 8, "used": true, "el": 72}, {"ss": 39, "az": 252, "PRN": 9, "used": true, "el": 56}, {"ss": 31, "az": 52, "PRN": 16, "used": true, "el": 22}, {"ss": 34, "az": 190, "PRN": 23, "used": true, "el": 42}, {"ss": 34, "az": 52, "PRN": 27, "used": true, "el": 50}, {"ss": 36, "az": 306, "PRN": 30, "used": true, "el": 18}, {"ss": 27, "az": 171, "PRN": 11, "used": true, "el": 19}, {"ss": 24, "az": 150, "PRN": 18, "used": true, "el": 11}, {"ss": 35, "az": 255, "PRN": 28, "used": true, "el": 10}, {"ss": 27, "az": 217, "PRN": 138, "used": true, "el": 43}], "hdop": 0.8, "time": "2018-04-07T19:00:50.000Z", "tdop": 0.82, "device": "/dev/ttyUSB0", "xdop": 0.69, "vdop": 1.32, "class": "SKY", "pdop": 1.59, "ydop": 0.57}]}
{"active": 1, "time": "2018-03-03T17:20:08.975Z", "gst": [{"lat": 0.0, "orient": 0.0, "rms": 0.0, "alt": 0.0, "device": "/dev/ttyUSB0", "minor": 0.0, "time": "1970-01-01T00:00:00.000Z", "class": "GST", "major": 0.0, "lon": 0.0}], "class": "POLL", "tpv": [{"epc": 15.18, "eps": 5.16, "epx": 2.578, "time": "2018-04-07T19:00:56.000Z", "ept": 0.005, "class": "TPV", "alt": 246.787, "epv": 7.588, "lat": 33.659895243, "speed": 1.64, "epy": 2.151, "mode": 3, "device": "/dev/ttyUSB0", "climb": 0.119, "track": 59.9193, "lon": -84.12369025}], "sky": [{"gdop": 1.79, "satellites": [{"ss": 38, "az": 318, "PRN": 7, "used": true, "el": 42}, {"ss": 43, "az": 153, "PRN": 8, "used": true, "el": 72}, {"ss": 44, "az": 252, "PRN": 9, "used": true, "el": 56}, {"ss": 35, "az": 52, "PRN": 16, "used": true, "el": 22}, {"ss": 40, "az": 190, "PRN": 23, "used": true, "el": 42}, {"ss": 45, "az": 52, "PRN": 27, "used": true, "el": 50}, {"ss": 36, "az": 306, "PRN": 30, "used": true, "el": 18}, {"ss": 32, "az": 171, "PRN": 11, "used": true, "el": 19}, {"ss": 0, "az": 150, "PRN": 18, "used": false, "el": 11}, {"ss": 30, "az": 255, "PRN": 28, "used": true, "el": 10}, {"ss": 42, "az": 217, "PRN": 138, "used": true, "el": 43}], "hdop": 0.8, "time": "2018-04-07T19:00:56.000Z", "tdop": 0.82, "device": "/dev/ttyUSB0", "xdop": 0.69, "vdop": 1.32, "class": "SKY", "pdop": 1.59, "ydop": 0.57}]}
{"active": 1, "time": "2018-03-03T17:20:14.001Z", "gst": [{"lat": 0.0, "orient": 0.0, "rms": 0.0, "alt": 0.0, "device": "/dev/ttyUSB0", "minor": 0.0, "time": "1970-01-01T00:00:00.000Z", "class": "GST", "major": 0.0, "lon": 0.0}], "class": "POLL", "tpv": [{"epc": 15.18, "eps": 5.16, "epx": 2.578, "time": "2018-04-07T19:01:01.000Z", "ept": 0.005, "class": "TPV", "alt": 247.312, "epv": 7.588, "lat": 33.65995708, "speed": 1.332, "epy": 2.151, "mode": 3, "device": "/dev/ttyUSB0", "climb": 0.09, "track": 30.9941, "lon": -84.123621488}], "sky": [{"gdop": 1.79, "satellites": [{"ss": 39, "az": 318, "PRN": 7, "used": true, "el": 42}, {"ss": 43, "az": 153, "PRN": 8, "used": true, "el": 72}, {"ss": 37, "az": 252, "PRN": 9, "used": true, "el": 56}, {"ss": 35, "az": 52, "PRN": 16, "used": true, "el": 22}, {"ss": 41, "az": 190, "PRN": 23, "used": true, "el": 42}, {"ss": 46, "az": 52, "PRN": 27, "used": true, "el": 50}, {"ss": 36, "az": 306, "PRN": 30, "used": true, "el": 18}, {"ss": 34, "az": 171, "PRN": 11, "used": true, "el": 19}, {"ss": 25, "az": 150, "PRN": 18, "used": true, "el": 11}, {"ss": 30, "az": 255, "PRN": 28, "used": true, "el": 10}, {"ss": 42, "az": 217, "PRN": 138, "used": true, "el": 43}], "hdop": 0.8, "time": "2018-04-07T19:00:59.000Z", "tdop": 0.82, "device": "/dev/ttyUSB0", "xdop": 0.69, "vdop": 1.32, "class": "SKY", "pdop": 1.59, "ydop": 0.57}]}
{"active": 1, "time": "2018-03-03T17:20:19.035Z", "gst": [{"lat": 0.0, "orient": 0.0, "rms": 0.0, "alt": 0.0, "device": "/dev/ttyUSB0", "minor": 0.0, "time": "1970-01-01T00:00:00.000Z", "class": "GST", "major": 0.0, "lon": 0.0}], "class": "POLL", "tpv": [{"epc": 15.18, "eps": 5.16, "epx": 2.578, "time": "2018-04-07T19:01:06.000Z", "ept": 0.005, "class": "TPV", "alt": 247.197, "epv": 7.588, "lat": 33.660011925, "speed": 1.588, "epy": 2.151, "mode": 3, "device": "/dev/ttyUSB0", "climb": -0.096, "track": 37.1917, "lon": -84.12356345}], "sky": [{"gdop": 1.79, "satellites": [{"ss": 42, "az": 318, "PRN": 7, "used": true, "el": 42}, {"ss": 42, "az": 153, "PRN": 8, "used": true, "el": 72}, {"ss": 42, "az": 252, "PRN": 9, "used": true, "el": 56}, {"ss": 35, "az": 52, "PRN": 16, "used": true, "el": 22}, {"ss": 42, "az": 190, "PRN": 23, "used": true, "el": 42}, {"ss": 45, "az": 52, "PRN": 27, "used": true, "el": 50}, {"ss": 30, "az": 306, "PRN": 30, "used": true, "el": 18}, {"ss": 34, "az": 171, "PRN": 11, "used": true, "el": 19}, {"ss": 26, "az": 150, "PRN": 18, "used": true, "el": 11}, {"ss": 29, "az": 255, "PRN": 28, "used": true, "el": 10}, {"ss": 37, "az": 217, "PRN": 138, "used": true, "el": 43}], "hdop": 0.8, "time": "2018-04-07T19:01:05.000Z", "tdop": 0.82, "device": "/dev/ttyUSB0", "xdop": 0.69, "vdop": 1.32, "class": "SKY", "pdop": 1.59, "ydop": 0.57}]}
{"active": 1, "time": "2018-03-03T17:20:24.067Z", "gst": [{"lat": 0.0, "orient": 0.0, "rms": 0.0, "alt": 0.0, "device": "/dev/ttyUSB0", "minor": 0.0, "time": "1970-01-01T00:00:00.000Z", "class": "GST", "major": 0.0, "lon": 0.0}], "class": "POLL", "tpv": [{"epc": 15.18, "eps": 5.16, "epx": 2.578, "time": "2018-04-07T19:01:11.000Z", "ept": 0.005, "class": "TPV", "alt": 246.717, "epv": 7.588, "lat": 33.660047302, "speed": 0.306, "epy": 2.151, "mode": 3, "device": "/dev/ttyUSB0", "climb": -0.013, "track": 58.7337, "lon": -84.123517241}], "sky": [{"gdop": 1.79, "satellites": [{"ss": 42, "az": 318, "PRN": 7, "used": true, "el": 42}, {"ss": 42, "az": 153, "PRN": 8, "used": true, "el": 72}, {"ss": 39, "az": 252, "PRN": 9, "used": true, "el": 56}, {"ss": 40, "az": 52, "PRN": 16, "used": true, "el": 22}, {"ss": 42, "az": 190, "PRN": 23, "used": true, "el": 42}, {"ss": 46, "az": 52, "PRN": 27, "used": true, "el": 50}, {"ss": 31, "az": 306, "PRN": 30, "used": true, "el": 18}, {"ss": 33, "az": 171, "PRN": 11, "used": true, "el": 19}, {"ss": 0, "az": 150, "PRN": 18, "used": false, "el": 11}, {"ss": 28, "az": 255, "PRN": 28, "used": true, "el": 10}, {"ss": 30, "az": 217, "PRN": 138, "used": true, "el": 43}], "hdop": 0.8, "time": "2018-04-07T19:01:11.000Z", "tdop": 0.82, "device": "/dev/ttyUSB0", "xdop": 0.69, "vdop": 1.32, "class": "SKY", "pdop": 1.59, "ydop": 0.57}]}
{"active": 1, "time": "2018-03-03T17:20:29.097Z", "gst": [{"lat": 0.0, "orient": 0.0, "rms": 0.0, "alt": 0.0, "device": "/dev/ttyUSB0", "minor": 0.0, "time": "1970-01-01T00:00:00.000Z", "class": "GST", "major": 0.0, "lon": 0.0}], "class": "POLL", "tpv": [{"epc": 15.18, "eps": 5.16, "epx": 2.578, "time": "2018-04-07T19:01:16.000Z", "ept": 0.005, "class": "TPV", "alt": 246.461, "epv": 7.588, "lat": 33.660048837, "speed": 0.0, "epy": 2.151, "mode": 3, "device": "/dev/ttyUSB0", "climb": 0.0, "track": 0.0, "lon": -84.123549414}], "sky": [{"gdop": 1.79, "satellites": [{"ss": 37, "az": 318, "PRN": 7, "used": true, "el": 42}, {"ss": 32, "az": 153, "PRN": 8, "used": true, "el": 72}, {"ss": 39, "az": 252, "PRN": 9, "used": true, "el": 56}, {"ss": 42, "az": 52, "PRN": 16, "used": true, "el": 22}, {"ss": 38, "az": 190, "PRN": 23, "used": true, "el": 42}, {"ss": 48, "az": 52, "PRN": 27, "used": true, "el": 50}, {"ss": 30, "az": 306, "PRN": 30, "used": true, "el": 18}, {"ss": 29, "az": 171, "PRN": 11, "used": true, "el": 19}, {"ss": 0, "az": 150, "PRN": 18, "used": false, "el": 11}, {"ss": 27, "az": 255, "PRN": 28, "used": true, "el": 10}, {"ss": 38, "az": 217, "PRN": 138, "used": true, "el": 43}], "hdop": 0.8, "time": "2018-04-07T19:01:14.000Z", "tdop": 0.82, "device": "/dev/ttyUSB0", "xdop": 0.69, "vdop": 1.32, "class": "SKY", "pdop": 1.59, "ydop": 0.57}]}
{"active": 1, "time": "2018-03-03T17:20:34.128Z", "gst": [{"lat": 0.0, "orient": 0.0, "rms": 0.0, "alt": 0.0, "device": "/dev/ttyUSB0", "minor": 0.0, "time": "1970-01-01T00:00:00.000Z", "class": "GST", "major": 0.0, "lon": 0.0}], "class": "POLL", "tpv": [{"epc": 15.18, "eps": 5.16, "epx": 2.578, "time": "2018-04-07T19:01:21.000Z", "ept": 0.005, "class": "TPV", "alt": 246.066, "epv": 7.588, "lat": 33.660083703, "speed": 1.285, "epy": 2.151, "mode": 3, "device": "/dev/ttyUSB0", "climb": 0.063, "track": 64.2186, "lon": -84.12349248}], "sky": [{"gdop": 1.79, "satellites": [{"ss": 40, "az": 318, "PRN": 7, "used": true, "el": 42}, {"ss": 42, "az": 153, "PRN": 8, "used": true, "el": 72}, {"ss": 45, "az": 252, "PRN": 9, "used": true, "el": 56}, {"ss": 41, "az": 52, "PRN": 16, "used": true, "el": 22}, {"ss": 37, "az": 190, "PRN": 23, "used": true, "el": 42}, {"ss": 47, "az": 52, "PRN": 27, "used": true, "el": 50}, {"ss": 33, "az": 306, "PRN": 30, "used": true, "el": 18}, {"ss": 34, "az": 171, "PRN": 11, "used": true, "el": 19}, {"ss": 20, "az": 150, "PRN": 18, "used": true, "el": 11}, {"ss": 31, "az": 255, "PRN": 28, "used": true, "el": 10}, {"ss": 37, "az": 217, "PRN": 138, "used": true, "el": 43}], "hdop": 0.8, "time": "2018-04-07T19:01:20.000Z", "tdop": 0.82, "device": "/dev/ttyUSB0", "xdop": 0.69, "vdop": 1.32, "class": "SKY", "pdop": 1.59, "ydop": 0.57}]}
{"active": 1, "time": "2018-03-03T17:20:39.161Z", "gst": [{"lat": 0.0, "orient": 0.0, "rms": 0.0, "alt": 0.0, "device": "/dev/ttyUSB0", "minor": 0.0, "time": "1970-01-01T00:00:00.000Z", "class": "GST", "major": 0.0, "lon": 0.0}], "class": "POLL", "tpv": [{"epc": 60.71, "eps": 20.62, "epx": 10.312, "time": "2018-04-07T19:01:26.000Z", "ept": 0.005, "class": "TPV", "alt": 246.474, "epv": 30.353, "lat": 33.660092085, "speed": 1.508, "epy": 8.604, "mode": 3, "device": "/dev/ttyUSB0", "climb": 0.084, "track": 68.8184, "lon": -84.12340558}], "sky": [{"gdop": 1.79, "satellites": [{"ss": 45, "az": 318, "PRN": 7, "used": true, "el": 42}, {"ss": 43, "az": 153, "PRN": 8, "used": true, "el": 72}, {"ss": 44, "az": 250, "PRN": 9, "used": true, "el": 56}, {"ss": 38, "az": 52, "PRN": 16, "used": true, "el": 22}, {"ss": 40, "az": 190, "PRN": 23, "used": true, "el": 41}, {"ss": 47, "az": 52, "PRN": 27, "used": true, "el": 50}, {"ss": 42, "az": 306, "PRN": 30, "used": true, "el": 18}, {"ss": 34, "az": 171, "PRN": 11, "used": true, "el": 20}, {"ss": 34, "az": 150, "PRN": 18, "used": true, "el": 11}, {"ss": 28, "az": 255, "PRN": 28, "used": true, "el": 10}, {"ss": 42, "az": 217, "PRN": 138, "used": true, "el": 43}], "hdop": 0.8, "time": "2018-04-07T19:01:26.000Z", "tdop": 0.82, "device": "/dev/ttyUSB0", "xdop": 0.69, "vdop": 1.32, "class": "SKY", "pdop": 1.59, "ydop": 0.57}]}
{"active": 1, "time": "2018-03-03T17:20:44.192Z", "gst": [{"lat": 0.0, "orient": 0.0, "rms": 0.0, "alt": 0.0, "device": "/dev/ttyUSB0", "minor": 0.0, "time": "1970-01-01T00:00:00.000Z", "class": "GST", "major": 0.0, "lon": 0.0}], "class": "POLL", "tpv": [{"epc": 15.18, "eps": 5.16, "epx": 2.578, "time": "2018-04-07T19:01:31.000Z", "ept": 0.005, "class": "TPV", "alt": 246.73, "epv": 7.588, "lat": 33.66009055, "speed": 0.0, "epy": 2.151, "mode": 3, "device": "/dev/ttyUSB0", "climb": 0.0, "track": 0.0, "lon": -84.123373407}], "sky": [{"gdop": 1.79, "satellites": [{"ss": 45, "az": 318, "PRN": 7, "used": true, "el": 42}, {"ss": 44, "az": 153, "PRN": 8, "used": true, "el": 72}, {"ss": 44, "az": 250, "PRN": 9, "used": true, "el": 56}, {"ss": 38, "az": 52, "PRN": 16, "used": true, "el": 22}, {"ss": 42, "az": 190, "PRN": 23, "used": true, "el": 41}, {"ss": 47, "az": 52, "PRN": 27, "used": true, "el": 50}, {"ss": 40, "az": 306, "PRN": 30, "used": true, "el": 18}, {"ss": 34, "az": 171, "PRN": 11, "used": true, "el": 20}, {"ss": 34, "az": 150, "PRN": 18, "used": true, "el": 11}, {"ss": 25, "az": 255, "PRN": 28, "used": true, "el": 10}, {"ss": 42, "az": 217, "PRN": 138, "used": true, "el": 43}], "hdop": 1.2, "time": "2018-04-07T19:01:29.000Z", "tdop": 0.82, "device": "/dev/ttyUSB0", "xdop": 0.69, "vdop": 1.32, "class": "SKY", "pdop": 1.59, "ydop": 0.57}]}
{"active": 1, "time": "2018-03-03T17:20:49.223Z", "gst": [{"lat": 0.0, "orient": 0.0, "rms": 0.0, "alt": 0.0, "device": "/dev/ttyUSB0", "minor": 0.0, "time": "1970-01-01T00:00:00.000Z", "class": "GST", "major": 0.0, "lon": 0.0}], "class": "POLL", "tpv": [{"epc": 15.18, "eps": 5.16, "epx": 2.578, "time": "2018-04-07T19:01:36.000Z", "ept": 0.005, "class": "TPV", "alt": 246.73, "epv": 7.588, "lat": 33.66009055, "speed": 0.0, "epy": 2.151, "mode": 3, "device": "/dev/ttyUSB0", "climb": 0.0, "track": 0.0, "lon": -84.123373407}], "sky": [{"gdop": 1.79, "satellites": [{"ss": 44, "az": 318, "PRN": 7, "used": true, "el": 42}, {"ss": 46, "az": 153, "PRN": 8, "used": true, "el": 72}, {"ss": 42, "az": 250, "PRN": 9, "used": true, "el": 56}, {"ss": 40, "az": 52, "PRN": 16, "used": true, "el": 22}, {"ss": 44, "az": 190, "PRN": 23, "used": true, "el": 41}, {"ss": 47, "az": 52, "PRN": 27, "used": true, "el": 50}, {"ss": 42, "az": 306, "PRN": 30, "used": true, "el": 18}, {"ss": 34, "az": 171, "PRN": 11, "used": true, "el": 20}, {"ss": 33, "az": 150, "PRN": 18, "used": true, "el": 11}, {"ss": 27, "az": 255, "PRN": 28, "used": true, "el": 10}, {"ss": 44, "az": 217, "PRN": 138, "used": true, "el": 43}], "hdop": 0.8, "time": "2018-04-07T19:01:35.000Z", "tdop": 0.82, "device": "/dev/ttyUSB0", "xdop": 0.69, "vdop": 1.32, "class": "SKY", "pdop": 1.59, "ydop": 0.57}]}
{"active": 1, "time": "2018-03-03T17:20:54.254Z", "gst": [{"lat": 0.0, "orient": 0.0, "rms": 0.0, "alt": 0.0, "device": "/dev/ttyUSB0", "minor": 0.0, "time": "1970-01-01T00:00:00.000Z", "class": "GST", "major": 0.0, "lon": 0.0}], "class": "POLL", "tpv": [{"epc": 15.18, "eps": 5.16, "epx": 2.578, "time": "2018-04-07T19:01:41.000Z", "ept": 0.005, "class": "TPV", "alt": 245.61, "epv": 7.588, "lat": 33.660118935, "speed": 1.542, "epy": 2.151, "mode": 3, "device": "/dev/ttyUSB0", "climb": -0.109, "track": 50.8406, "lon": -84.123337922}], "sky": [{"gdop": 1.79, "satellites": [{"ss": 44, "az": 318, "PRN": 7, "used": true, "el": 42}, {"ss": 46, "az": 153, "PRN": 8, "used": true, "el": 72}, {"ss": 43, "az": 250, "PRN": 9, "used": true, "el": 56}, {"ss": 40, "az": 52, "PRN": 16, "used": true, "el": 22}, {"ss": 45, "az": 190, "PRN": 23, "used": true, "el": 41}, {"ss": 47, "az": 52, "PRN": 27, "used": true, "el": 50}, {"ss": 41, "az": 306, "PRN": 30, "used": true, "el": 18}, {"ss": 40, "az": 171, "PRN": 11, "used": true, "el": 20}, {"ss": 32, "az": 150, "PRN": 18, "used": true, "el": 11}, {"ss": 26, "az": 255, "PRN": 28, "used": true, "el": 10}, {"ss": 40, "az": 217, "PRN": 138, "used": true, "el": 43}], "hdop": 0.8, "time": "2018-04-07T19:01:41.000Z", "tdop": 0.82, "device": "/dev/ttyUSB0", "xdop": 0.69, "vdop": 1.32, "class": "SKY", "pdop": 1.59, "ydop": 0.57}]}
{"active": 1, "time": "2018-03-03T17:20:59.287Z", "gst": [{"lat": 0.0, "orient": 0.0, "rms": 0.0, "alt": 0.0, "device": "/dev/ttyUSB0", "minor": 0.0, "time": "1970-01-01T00:00:00.000Z", "class": "GST", "major": 0.0, "lon": 0.0}], "class": "POLL", "tpv": [{"epc": 15.18, "eps": 5.16, "epx": 2.578, "time": "2018-04-07T19:01:46.000Z", "ept": 0.005, "class": "TPV", "alt": 244.004, "epv": 7.588, "lat": 33.660150245, "speed": 1.397, "epy": 2.151, "mode": 3, "device": "/dev/ttyUSB0", "climb": -0.017, "track": 49.2552, "lon": -84.123258434}], "sky": [{"gdop": 1.79, "satellites": [{"ss": 43, "az": 318, "PRN": 7, "used": true, "el": 42}, {"ss": 46, "az": 153, "PRN": 8, "used": true, "el": 72}, {"ss": 44, "az": 250, "PRN": 9, "used": true, "el": 56}, {"ss": 39, "az": 52, "PRN": 16, "used": true, "el": 22}, {"ss": 44, "az": 190, "PRN": 23, "used": true, "el": 41}, {"ss": 48, "az": 52, "PRN": 27, "used": true, "el": 50}, {"ss": 41, "az": 306, "PRN": 30, "used": true, "el": 18}, {"ss": 41, "az": 171, "PRN": 11, "used": true, "el": 20}, {"ss": 30, "az": 150, "PRN": 18, "used": true, "el": 11}, {"ss": 26, "az": 255, "PRN": 28, "used": true, "el": 10}, {"ss": 42, "az": 217, "PRN": 138, "used": true, "el": 43}], "hdop": 0.8, "time": "2018-04-07T19:01:44.000Z", "tdop": 0.82, "device": "/dev/ttyUSB0", "xdop": 0.69, "vdop": 1.32, "class": "SKY", "pdop": 1.59, "ydop": 0.57}]}
{"active": 1, "time": "2018-03-03T17:21:04.320Z", "gst": [{"lat": 0.0, "orient": 0.0, "rms": 0.0, "alt": 0.0, "device": "/dev/ttyUSB0", "minor": 0.0, "time": "1970-01-01T00:00:00.000Z", "class": "GST", "major": 0.0, "lon": 0.0}], "class": "POLL", "tpv": [{"epc": 15.18, "eps": 5.16, "epx": 2.578, "time": "2018-04-07T19:01:52.000Z", "ept": 0.005, "class": "TPV", "alt": 244.827, "epv": 7.588, "lat": 33.66022112, "speed": 1.545, "epy": 2.151, "mode": 3, "device": "/dev/ttyUSB0", "climb": 0.066, "track": 32.1868, "lon": -84.123221845}], "sky": [{"gdop": 1.79, "satellites": [{"ss": 43, "az": 318, "PRN": 7, "used": true, "el": 42}, {"ss": 46, "az": 153, "PRN": 8, "used": true, "el": 72}, {"ss": 43, "az": 250, "PRN": 9, "used": true, "el": 56}, {"ss": 39, "az": 52, "PRN": 16, "used": true, "el": 22}, {"ss": 44, "az": 190, "PRN": 23, "used": true, "el": 41}, {"ss": 47, "az": 52, "PRN": 27, "used": true, "el": 50}, {"ss": 40, "az": 306, "PRN": 30, "used": true, "el": 18}, {"ss": 39, "az": 171, "PRN": 11, "used": true, "el": 20}, {"ss": 39, "az": 150, "PRN": 18, "used": true, "el": 11}, {"ss": 32, "az": 255, "PRN": 28, "used": true, "el": 10}, {"ss": 44, "az": 217, "PRN": 138, "used": true, "el": 43}], "hdop": 0.8, "time": "2018-04-07T19:01:50.000Z", "tdop": 0.82, "device": "/dev/ttyUSB0", "xdop": 0.69, "vdop": 1.32, "class": "SKY", "pdop": 1.59, "ydop": 0.57}]}
{"active": 1, "time": "2018-03-03T17:21:09.350Z", "gst": [{"lat": 0.0, "orient": 0.0, "rms": 0.0, "alt": 0.0, "device": "/dev/ttyUSB0", "minor": 0.0, "time": "1970-01-01T00:00:00.000Z", "class": "GST", "major": 0.0, "lon": 0.0}], "class": "POLL", "tpv": [{"epc": 15.18, "eps": 5.16, "epx": 2.578, "time": "2018-04-07T19:01:57.000Z", "ept": 0.005, "class": "TPV", "alt": 245.79, "epv": 7.588, "lat": 33.660237006, "speed": 1.474, "epy": 2.151, "mode": 3, "device": "/dev/ttyUSB0", "climb": 0.015, "track": 72.5932, "lon": -84.123134945}], "sky": [{"gdop": 1.79, "satellites": [{"ss": 44, "az": 318, "PRN": 7, "used": true, "el": 42}, {"ss": 44, "az": 153, "PRN": 8, "used": true, "el": 72}, {"ss": 44, "az": 250, "PRN": 9, "used": true, "el": 56}, {"ss": 37, "az": 52, "PRN": 16, "used": true, "el": 22}, {"ss": 44, "az": 190, "PRN": 23, "used": true, "el": 41}, {"ss": 47, "az": 52, "PRN": 27, "used": true, "el": 50}, {"ss": 41, "az": 306, "PRN": 30, "used": true, "el": 18}, {"ss": 32, "az": 171, "PRN": 11, "used": true, "el": 20}, {"ss": 40, "az": 150, "PRN": 18, "used": true, "el": 11}, {"ss": 32, "az": 255, "PRN": 28, "used": true, "el": 10}, {"ss": 43, "az": 217, "PRN": 138, "used": true, "el": 43}], "hdop": 0.8, "time": "2018-04-07T19:01:56.000Z", "tdop": 0.82, "device": "/dev/ttyUSB0", "xdop": 0.69, "vdop": 1.32, "class": "SKY", "pdop": 1.59, "ydop": 0.57}]}
{"active": 1, "time": "2018-03-03T17:21:14.381Z", "gst": [{"lat": 0.0, "orient": 0.0, "rms": 0.0, "alt": 0.0, "device": "/dev/ttyUSB0", "minor": 0.0, "time": "1970-01-01T00:00:00.000Z", "class": "GST", "major": 0.0, "lon": 0.0}], "class": "POLL", "tpv": [{"epc": 15.18, "eps": 5.16, "epx": 2.578, "time": "2018-04-07T19:02:01.000Z", "ept": 0.005, "class": "TPV", "alt": 247.324, "epv": 7.588, "lat": 33.660249456, "speed": 1.244, "epy": 2.151, "mode": 3, "device": "/dev/ttyUSB0", "climb": 0.176, "track": 88.4751, "lon": -84.123081323}], "sky": [{"gdop": 1.79, "satellites": [{"ss": 44, "az": 318, "PRN": 7, "used": true, "el": 42}, {"ss": 44, "az": 153, "PRN": 8, "used": true, "el": 72}, {"ss": 44, "az": 250, "PRN": 9, "used": true, "el": 56}, {"ss": 37, "az": 52, "PRN": 16, "used": true, "el": 22}, {"ss": 45, "az": 190, "PRN": 23, "used": true, "el": 41}, {"ss": 47, "az": 52, "PRN": 27, "used": true, "el": 50}, {"ss": 41, "az": 306, "PRN": 30, "used": true, "el": 18}, {"ss": 34, "az": 171, "PRN": 11, "used": true, "el": 20}, {"ss": 32, "az": 150, "PRN": 18, "used": true, "el": 11}, {"ss": 36, "az": 255, "PRN": 28, "used": true, "el": 10}, {"ss": 43, "az": 217, "PRN": 138, "used": true, "el": 43}], "hdop": 0.8, "time": "2018-04-07T19:01:59.000Z", "tdop": 0.82, "device": "/dev/ttyUSB0", "xdop": 0.69, "vdop": 1.32, "class": "SKY", "pdop": 1.59, "ydop": 0.57}]}
{"active": 1, "time": "2018-03-03T17:21:19.410Z", "gst": [{"lat": 0.0, "orient": 0.0, "rms": 0.0, "alt": 0.0, "device": "/dev/ttyUSB0", "minor": 0.0, "time": "1970-01-01T00:00:00.000Z", "class": "GST", "major": 0.0, "lon": 0.0}], "class": "POLL", "tpv": [{"epc": 15.18, "eps": 5.16, "epx": 2.578, "time": "2018-04-07T19:02:07.000Z", "ept": 0.005, "class": "TPV", "alt": 246.24, "epv": 7.588, "lat": 33.660234302, "speed": 1.526, "epy": 2.151, "mode": 3, "device": "/dev/ttyUSB0", "climb": -0.01, "track": 84.1034, "lon": -84.122972973}], "sky": [{"gdop": 1.79, "satellites": [{"ss": 45, "az": 318, "PRN": 7, "used": true, "el": 42}, {"ss": 44, "az": 153, "PRN": 8, "used": true, "el": 72}, {"ss": 44, "az": 250, "PRN": 9, "used": true, "el": 56}, {"ss": 39, "az": 52, "PRN": 16, "used": true, "el": 22}, {"ss": 43, "az": 190, "PRN": 23, "used": true, "el": 41}, {"ss": 46, "az": 52, "PRN": 27, "used": true, "el": 50}, {"ss": 42, "az": 306, "PRN": 30, "used": true, "el": 18}, {"ss": 43, "az": 171, "PRN": 11, "used": true, "el": 20}, {"ss": 34, "az": 150, "PRN": 18, "used": true, "el": 11}, {"ss": 33, "az": 255, "PRN": 28, "used": true, "el": 10}, {"ss": 42, "az": 217, "PRN": 138, "used": true, "el": 43}], "hdop": 0.8, "time": "2018-04-07T19:02:05.000Z", "tdop": 0.82, "device": "/dev/ttyUSB0", "xdop": 0.69, "vdop": 1.32, "class": "SKY", "pdop": 1.59, "ydop": 0.57}]}
