{"class": "POLL", "time": "2018-04-08T22:19:07.594Z", "gst": [{"rms": 0.0, "alt": 0.0, "class": "GST", "lon": 0.0, "minor": 0.0, "time": "1970-01-01T00:00:00.000Z", "lat": 0.0, "major": 0.0, "device": "/dev/ttyUSB0", "orient": 0.0}], "active": 1, "tpv": [{"ept": 0.005, "track": 199.7884, "epv": 55.2, "mode": 3, "eps": 9.72, "epy": 9.285, "epc": 57.8, "device": "/dev/ttyUSB0", "alt": 200.241, "class": "TPV", "lon": -84.91440464, "time": "2018-04-13T12:58:35.910Z", "lat": 32.068648748, "climb": 0.383, "speed": 0.098, "epx": 8.34}], "sky": [{"class": "SKY", "pdop": 2.7, "tdop": 0.81, "vdop": 2.4, "time": "2018-04-13T12:58:34.000Z", "gdop": 1.74, "hdop": 1.2, "xdop": 0.56, "satellites": [{"used": false, "ss": 0, "el": 9, "az": 318, "PRN": 3}, {"used": true, "ss": 45, "el": 40, "az": 148, "PRN": 10}, {"used": true, "ss": 45, "el": 60, "az": 357, "PRN": 14}, {"used": true, "ss": 36, "el": 23, "az": 264, "PRN": 18}, {"used": true, "ss": 40, "el": 36, "az": 63, "PRN": 25}, {"used": true, "ss": 45, "el": 27, "az": 175, "PRN": 26}, {"used": true, "ss": 49, "el": 76, "az": 292, "PRN": 31}, {"used": true, "ss": 36, "el": 54, "az": 52, "PRN": 32}, {"used": true, "ss": 26, "el": 19, "az": 291, "PRN": 1}, {"used": true, "ss": 31, "el": 7, "az": 36, "PRN": 12}, {"used": true, "ss": 35, "el": 31, "az": 312, "PRN": 22}, {"used": true, "ss": 43, "el": 45, "az": 217, "PRN": 138}], "device": "/dev/ttyUSB0", "ydop": 0.62}]}
{"class": "POLL", "time": "2018-04-08T22:19:12.726Z", "gst": [{"rms": 0.0, "alt": 0.0, "class": "GST", "lon": 0.0, "minor": 0.0, "time": "1970-01-01T00:00:00.000Z", "lat": 0.0, "major": 0.0, "device": "/dev/ttyUSB0", "orient": 0.0}], "active": 1, "tpv": [{"ept": 0.005, "track": 0.0, "epv": 55.2, "mode": 3, "eps": 18.57, "epy": 9.285, "epc": 110.4, "device": "/dev/ttyUSB0", "alt": 195.728, "class": "TPV", "lon": -84.914411433, "time": "2018-04-13T12:58:41.000Z", "lat": 32.068652965, "climb": 0.0, "speed": 0.0, "epx": 8.34}], "sky": [{"class": "SKY", "pdop": 2.7, "tdop": 0.81, "vdop": 2.4, "time": "2018-04-13T12:58:40.000Z", "gdop": 1.74, "hdop": 1.2, "xdop": 0.56, "satellites": [{"used": true, "ss": 46, "el": 40, "az": 148, "PRN": 10}, {"used": true, "ss": 46, "el": 60, "az": 357, "PRN": 14}, {"used": true, "ss": 34, "el": 23, "az": 264, "PRN": 18}, {"used": true, "ss": 37, "el": 31, "az": 312, "PRN": 22}, {"used": true, "ss": 40, "el": 36, "az": 63, "PRN": 25}, {"used": true, "ss": 45, "el": 27, "az": 175, "PRN": 26}, {"used": true, "ss": 49, "el": 76, "az": 292, "PRN": 31}, {"used": true, "ss": 34, "el": 53, "az": 52, "PRN": 32}, {"used": true, "ss": 32, "el": 7, "az": 34, "PRN": 12}, {"used": false, "ss": 0, "el": 19, "az": 289, "PRN": 1}, {"used": false, "ss": 0, "el": 9, "az": 318, "PRN": 3}, {"used": true, "ss": 37, "el": 45, "az": 217, "PRN": 138}], "device": "/dev/ttyUSB0", "ydop": 0.62}]}
{"class": "POLL", "time": "2018-04-08T22:19:17.759Z", "gst": [{"rms": 0.0, "alt": 0.0, "class": "GST", "lon": 0.0, "minor": 0.0, "time": "1970-01-01T00:00:00.000Z", "lat": 0.0, "major": 0.0, "device": "/dev/ttyUSB0", "orient": 0.0}], "active": 1, "tpv": [{"ept": 0.005, "track": 0.0, "epv": 55.2, "mode": 3, "eps": 18.57, "epy": 9.285, "epc": 110.4, "device": "/dev/ttyUSB0", "alt": 193.509, "class": "TPV", "lon": -84.914409556, "time": "2018-04-13T12:58:45.000Z", "lat": 32.068654862, "climb": 0.0, "speed": 0.0, "epx": 8.34}], "sky": [{"class": "SKY", "pdop": 2.7, "tdop": 0.81, "vdop": 2.4, "time": "2018-04-13T12:58:43.000Z", "gdop": 1.74, "hdop": 1.2, "xdop": 0.56, "satellites": [{"used": true, "ss": 46, "el": 40, "az": 148, "PRN": 10}, {"used": true, "ss": 46, "el": 60, "az": 357, "PRN": 14}, {"used": true, "ss": 34, "el": 23, "az": 264, "PRN": 18}, {"used": true, "ss": 37, "el": 31, "az": 312, "PRN": 22}, {"used": true, "ss": 39, "el": 36, "az": 63, "PRN": 25}, {"used": true, "ss": 44, "el": 27, "az": 175, "PRN": 26}, {"used": true, "ss": 49, "el": 76, "az": 292, "PRN": 31}, {"used": true, "ss": 35, "el": 53, "az": 52, "PRN": 32}, {"used": true, "ss": 32, "el": 7, "az": 34, "PRN": 12}, {"used": true, "ss": 31, "el": 19, "az": 289, "PRN": 1}, {"used": false, "ss": 0, "el": 10, "az": 318, "PRN": 3}, {"used": true, "ss": 43, "el": 45, "az": 217, "PRN": 138}], "device": "/dev/ttyUSB0", "ydop": 0.62}]}
{"class": "POLL", "time": "2018-04-08T22:19:22.789Z", "gst": [{"rms": 0.0, "alt": 0.0, "class": "GST", "lon": 0.0, "minor": 0.0, "time": "1970-01-01T00:00:00.000Z", "lat": 0.0, "major": 0.0, "device": "/dev/ttyUSB0", "orient": 0.0}], "active": 1, "tpv": [{"ept": 0.005, "track": 0.0, "epv": 55.2, "mode": 3, "eps": 18.57, "epy": 9.285, "epc": 110.4, "device": "/dev/ttyUSB0", "alt": 190.976, "class": "TPV", "lon": -84.91440674, "time": "2018-04-13T12:58:51.000Z", "lat": 32.068669169, "climb": 0.0, "speed": 0.0, "epx": 8.34}], "sky": [{"class": "SKY", "pdop": 2.7, "tdop": 0.81, "vdop": 2.4, "time": "2018-04-13T12:58:49.000Z", "gdop": 1.74, "hdop": 1.2, "xdop": 0.56, "satellites": [{"used": true, "ss": 45, "el": 40, "az": 148, "PRN": 10}, {"used": true, "ss": 46, "el": 60, "az": 357, "PRN": 14}, {"used": true, "ss": 33, "el": 23, "az": 264, "PRN": 18}, {"used": true, "ss": 37, "el": 31, "az": 312, "PRN": 22}, {"used": true, "ss": 40, "el": 36, "az": 63, "PRN": 25}, {"used": true, "ss": 45, "el": 27, "az": 175, "PRN": 26}, {"used": true, "ss": 49, "el": 76, "az": 292, "PRN": 31}, {"used": true, "ss": 36, "el": 53, "az": 52, "PRN": 32}, {"used": true, "ss": 32, "el": 7, "az": 34, "PRN": 12}, {"used": true, "ss": 33, "el": 19, "az": 289, "PRN": 1}, {"used": false, "ss": 0, "el": 10, "az": 318, "PRN": 3}, {"used": true, "ss": 36, "el": 45, "az": 217, "PRN": 138}], "device": "/dev/ttyUSB0", "ydop": 0.62}]}
{"class": "POLL", "time": "2018-04-08T22:19:27.823Z", "gst": [{"rms": 0.0, "alt": 0.0, "class": "GST", "lon": 0.0, "minor": 0.0, "time": "1970-01-01T00:00:00.000Z", "lat": 0.0, "major": 0.0, "device": "/dev/ttyUSB0", "orient": 0.0}], "active": 1, "tpv": [{"ept": 0.005, "track": 0.0, "epv": 55.2, "mode": 3, "eps": 18.57, "epy": 9.285, "epc": 110.4, "device": "/dev/ttyUSB0", "alt": 189.601, "class": "TPV", "lon": -84.914405801, "time": "2018-04-13T12:58:56.000Z", "lat": 32.068666296, "climb": 0.0, "speed": 0.0, "epx": 8.34}], "sky": [{"class": "SKY", "pdop": 2.7, "tdop": 0.81, "vdop": 2.4, "time": "2018-04-13T12:58:55.000Z", "gdop": 1.74, "hdop": 1.2, "xdop": 0.56, "satellites": [{"used": true, "ss": 46, "el": 40, "az": 148, "PRN": 10}, {"used": true, "ss": 45, "el": 60, "az": 357, "PRN": 14}, {"used": true, "ss": 33, "el": 23, "az": 264, "PRN": 18}, {"used": true, "ss": 38, "el": 31, "az": 312, "PRN": 22}, {"used": true, "ss": 42, "el": 36, "az": 63, "PRN": 25}, {"used": true, "ss": 45, "el": 27, "az": 175, "PRN": 26}, {"used": true, "ss": 49, "el": 76, "az": 292, "PRN": 31}, {"used": true, "ss": 33, "el": 53, "az": 52, "PRN": 32}, {"used": true, "ss": 32, "el": 7, "az": 34, "PRN": 12}, {"used": true, "ss": 33, "el": 19, "az": 289, "PRN": 1}, {"used": false, "ss": 0, "el": 10, "az": 318, "PRN": 3}, {"used": true, "ss": 36, "el": 45, "az": 217, "PRN": 138}], "device": "/dev/ttyUSB0", "ydop": 0.62}]}
{"class": "POLL", "time": "2018-04-08T22:19:32.855Z", "gst": [{"rms": 0.0, "alt": 0.0, "class": "GST", "lon": 0.0, "minor": 0.0, "time": "1970-01-01T00:00:00.000Z", "lat": 0.0, "major": 0.0, "device": "/dev/ttyUSB0", "orient": 0.0}], "active": 1, "tpv": [{"ept": 0.005, "track": 0.0, "epv": 55.2, "mode": 3, "eps": 18.57, "epy": 9.285, "epc": 110.4, "device": "/dev/ttyUSB0", "alt": 188.832, "class": "TPV", "lon": -84.914394313, "time": "2018-04-13T12:59:00.000Z", "lat": 32.068670641, "climb": 0.0, "speed": 0.0, "epx": 8.34}], "sky": [{"class": "SKY", "pdop": 2.7, "tdop": 0.81, "vdop": 2.4, "time": "2018-04-13T12:58:58.000Z", "gdop": 1.74, "hdop": 1.2, "xdop": 0.56, "satellites": [{"used": true, "ss": 45, "el": 40, "az": 148, "PRN": 10}, {"used": true, "ss": 45, "el": 60, "az": 357, "PRN": 14}, {"used": true, "ss": 33, "el": 23, "az": 264, "PRN": 18}, {"used": true, "ss": 38, "el": 31, "az": 312, "PRN": 22}, {"used": true, "ss": 42, "el": 36, "az": 63, "PRN": 25}, {"used": true, "ss": 44, "el": 27, "az": 175, "PRN": 26}, {"used": true, "ss": 49, "el": 76, "az": 292, "PRN": 31}, {"used": true, "ss": 33, "el": 53, "az": 52, "PRN": 32}, {"used": true, "ss": 31, "el": 7, "az": 34, "PRN": 12}, {"used": true, "ss": 32, "el": 19, "az": 289, "PRN": 1}, {"used": false, "ss": 0, "el": 10, "az": 318, "PRN": 3}, {"used": true, "ss": 36, "el": 45, "az": 217, "PRN": 138}], "device": "/dev/ttyUSB0", "ydop": 0.62}]}
{"class": "POLL", "time": "2018-04-08T22:19:37.887Z", "gst": [{"rms": 0.0, "alt": 0.0, "class": "GST", "lon": 0.0, "minor": 0.0, "time": "1970-01-01T00:00:00.000Z", "lat": 0.0, "major": 0.0, "device": "/dev/ttyUSB0", "orient": 0.0}], "active": 1, "tpv": [{"ept": 0.005, "track": 0.0, "epv": 55.2, "mode": 3, "eps": 18.57, "epy": 9.285, "epc": 110.4, "device": "/dev/ttyUSB0", "alt": 191.051, "class": "TPV", "lon": -84.914396191, "time": "2018-04-13T12:59:03.000Z", "lat": 32.068668744, "climb": 0.0, "speed": 0.0, "epx": 8.34}], "sky": [{"class": "SKY", "pdop": 2.7, "tdop": 0.81, "vdop": 2.4, "time": "2018-04-13T12:59:01.000Z", "gdop": 1.74, "hdop": 0.8, "xdop": 0.56, "satellites": [{"used": true, "ss": 45, "el": 39, "az": 148, "PRN": 10}, {"used": true, "ss": 45, "el": 60, "az": 357, "PRN": 14}, {"used": true, "ss": 33, "el": 23, "az": 262, "PRN": 18}, {"used": true, "ss": 37, "el": 31, "az": 312, "PRN": 22}, {"used": true, "ss": 43, "el": 36, "az": 63, "PRN": 25}, {"used": true, "ss": 44, "el": 27, "az": 175, "PRN": 26}, {"used": true, "ss": 49, "el": 76, "az": 294, "PRN": 31}, {"used": true, "ss": 34, "el": 53, "az": 52, "PRN": 32}, {"used": true, "ss": 30, "el": 6, "az": 34, "PRN": 12}, {"used": true, "ss": 32, "el": 19, "az": 289, "PRN": 1}, {"used": false, "ss": 0, "el": 10, "az": 318, "PRN": 3}, {"used": true, "ss": 36, "el": 45, "az": 217, "PRN": 138}], "device": "/dev/ttyUSB0", "ydop": 0.62}]}
{"class": "POLL", "time": "2018-04-08T22:19:42.917Z", "gst": [{"rms": 0.0, "alt": 0.0, "class": "GST", "lon": 0.0, "minor": 0.0, "time": "1970-01-01T00:00:00.000Z", "lat": 0.0, "major": 0.0, "device": "/dev/ttyUSB0", "orient": 0.0}], "active": 1, "tpv": [{"ept": 0.005, "track": 0.0, "epv": 55.2, "mode": 3, "eps": 18.57, "epy": 9.285, "epc": 110.4, "device": "/dev/ttyUSB0", "alt": 193.584, "class": "TPV", "lon": -84.914399007, "time": "2018-04-13T12:59:10.000Z", "lat": 32.068654437, "climb": 0.0, "speed": 0.0, "epx": 8.34}], "sky": [{"class": "SKY", "pdop": 2.7, "tdop": 0.81, "vdop": 2.4, "time": "2018-04-13T12:59:10.000Z", "gdop": 1.74, "hdop": 0.8, "xdop": 0.56, "satellites": [{"used": true, "ss": 46, "el": 39, "az": 148, "PRN": 10}, {"used": true, "ss": 45, "el": 60, "az": 358, "PRN": 14}, {"used": true, "ss": 34, "el": 23, "az": 262, "PRN": 18}, {"used": true, "ss": 38, "el": 31, "az": 312, "PRN": 22}, {"used": true, "ss": 43, "el": 36, "az": 63, "PRN": 25}, {"used": true, "ss": 44, "el": 27, "az": 175, "PRN": 26}, {"used": true, "ss": 49, "el": 76, "az": 294, "PRN": 31}, {"used": true, "ss": 34, "el": 53, "az": 52, "PRN": 32}, {"used": true, "ss": 28, "el": 6, "az": 34, "PRN": 12}, {"used": true, "ss": 24, "el": 19, "az": 289, "PRN": 1}, {"used": false, "ss": 0, "el": 10, "az": 318, "PRN": 3}, {"used": true, "ss": 40, "el": 45, "az": 217, "PRN": 138}], "device": "/dev/ttyUSB0", "ydop": 0.62}]}
{"class": "POLL", "time": "2018-04-08T22:19:47.949Z", "gst": [{"rms": 0.0, "alt": 0.0, "class": "GST", "lon": 0.0, "minor": 0.0, "time": "1970-01-01T00:00:00.000Z", "lat": 0.0, "major": 0.0, "device": "/dev/ttyUSB0", "orient": 0.0}], "active": 1, "tpv": [{"ept": 0.005, "track": 0.0, "epv": 55.2, "mode": 3, "eps": 18.57, "epy": 9.285, "epc": 110.4, "device": "/dev/ttyUSB0", "alt": 194.428, "class": "TPV", "lon": -84.914399946, "time": "2018-04-13T12:59:15.000Z", "lat": 32.068649668, "climb": 0.0, "speed": 0.0, "epx": 8.34}], "sky": [{"class": "SKY", "pdop": 2.7, "tdop": 0.81, "vdop": 2.4, "time": "2018-04-13T12:59:13.000Z", "gdop": 1.74, "hdop": 0.8, "xdop": 0.56, "satellites": [{"used": true, "ss": 45, "el": 39, "az": 148, "PRN": 10}, {"used": true, "ss": 45, "el": 60, "az": 358, "PRN": 14}, {"used": true, "ss": 33, "el": 23, "az": 262, "PRN": 18}, {"used": true, "ss": 37, "el": 31, "az": 312, "PRN": 22}, {"used": true, "ss": 43, "el": 36, "az": 63, "PRN": 25}, {"used": true, "ss": 44, "el": 27, "az": 175, "PRN": 26}, {"used": true, "ss": 48, "el": 76, "az": 294, "PRN": 31}, {"used": true, "ss": 35, "el": 53, "az": 52, "PRN": 32}, {"used": true, "ss": 28, "el": 6, "az": 34, "PRN": 12}, {"used": true, "ss": 23, "el": 19, "az": 289, "PRN": 1}, {"used": false, "ss": 0, "el": 10, "az": 318, "PRN": 3}, {"used": true, "ss": 35, "el": 45, "az": 217, "PRN": 138}], "device": "/dev/ttyUSB0", "ydop": 0.62}]}
{"class": "POLL", "time": "2018-04-08T22:19:52.979Z", "gst": [{"rms": 0.0, "alt": 0.0, "class": "GST", "lon": 0.0, "minor": 0.0, "time": "1970-01-01T00:00:00.000Z", "lat": 0.0, "major": 0.0, "device": "/dev/ttyUSB0", "orient": 0.0}], "active": 1, "tpv": [{"ept": 0.005, "track": 0.0, "epv": 55.2, "mode": 3, "eps": 18.57, "epy": 9.285, "epc": 110.4, "device": "/dev/ttyUSB0", "alt": 195.878, "class": "TPV", "lon": -84.914390336, "time": "2018-04-13T12:59:21.000Z", "lat": 32.068652116, "climb": 0.0, "speed": 0.0, "epx": 8.34}], "sky": [{"class": "SKY", "pdop": 2.7, "tdop": 0.81, "vdop": 2.4, "time": "2018-04-13T12:59:19.000Z", "gdop": 1.74, "hdop": 0.8, "xdop": 0.56, "satellites": [{"used": true, "ss": 45, "el": 39, "az": 148, "PRN": 10}, {"used": true, "ss": 44, "el": 60, "az": 358, "PRN": 14}, {"used": true, "ss": 38, "el": 23, "az": 262, "PRN": 18}, {"used": true, "ss": 36, "el": 31, "az": 312, "PRN": 22}, {"used": true, "ss": 42, "el": 36, "az": 63, "PRN": 25}, {"used": true, "ss": 45, "el": 27, "az": 175, "PRN": 26}, {"used": true, "ss": 49, "el": 76, "az": 294, "PRN": 31}, {"used": true, "ss": 37, "el": 53, "az": 52, "PRN": 32}, {"used": true, "ss": 35, "el": 6, "az": 34, "PRN": 12}, {"used": true, "ss": 28, "el": 19, "az": 289, "PRN": 1}, {"used": false, "ss": 0, "el": 10, "az": 318, "PRN": 3}, {"used": true, "ss": 40, "el": 45, "az": 217, "PRN": 138}], "device": "/dev/ttyUSB0", "ydop": 0.62}]}
{"class": "POLL", "time": "2018-04-08T22:19:58.005Z", "gst": [{"rms": 0.0, "alt": 0.0, "class": "GST", "lon": 0.0, "minor": 0.0, "time": "1970-01-01T00:00:00.000Z", "lat": 0.0, "major": 0.0, "device": "/dev/ttyUSB0", "orient": 0.0}], "active": 1, "tpv": [{"ept": 0.005, "track": 0.0, "epv": 55.2, "mode": 3, "eps": 18.57, "epy": 9.285, "epc": 110.4, "device": "/dev/ttyUSB0", "alt": 196.722, "class": "TPV", "lon": -84.914391275, "time": "2018-04-13T12:59:25.000Z", "lat": 32.068647347, "climb": 0.0, "speed": 0.0, "epx": 8.34}], "sky": [{"class": "SKY", "pdop": 2.7, "tdop": 0.81, "vdop": 2.4, "time": "2018-04-13T12:59:25.000Z", "gdop": 1.74, "hdop": 0.8, "xdop": 0.56, "satellites": [{"used": true, "ss": 46, "el": 39, "az": 148, "PRN": 10}, {"used": true, "ss": 44, "el": 60, "az": 358, "PRN": 14}, {"used": true, "ss": 31, "el": 23, "az": 262, "PRN": 18}, {"used": true, "ss": 35, "el": 31, "az": 312, "PRN": 22}, {"used": true, "ss": 42, "el": 36, "az": 63, "PRN": 25}, {"used": true, "ss": 44, "el": 27, "az": 175, "PRN": 26}, {"used": true, "ss": 50, "el": 76, "az": 294, "PRN": 31}, {"used": true, "ss": 38, "el": 53, "az": 52, "PRN": 32}, {"used": true, "ss": 34, "el": 6, "az": 34, "PRN": 12}, {"used": true, "ss": 23, "el": 19, "az": 289, "PRN": 1}, {"used": false, "ss": 0, "el": 10, "az": 318, "PRN": 3}, {"used": true, "ss": 36, "el": 45, "az": 217, "PRN": 138}], "device": "/dev/ttyUSB0", "ydop": 0.62}]}
{"class": "POLL", "time": "2018-04-08T22:20:03.037Z", "gst": [{"rms": 0.0, "alt": 0.0, "class": "GST", "lon": 0.0, "minor": 0.0, "time": "1970-01-01T00:00:00.000Z", "lat": 0.0, "major": 0.0, "device": "/dev/ttyUSB0", "orient": 0.0}], "active": 1, "tpv": [{"ept": 0.005, "track": 0.0, "epv": 13.8, "mode": 3, "eps": 11.61, "epy": 2.321, "epc": 69.0, "device": "/dev/ttyUSB0", "alt": 197.566, "class": "TPV", "lon": -84.914392214, "time": "2018-04-13T12:59:30.000Z", "lat": 32.068642578, "climb": 0.0, "speed": 0.0, "epx": 2.085}], "sky": [{"class": "SKY", "pdop": 2.7, "tdop": 0.81, "vdop": 2.4, "time": "2018-04-13T12:59:28.000Z", "gdop": 1.74, "hdop": 0.8, "xdop": 0.56, "satellites": [{"used": true, "ss": 46, "el": 39, "az": 148, "PRN": 10}, {"used": true, "ss": 44, "el": 60, "az": 358, "PRN": 14}, {"used": true, "ss": 32, "el": 23, "az": 262, "PRN": 18}, {"used": true, "ss": 35, "el": 31, "az": 312, "PRN": 22}, {"used": true, "ss": 43, "el": 36, "az": 63, "PRN": 25}, {"used": true, "ss": 44, "el": 27, "az": 175, "PRN": 26}, {"used": true, "ss": 50, "el": 76, "az": 294, "PRN": 31}, {"used": true, "ss": 38, "el": 53, "az": 52, "PRN": 32}, {"used": true, "ss": 35, "el": 6, "az": 34, "PRN": 12}, {"used": true, "ss": 25, "el": 19, "az": 289, "PRN": 1}, {"used": false, "ss": 0, "el": 10, "az": 318, "PRN": 3}, {"used": true, "ss": 38, "el": 45, "az": 217, "PRN": 138}], "device": "/dev/ttyUSB0", "ydop": 0.62}]}
{"class": "POLL", "time": "2018-04-08T22:20:08.067Z", "gst": [{"rms": 0.0, "alt": 0.0, "class": "GST", "lon": 0.0, "minor": 0.0, "time": "1970-01-01T00:00:00.000Z", "lat": 0.0, "major": 0.0, "device": "/dev/ttyUSB0", "orient": 0.0}], "active": 1, "tpv": [{"ept": 0.005, "track": 0.0, "epv": 13.8, "mode": 3, "eps": 4.64, "epy": 2.321, "epc": 27.6, "device": "/dev/ttyUSB0", "alt": 198.41, "class": "TPV", "lon": -84.914393152, "time": "2018-04-13T12:59:36.000Z", "lat": 32.068637809, "climb": 0.0, "speed": 0.0, "epx": 2.085}], "sky": [{"class": "SKY", "pdop": 2.7, "tdop": 0.81, "vdop": 2.4, "time": "2018-04-13T12:59:34.000Z", "gdop": 1.74, "hdop": 0.8, "xdop": 0.56, "satellites": [{"used": true, "ss": 46, "el": 39, "az": 148, "PRN": 10}, {"used": true, "ss": 44, "el": 60, "az": 358, "PRN": 14}, {"used": true, "ss": 33, "el": 23, "az": 262, "PRN": 18}, {"used": true, "ss": 36, "el": 31, "az": 312, "PRN": 22}, {"used": true, "ss": 44, "el": 36, "az": 63, "PRN": 25}, {"used": true, "ss": 44, "el": 27, "az": 175, "PRN": 26}, {"used": true, "ss": 50, "el": 76, "az": 294, "PRN": 31}, {"used": true, "ss": 38, "el": 53, "az": 52, "PRN": 32}, {"used": true, "ss": 36, "el": 6, "az": 34, "PRN": 12}, {"used": true, "ss": 25, "el": 19, "az": 289, "PRN": 1}, {"used": false, "ss": 0, "el": 10, "az": 318, "PRN": 3}, {"used": true, "ss": 35, "el": 45, "az": 217, "PRN": 138}], "device": "/dev/ttyUSB0", "ydop": 0.62}]}
{"class": "POLL", "time": "2018-04-08T22:20:13.093Z", "gst": [{"rms": 0.0, "alt": 0.0, "class": "GST", "lon": 0.0, "minor": 0.0, "time": "1970-01-01T00:00:00.000Z", "lat": 0.0, "major": 0.0, "device": "/dev/ttyUSB0", "orient": 0.0}], "active": 1, "tpv": [{"ept": 0.005, "track": 0.0, "epv": 13.8, "mode": 3, "eps": 4.64, "epy": 2.321, "epc": 27.6, "device": "/dev/ttyUSB0", "alt": 198.41, "class": "TPV", "lon": -84.914393152, "time": "2018-04-13T12:59:41.000Z", "lat": 32.068637809, "climb": 0.0, "speed": 0.0, "epx": 2.085}], "sky": [{"class": "SKY", "pdop": 2.7, "tdop": 0.81, "vdop": 2.4, "time": "2018-04-13T12:59:40.000Z", "gdop": 1.74, "hdop": 0.8, "xdop": 0.56, "satellites": [{"used": true, "ss": 46, "el": 39, "az": 148, "PRN": 10}, {"used": true, "ss": 44, "el": 60, "az": 358, "PRN": 14}, {"used": true, "ss": 32, "el": 23, "az": 262, "PRN": 18}, {"used": true, "ss": 36, "el": 31, "az": 312, "PRN": 22}, {"used": true, "ss": 42, "el": 36, "az": 63, "PRN": 25}, {"used": true, "ss": 43, "el": 28, "az": 175, "PRN": 26}, {"used": true, "ss": 50, "el": 76, "az": 295, "PRN": 31}, {"used": true, "ss": 39, "el": 53, "az": 54, "PRN": 32}, {"used": true, "ss": 35, "el": 6, "az": 34, "PRN": 12}, {"used": true, "ss": 26, "el": 19, "az": 289, "PRN": 1}, {"used": true, "ss": 17, "el": 10, "az": 318, "PRN": 3}, {"used": true, "ss": 34, "el": 45, "az": 217, "PRN": 138}], "device": "/dev/ttyUSB0", "ydop": 0.62}]}
{"class": "POLL", "time": "2018-04-08T22:20:18.119Z", "gst": [{"rms": 0.0, "alt": 0.0, "class": "GST", "lon": 0.0, "minor": 0.0, "time": "1970-01-01T00:00:00.000Z", "lat": 0.0, "major": 0.0, "device": "/dev/ttyUSB0", "orient": 0.0}], "active": 1, "tpv": [{"ept": 0.005, "track": 0.0, "epv": 13.8, "mode": 3, "eps": 4.64, "epy": 2.321, "epc": 27.6, "device": "/dev/ttyUSB0", "alt": 198.41, "class": "TPV", "lon": -84.914393152, "time": "2018-04-13T12:59:45.000Z", "lat": 32.068637809, "climb": 0.0, "speed": 0.0, "epx": 2.085}], "sky": [{"class": "SKY", "pdop": 2.7, "tdop": 0.81, "vdop": 2.4, "time": "2018-04-13T12:59:46.000Z", "gdop": 1.74, "hdop": 0.8, "xdop": 0.56, "satellites": [{"used": true, "ss": 45, "el": 39, "az": 148, "PRN": 10}, {"used": true, "ss": 44, "el": 60, "az": 358, "PRN": 14}, {"used": true, "ss": 28, "el": 23, "az": 262, "PRN": 18}, {"used": true, "ss": 37, "el": 31, "az": 312, "PRN": 22}, {"used": true, "ss": 43, "el": 36, "az": 63, "PRN": 25}, {"used": true, "ss": 43, "el": 28, "az": 175, "PRN": 26}, {"used": true, "ss": 50, "el": 76, "az": 295, "PRN": 31}, {"used": true, "ss": 40, "el": 53, "az": 54, "PRN": 32}, {"used": true, "ss": 31, "el": 6, "az": 34, "PRN": 12}, {"used": true, "ss": 21, "el": 19, "az": 289, "PRN": 1}, {"used": false, "ss": 0, "el": 10, "az": 318, "PRN": 3}, {"used": true, "ss": 39, "el": 45, "az": 217, "PRN": 138}], "device": "/dev/ttyUSB0", "ydop": 0.62}]}
{"class": "POLL", "time": "2018-04-08T22:20:23.147Z", "gst": [{"rms": 0.0, "alt": 0.0, "class": "GST", "lon": 0.0, "minor": 0.0, "time": "1970-01-01T00:00:00.000Z", "lat": 0.0, "major": 0.0, "device": "/dev/ttyUSB0", "orient": 0.0}], "active": 1, "tpv": [{"ept": 0.005, "track": 0.0, "epv": 13.8, "mode": 3, "eps": 4.64, "epy": 2.321, "epc": 27.6, "device": "/dev/ttyUSB0", "alt": 198.41, "class": "TPV", "lon": -84.914393152, "time": "2018-04-13T12:59:51.000Z", "lat": 32.068637809, "climb": 0.0, "speed": 0.0, "epx": 2.085}], "sky": [{"class": "SKY", "pdop": 2.7, "tdop": 0.81, "vdop": 2.4, "time": "2018-04-13T12:59:49.000Z", "gdop": 1.74, "hdop": 0.8, "xdop": 0.56, "satellites": [{"used": true, "ss": 45, "el": 39, "az": 148, "PRN": 10}, {"used": true, "ss": 44, "el": 60, "az": 358, "PRN": 14}, {"used": true, "ss": 28, "el": 23, "az": 262, "PRN": 18}, {"used": true, "ss": 37, "el": 31, "az": 312, "PRN": 22}, {"used": true, "ss": 43, "el": 36, "az": 63, "PRN": 25}, {"used": true, "ss": 43, "el": 28, "az": 175, "PRN": 26}, {"used": true, "ss": 50, "el": 76, "az": 295, "PRN": 31}, {"used": true, "ss": 40, "el": 53, "az": 54, "PRN": 32}, {"used": true, "ss": 32, "el": 6, "az": 34, "PRN": 12}, {"used": true, "ss": 32, "el": 19, "az": 289, "PRN": 1}, {"used": false, "ss": 0, "el": 10, "az": 318, "PRN": 3}, {"used": true, "ss": 36, "el": 45, "az": 217, "PRN": 138}], "device": "/dev/ttyUSB0", "ydop": 0.62}]}
{"class": "POLL", "time": "2018-04-08T22:20:28.178Z", "gst": [{"rms": 0.0, "alt": 0.0, "class": "GST", "lon": 0.0, "minor": 0.0, "time": "1970-01-01T00:00:00.000Z", "lat": 0.0, "major": 0.0, "device": "/dev/ttyUSB0", "orient": 0.0}], "active": 1, "tpv": [{"ept": 0.005, "track": 272.7052, "epv": 13.8, "mode": 3, "eps": 4.64, "epy": 2.321, "epc": 27.6, "device": "/dev/ttyUSB0", "alt": 199.86, "class": "TPV", "lon": -84.914383542, "time": "2018-04-13T12:59:56.000Z", "lat": 32.068640258, "climb": -0.038, "speed": 0.499, "epx": 2.085}], "sky": [{"class": "SKY", "pdop": 2.7, "tdop": 0.81, "vdop": 2.4, "time": "2018-04-13T12:59:55.000Z", "gdop": 1.74, "hdop": 0.8, "xdop": 0.56, "satellites": [{"used": true, "ss": 45, "el": 39, "az": 148, "PRN": 10}, {"used": true, "ss": 44, "el": 60, "az": 358, "PRN": 14}, {"used": true, "ss": 30, "el": 23, "az": 262, "PRN": 18}, {"used": true, "ss": 36, "el": 31, "az": 312, "PRN": 22}, {"used": true, "ss": 43, "el": 36, "az": 63, "PRN": 25}, {"used": true, "ss": 43, "el": 28, "az": 175, "PRN": 26}, {"used": true, "ss": 50, "el": 76, "az": 295, "PRN": 31}, {"used": true, "ss": 40, "el": 53, "az": 54, "PRN": 32}, {"used": true, "ss": 32, "el": 6, "az": 34, "PRN": 12}, {"used": true, "ss": 26, "el": 19, "az": 289, "PRN": 1}, {"used": false, "ss": 0, "el": 10, "az": 318, "PRN": 3}, {"used": true, "ss": 40, "el": 45, "az": 217, "PRN": 138}], "device": "/dev/ttyUSB0", "ydop": 0.62}]}
{"class": "POLL", "time": "2018-04-08T22:20:33.204Z", "gst": [{"rms": 0.0, "alt": 0.0, "class": "GST", "lon": 0.0, "minor": 0.0, "time": "1970-01-01T00:00:00.000Z", "lat": 0.0, "major": 0.0, "device": "/dev/ttyUSB0", "orient": 0.0}], "active": 1, "tpv": [{"ept": 0.005, "track": 0.0, "epv": 13.8, "mode": 3, "eps": 4.64, "epy": 2.321, "epc": 27.6, "device": "/dev/ttyUSB0", "alt": 201.624, "class": "TPV", "lon": -84.914374871, "time": "2018-04-13T13:00:01.000Z", "lat": 32.068630295, "climb": 0.0, "speed": 0.0, "epx": 2.085}], "sky": [{"class": "SKY", "pdop": 2.7, "tdop": 0.81, "vdop": 2.4, "time": "2018-04-13T13:00:01.000Z", "gdop": 1.74, "hdop": 0.8, "xdop": 0.56, "satellites": [{"used": true, "ss": 23, "el": 39, "az": 148, "PRN": 10}, {"used": true, "ss": 30, "el": 60, "az": 358, "PRN": 14}, {"used": true, "ss": 28, "el": 23, "az": 262, "PRN": 18}, {"used": true, "ss": 28, "el": 31, "az": 312, "PRN": 22}, {"used": true, "ss": 29, "el": 36, "az": 63, "PRN": 25}, {"used": true, "ss": 37, "el": 28, "az": 175, "PRN": 26}, {"used": true, "ss": 32, "el": 76, "az": 295, "PRN": 31}, {"used": true, "ss": 35, "el": 53, "az": 54, "PRN": 32}, {"used": true, "ss": 29, "el": 6, "az": 34, "PRN": 12}, {"used": true, "ss": 26, "el": 19, "az": 289, "PRN": 1}, {"used": false, "ss": 0, "el": 10, "az": 318, "PRN": 3}, {"used": true, "ss": 33, "el": 45, "az": 217, "PRN": 138}], "device": "/dev/ttyUSB0", "ydop": 0.62}]}
{"class": "POLL", "time": "2018-04-08T22:20:38.237Z", "gst": [{"rms": 0.0, "alt": 0.0, "class": "GST", "lon": 0.0, "minor": 0.0, "time": "1970-01-01T00:00:00.000Z", "lat": 0.0, "major": 0.0, "device": "/dev/ttyUSB0", "orient": 0.0}], "active": 1, "tpv": [{"ept": 0.005, "track": 0.0, "epv": 13.8, "mode": 3, "eps": 4.64, "epy": 2.321, "epc": 27.6, "device": "/dev/ttyUSB0", "alt": 200.779, "class": "TPV", "lon": -84.914373932, "time": "2018-04-13T13:00:06.000Z", "lat": 32.068635064, "climb": 0.0, "speed": 0.0, "epx": 2.085}], "sky": [{"class": "SKY", "pdop": 2.7, "tdop": 0.81, "vdop": 2.4, "time": "2018-04-13T13:00:04.000Z", "gdop": 1.74, "hdop": 0.8, "xdop": 0.56, "satellites": [{"used": true, "ss": 29, "el": 39, "az": 148, "PRN": 10}, {"used": true, "ss": 31, "el": 60, "az": 358, "PRN": 14}, {"used": true, "ss": 28, "el": 23, "az": 262, "PRN": 18}, {"used": true, "ss": 35, "el": 31, "az": 312, "PRN": 22}, {"used": true, "ss": 29, "el": 36, "az": 63, "PRN": 25}, {"used": true, "ss": 37, "el": 28, "az": 175, "PRN": 26}, {"used": true, "ss": 32, "el": 76, "az": 295, "PRN": 31}, {"used": true, "ss": 40, "el": 53, "az": 54, "PRN": 32}, {"used": true, "ss": 29, "el": 6, "az": 34, "PRN": 12}, {"used": true, "ss": 27, "el": 19, "az": 289, "PRN": 1}, {"used": false, "ss": 0, "el": 10, "az": 318, "PRN": 3}, {"used": true, "ss": 35, "el": 45, "az": 217, "PRN": 138}], "device": "/dev/ttyUSB0", "ydop": 0.62}]}
{"class": "POLL", "time": "2018-04-08T22:20:43.262Z", "gst": [{"rms": 0.0, "alt": 0.0, "class": "GST", "lon": 0.0, "minor": 0.0, "time": "1970-01-01T00:00:00.000Z", "lat": 0.0, "major": 0.0, "device": "/dev/ttyUSB0", "orient": 0.0}], "active": 1, "tpv": [{"ept": 0.005, "track": 0.0, "epv": 13.8, "mode": 3, "eps": 4.64, "epy": 2.321, "epc": 27.6, "device": "/dev/ttyUSB0", "alt": 200.779, "class": "TPV", "lon": -84.914373932, "time": "2018-04-13T13:00:11.000Z", "lat": 32.068635064, "climb": 0.0, "speed": 0.0, "epx": 2.085}], "sky": [{"class": "SKY", "pdop": 2.7, "tdop": 0.81, "vdop": 2.4, "time": "2018-04-13T13:00:10.000Z", "gdop": 1.74, "hdop": 0.8, "xdop": 0.56, "satellites": [{"used": true, "ss": 34, "el": 39, "az": 148, "PRN": 10}, {"used": true, "ss": 39, "el": 60, "az": 358, "PRN": 14}, {"used": true, "ss": 25, "el": 23, "az": 262, "PRN": 18}, {"used": true, "ss": 31, "el": 31, "az": 312, "PRN": 22}, {"used": true, "ss": 35, "el": 36, "az": 63, "PRN": 25}, {"used": true, "ss": 32, "el": 28, "az": 175, "PRN": 26}, {"used": true, "ss": 40, "el": 76, "az": 295, "PRN": 31}, {"used": true, "ss": 43, "el": 53, "az": 54, "PRN": 32}, {"used": true, "ss": 29, "el": 6, "az": 34, "PRN": 12}, {"used": true, "ss": 32, "el": 19, "az": 289, "PRN": 1}, {"used": false, "ss": 9, "el": 2, "az": 190, "PRN": 16}, {"used": true, "ss": 27, "el": 45, "az": 217, "PRN": 138}], "device": "/dev/ttyUSB0", "ydop": 0.62}]}
{"class": "POLL", "time": "2018-04-08T22:20:48.288Z", "gst": [{"rms": 0.0, "alt": 0.0, "class": "GST", "lon": 0.0, "minor": 0.0, "time": "1970-01-01T00:00:00.000Z", "lat": 0.0, "major": 0.0, "device": "/dev/ttyUSB0", "orient": 0.0}], "active": 1, "tpv": [{"ept": 0.005, "track": 0.0, "epv": 55.2, "mode": 3, "eps": 18.57, "epy": 9.285, "epc": 110.4, "device": "/dev/ttyUSB0", "alt": 201.624, "class": "TPV", "lon": -84.914374871, "time": "2018-04-13T13:00:16.000Z", "lat": 32.068630295, "climb": 0.0, "speed": 0.0, "epx": 8.34}], "sky": [{"class": "SKY", "pdop": 2.7, "tdop": 0.81, "vdop": 2.4, "time": "2018-04-13T13:00:16.000Z", "gdop": 1.74, "hdop": 0.8, "xdop": 0.56, "satellites": [{"used": true, "ss": 43, "el": 39, "az": 148, "PRN": 10}, {"used": true, "ss": 30, "el": 60, "az": 358, "PRN": 14}, {"used": true, "ss": 27, "el": 23, "az": 262, "PRN": 18}, {"used": true, "ss": 31, "el": 31, "az": 312, "PRN": 22}, {"used": true, "ss": 35, "el": 36, "az": 63, "PRN": 25}, {"used": true, "ss": 37, "el": 28, "az": 175, "PRN": 26}, {"used": true, "ss": 39, "el": 76, "az": 297, "PRN": 31}, {"used": true, "ss": 44, "el": 53, "az": 54, "PRN": 32}, {"used": true, "ss": 29, "el": 6, "az": 34, "PRN": 12}, {"used": true, "ss": 32, "el": 19, "az": 289, "PRN": 1}, {"used": true, "ss": 19, "el": 2, "az": 189, "PRN": 16}, {"used": true, "ss": 28, "el": 45, "az": 217, "PRN": 138}], "device": "/dev/ttyUSB0", "ydop": 0.62}]}
{"class": "POLL", "time": "2018-04-08T22:20:53.314Z", "gst": [{"rms": 0.0, "alt": 0.0, "class": "GST", "lon": 0.0, "minor": 0.0, "time": "1970-01-01T00:00:00.000Z", "lat": 0.0, "major": 0.0, "device": "/dev/ttyUSB0", "orient": 0.0}], "active": 1, "tpv": [{"ept": 0.005, "track": 0.0, "epv": 55.2, "mode": 3, "eps": 18.57, "epy": 9.285, "epc": 110.4, "device": "/dev/ttyUSB0", "alt": 201.624, "class": "TPV", "lon": -84.914374871, "time": "2018-04-13T13:00:21.000Z", "lat": 32.068630295, "climb": 0.0, "speed": 0.0, "epx": 8.34}], "sky": [{"class": "SKY", "pdop": 2.7, "tdop": 0.81, "vdop": 2.4, "time": "2018-04-13T13:00:19.000Z", "gdop": 1.74, "hdop": 0.8, "xdop": 0.56, "satellites": [{"used": true, "ss": 41, "el": 39, "az": 148, "PRN": 10}, {"used": true, "ss": 40, "el": 60, "az": 358, "PRN": 14}, {"used": true, "ss": 33, "el": 23, "az": 262, "PRN": 18}, {"used": true, "ss": 35, "el": 31, "az": 312, "PRN": 22}, {"used": true, "ss": 38, "el": 36, "az": 63, "PRN": 25}, {"used": true, "ss": 38, "el": 28, "az": 175, "PRN": 26}, {"used": true, "ss": 39, "el": 76, "az": 297, "PRN": 31}, {"used": true, "ss": 44, "el": 53, "az": 54, "PRN": 32}, {"used": true, "ss": 25, "el": 6, "az": 34, "PRN": 12}, {"used": true, "ss": 32, "el": 19, "az": 289, "PRN": 1}, {"used": true, "ss": 23, "el": 2, "az": 189, "PRN": 16}, {"used": true, "ss": 35, "el": 45, "az": 217, "PRN": 138}], "device": "/dev/ttyUSB0", "ydop": 0.62}]}
{"class": "POLL", "time": "2018-04-08T22:20:58.341Z", "gst": [{"rms": 0.0, "alt": 0.0, "class": "GST", "lon": 0.0, "minor": 0.0, "time": "1970-01-01T00:00:00.000Z", "lat": 0.0, "major": 0.0, "device": "/dev/ttyUSB0", "orient": 0.0}], "active": 1, "tpv": [{"ept": 0.005, "track": 157.2459, "epv": 13.8, "mode": 3, "eps": 11.61, "epy": 2.321, "epc": 69.0, "device": "/dev/ttyUSB0", "alt": 204.762, "class": "TPV", "lon": -84.914367139, "time": "2018-04-13T13:00:26.000Z", "lat": 32.068623205, "climb": 0.154, "speed": 0.265, "epx": 2.085}], "sky": [{"class": "SKY", "pdop": 2.7, "tdop": 0.81, "vdop": 2.4, "time": "2018-04-13T13:00:25.000Z", "gdop": 1.74, "hdop": 1.2, "xdop": 0.56, "satellites": [{"used": true, "ss": 42, "el": 39, "az": 148, "PRN": 10}, {"used": true, "ss": 40, "el": 60, "az": 358, "PRN": 14}, {"used": true, "ss": 31, "el": 23, "az": 262, "PRN": 18}, {"used": true, "ss": 37, "el": 31, "az": 312, "PRN": 22}, {"used": true, "ss": 40, "el": 36, "az": 63, "PRN": 25}, {"used": true, "ss": 43, "el": 28, "az": 175, "PRN": 26}, {"used": true, "ss": 45, "el": 76, "az": 297, "PRN": 31}, {"used": true, "ss": 47, "el": 53, "az": 54, "PRN": 32}, {"used": true, "ss": 35, "el": 6, "az": 34, "PRN": 12}, {"used": true, "ss": 31, "el": 19, "az": 289, "PRN": 1}, {"used": true, "ss": 25, "el": 10, "az": 318, "PRN": 3}, {"used": true, "ss": 44, "el": 45, "az": 217, "PRN": 138}], "device": "/dev/ttyUSB0", "ydop": 0.62}]}
{"class": "POLL", "time": "2018-04-08T22:21:03.366Z", "gst": [{"rms": 0.0, "alt": 0.0, "class": "GST", "lon": 0.0, "minor": 0.0, "time": "1970-01-01T00:00:00.000Z", "lat": 0.0, "major": 0.0, "device": "/dev/ttyUSB0", "orient": 0.0}], "active": 1, "tpv": [{"ept": 0.005, "track": 161.1988, "epv": 13.8, "mode": 3, "eps": 4.64, "epy": 2.321, "epc": 27.6, "device": "/dev/ttyUSB0", "alt": 202.154, "class": "TPV", "lon": -84.914374871, "time": "2018-04-13T13:00:31.000Z", "lat": 32.068637937, "climb": 0.07, "speed": 0.67, "epx": 2.085}], "sky": [{"class": "SKY", "pdop": 2.7, "tdop": 0.81, "vdop": 2.4, "time": "2018-04-13T13:00:31.000Z", "gdop": 1.74, "hdop": 0.8, "xdop": 0.56, "satellites": [{"used": true, "ss": 42, "el": 39, "az": 148, "PRN": 10}, {"used": true, "ss": 42, "el": 60, "az": 358, "PRN": 14}, {"used": true, "ss": 32, "el": 23, "az": 262, "PRN": 18}, {"used": true, "ss": 42, "el": 31, "az": 312, "PRN": 22}, {"used": true, "ss": 42, "el": 36, "az": 63, "PRN": 25}, {"used": true, "ss": 36, "el": 28, "az": 175, "PRN": 26}, {"used": true, "ss": 44, "el": 76, "az": 297, "PRN": 31}, {"used": true, "ss": 45, "el": 53, "az": 54, "PRN": 32}, {"used": true, "ss": 41, "el": 6, "az": 34, "PRN": 12}, {"used": true, "ss": 37, "el": 19, "az": 289, "PRN": 1}, {"used": true, "ss": 24, "el": 10, "az": 318, "PRN": 3}, {"used": true, "ss": 45, "el": 45, "az": 217, "PRN": 138}], "device": "/dev/ttyUSB0", "ydop": 0.62}]}
{"class": "POLL", "time": "2018-04-08T22:21:08.393Z", "gst": [{"rms": 0.0, "alt": 0.0, "class": "GST", "lon": 0.0, "minor": 0.0, "time": "1970-01-01T00:00:00.000Z", "lat": 0.0, "major": 0.0, "device": "/dev/ttyUSB0", "orient": 0.0}], "active": 1, "tpv": [{"ept": 0.005, "track": 51.2177, "epv": 13.8, "mode": 3, "eps": 4.64, "epy": 2.321, "epc": 27.6, "device": "/dev/ttyUSB0", "alt": 200.704, "class": "TPV", "lon": -84.914384481, "time": "2018-04-13T13:00:36.000Z", "lat": 32.068635489, "climb": 0.076, "speed": 0.16, "epx": 2.085}], "sky": [{"class": "SKY", "pdop": 2.7, "tdop": 0.81, "vdop": 2.4, "time": "2018-04-13T13:00:34.000Z", "gdop": 1.74, "hdop": 0.8, "xdop": 0.56, "satellites": [{"used": true, "ss": 43, "el": 39, "az": 148, "PRN": 10}, {"used": true, "ss": 43, "el": 60, "az": 358, "PRN": 14}, {"used": true, "ss": 35, "el": 23, "az": 262, "PRN": 18}, {"used": true, "ss": 36, "el": 31, "az": 312, "PRN": 22}, {"used": true, "ss": 42, "el": 36, "az": 63, "PRN": 25}, {"used": true, "ss": 45, "el": 28, "az": 175, "PRN": 26}, {"used": true, "ss": 45, "el": 76, "az": 297, "PRN": 31}, {"used": true, "ss": 45, "el": 53, "az": 54, "PRN": 32}, {"used": true, "ss": 39, "el": 6, "az": 34, "PRN": 12}, {"used": true, "ss": 37, "el": 19, "az": 289, "PRN": 1}, {"used": false, "ss": 7, "el": 10, "az": 318, "PRN": 3}, {"used": true, "ss": 44, "el": 45, "az": 217, "PRN": 138}], "device": "/dev/ttyUSB0", "ydop": 0.62}]}
{"class": "POLL", "time": "2018-04-08T22:21:13.423Z", "gst": [{"rms": 0.0, "alt": 0.0, "class": "GST", "lon": 0.0, "minor": 0.0, "time": "1970-01-01T00:00:00.000Z", "lat": 0.0, "major": 0.0, "device": "/dev/ttyUSB0", "orient": 0.0}], "active": 1, "tpv": [{"ept": 0.005, "track": 288.1223, "epv": 13.8, "mode": 3, "eps": 4.64, "epy": 2.321, "epc": 27.6, "device": "/dev/ttyUSB0", "alt": 200.922, "class": "TPV", "lon": -84.914383542, "time": "2018-04-13T13:00:41.000Z", "lat": 32.068655541, "climb": -0.124, "speed": 0.25, "epx": 2.085}], "sky": [{"class": "SKY", "pdop": 2.7, "tdop": 0.81, "vdop": 2.4, "time": "2018-04-13T13:00:40.000Z", "gdop": 1.74, "hdop": 0.8, "xdop": 0.56, "satellites": [{"used": true, "ss": 43, "el": 39, "az": 148, "PRN": 10}, {"used": true, "ss": 42, "el": 60, "az": 358, "PRN": 14}, {"used": true, "ss": 32, "el": 23, "az": 262, "PRN": 18}, {"used": true, "ss": 41, "el": 31, "az": 312, "PRN": 22}, {"used": true, "ss": 44, "el": 36, "az": 63, "PRN": 25}, {"used": true, "ss": 40, "el": 28, "az": 175, "PRN": 26}, {"used": true, "ss": 45, "el": 76, "az": 297, "PRN": 31}, {"used": true, "ss": 45, "el": 53, "az": 54, "PRN": 32}, {"used": true, "ss": 44, "el": 6, "az": 34, "PRN": 12}, {"used": true, "ss": 35, "el": 19, "az": 289, "PRN": 1}, {"used": true, "ss": 26, "el": 2, "az": 189, "PRN": 16}, {"used": true, "ss": 44, "el": 45, "az": 217, "PRN": 138}], "device": "/dev/ttyUSB0", "ydop": 0.62}]}
{"class": "POLL", "time": "2018-04-08T22:21:18.459Z", "gst": [{"rms": 0.0, "alt": 0.0, "class": "GST", "lon": 0.0, "minor": 0.0, "time": "1970-01-01T00:00:00.000Z", "lat": 0.0, "major": 0.0, "device": "/dev/ttyUSB0", "orient": 0.0}], "active": 1, "tpv": [{"ept": 0.005, "track": 51.2177, "epv": 13.8, "mode": 3, "eps": 4.64, "epy": 2.321, "epc": 27.6, "device": "/dev/ttyUSB0", "alt": 203.141, "class": "TPV", "lon": -84.91438542, "time": "2018-04-13T13:00:46.000Z", "lat": 32.068653645, "climb": 0.076, "speed": 0.16, "epx": 2.085}], "sky": [{"class": "SKY", "pdop": 2.7, "tdop": 0.81, "vdop": 2.4, "time": "2018-04-13T13:00:46.000Z", "gdop": 1.74, "hdop": 0.8, "xdop": 0.56, "satellites": [{"used": true, "ss": 46, "el": 39, "az": 148, "PRN": 10}, {"used": true, "ss": 43, "el": 60, "az": 358, "PRN": 14}, {"used": true, "ss": 39, "el": 23, "az": 262, "PRN": 18}, {"used": true, "ss": 42, "el": 32, "az": 312, "PRN": 22}, {"used": true, "ss": 40, "el": 36, "az": 61, "PRN": 25}, {"used": true, "ss": 44, "el": 28, "az": 175, "PRN": 26}, {"used": true, "ss": 46, "el": 76, "az": 297, "PRN": 31}, {"used": true, "ss": 42, "el": 53, "az": 54, "PRN": 32}, {"used": true, "ss": 37, "el": 6, "az": 34, "PRN": 12}, {"used": true, "ss": 36, "el": 19, "az": 289, "PRN": 1}, {"used": false, "ss": 0, "el": 10, "az": 318, "PRN": 3}, {"used": true, "ss": 40, "el": 45, "az": 217, "PRN": 138}], "device": "/dev/ttyUSB0", "ydop": 0.62}]}
{"class": "POLL", "time": "2018-04-08T22:21:23.490Z", "gst": [{"rms": 0.0, "alt": 0.0, "class": "GST", "lon": 0.0, "minor": 0.0, "time": "1970-01-01T00:00:00.000Z", "lat": 0.0, "major": 0.0, "device": "/dev/ttyUSB0", "orient": 0.0}], "active": 1, "tpv": [{"ept": 0.005, "track": 0.0, "epv": 13.8, "mode": 3, "eps": 4.64, "epy": 2.321, "epc": 27.6, "device": "/dev/ttyUSB0", "alt": 203.141, "class": "TPV", "lon": -84.91438542, "time": "2018-04-13T13:00:51.000Z", "lat": 32.068653645, "climb": 0.0, "speed": 0.0, "epx": 2.085}], "sky": [{"class": "SKY", "pdop": 2.7, "tdop": 0.81, "vdop": 2.4, "time": "2018-04-13T13:00:49.000Z", "gdop": 1.74, "hdop": 0.8, "xdop": 0.56, "satellites": [{"used": true, "ss": 47, "el": 39, "az": 148, "PRN": 10}, {"used": true, "ss": 43, "el": 60, "az": 358, "PRN": 14}, {"used": true, "ss": 37, "el": 23, "az": 262, "PRN": 18}, {"used": true, "ss": 42, "el": 32, "az": 312, "PRN": 22}, {"used": true, "ss": 42, "el": 36, "az": 61, "PRN": 25}, {"used": true, "ss": 44, "el": 28, "az": 175, "PRN": 26}, {"used": true, "ss": 46, "el": 76, "az": 297, "PRN": 31}, {"used": true, "ss": 39, "el": 53, "az": 54, "PRN": 32}, {"used": true, "ss": 42, "el": 6, "az": 34, "PRN": 12}, {"used": true, "ss": 30, "el": 19, "az": 289, "PRN": 1}, {"used": true, "ss": 30, "el": 10, "az": 318, "PRN": 3}, {"used": true, "ss": 40, "el": 45, "az": 217, "PRN": 138}], "device": "/dev/ttyUSB0", "ydop": 0.62}]}
{"class": "POLL", "time": "2018-04-08T22:21:28.521Z", "gst": [{"rms": 0.0, "alt": 0.0, "class": "GST", "lon": 0.0, "minor": 0.0, "time": "1970-01-01T00:00:00.000Z", "lat": 0.0, "major": 0.0, "device": "/dev/ttyUSB0", "orient": 0.0}], "active": 1, "tpv": [{"ept": 0.005, "track": 253.7389, "epv": 13.8, "mode": 3, "eps": 4.64, "epy": 2.321, "epc": 27.6, "device": "/dev/ttyUSB0", "alt": 203.066, "class": "TPV", "lon": -84.914395969, "time": "2018-04-13T13:00:56.000Z", "lat": 32.06865407, "climb": 0.002, "speed": 0.53, "epx": 2.085}], "sky": [{"class": "SKY", "pdop": 2.7, "tdop": 0.81, "vdop": 2.4, "time": "2018-04-13T13:00:55.000Z", "gdop": 1.74, "hdop": 0.8, "xdop": 0.56, "satellites": [{"used": true, "ss": 46, "el": 39, "az": 148, "PRN": 10}, {"used": true, "ss": 44, "el": 60, "az": 358, "PRN": 14}, {"used": true, "ss": 30, "el": 23, "az": 262, "PRN": 18}, {"used": true, "ss": 41, "el": 32, "az": 312, "PRN": 22}, {"used": true, "ss": 43, "el": 36, "az": 61, "PRN": 25}, {"used": true, "ss": 39, "el": 28, "az": 175, "PRN": 26}, {"used": true, "ss": 46, "el": 76, "az": 297, "PRN": 31}, {"used": true, "ss": 44, "el": 53, "az": 54, "PRN": 32}, {"used": true, "ss": 42, "el": 6, "az": 34, "PRN": 12}, {"used": true, "ss": 30, "el": 19, "az": 289, "PRN": 1}, {"used": true, "ss": 27, "el": 10, "az": 318, "PRN": 3}, {"used": true, "ss": 43, "el": 45, "az": 217, "PRN": 138}], "device": "/dev/ttyUSB0", "ydop": 0.62}]}
{"class": "POLL", "time": "2018-04-08T22:21:33.547Z", "gst": [{"rms": 0.0, "alt": 0.0, "class": "GST", "lon": 0.0, "minor": 0.0, "time": "1970-01-01T00:00:00.000Z", "lat": 0.0, "major": 0.0, "device": "/dev/ttyUSB0", "orient": 0.0}], "active": 1, "tpv": [{"ept": 0.005, "track": 349.6753, "epv": 13.8, "mode": 3, "eps": 4.64, "epy": 2.321, "epc": 27.6, "device": "/dev/ttyUSB0", "alt": 204.196, "class": "TPV", "lon": -84.914416127, "time": "2018-04-13T13:01:01.000Z", "lat": 32.068690255, "climb": 0.09, "speed": 1.142, "epx": 2.085}], "sky": [{"class": "SKY", "pdop": 2.7, "tdop": 0.81, "vdop": 2.4, "time": "2018-04-13T13:01:01.000Z", "gdop": 1.74, "hdop": 0.8, "xdop": 0.56, "satellites": [{"used": true, "ss": 45, "el": 39, "az": 148, "PRN": 10}, {"used": true, "ss": 44, "el": 60, "az": 358, "PRN": 14}, {"used": true, "ss": 28, "el": 23, "az": 262, "PRN": 18}, {"used": true, "ss": 42, "el": 32, "az": 312, "PRN": 22}, {"used": true, "ss": 44, "el": 36, "az": 61, "PRN": 25}, {"used": true, "ss": 46, "el": 28, "az": 175, "PRN": 26}, {"used": true, "ss": 46, "el": 76, "az": 297, "PRN": 31}, {"used": true, "ss": 45, "el": 53, "az": 54, "PRN": 32}, {"used": true, "ss": 27, "el": 6, "az": 34, "PRN": 12}, {"used": true, "ss": 38, "el": 19, "az": 289, "PRN": 1}, {"used": true, "ss": 30, "el": 2, "az": 189, "PRN": 16}, {"used": true, "ss": 43, "el": 45, "az": 217, "PRN": 138}], "device": "/dev/ttyUSB0", "ydop": 0.62}]}
{"class": "POLL", "time": "2018-04-08T22:21:38.578Z", "gst": [{"rms": 0.0, "alt": 0.0, "class": "GST", "lon": 0.0, "minor": 0.0, "time": "1970-01-01T00:00:00.000Z", "lat": 0.0, "major": 0.0, "device": "/dev/ttyUSB0", "orient": 0.0}], "active": 1, "tpv": [{"ept": 0.005, "track": 7.5036, "epv": 13.8, "mode": 3, "eps": 4.64, "epy": 2.321, "epc": 27.6, "device": "/dev/ttyUSB0", "alt": 203.474, "class": "TPV", "lon": -84.914412372, "time": "2018-04-13T13:01:06.000Z", "lat": 32.06874754, "climb": 0.04, "speed": 1.463, "epx": 2.085}], "sky": [{"class": "SKY", "pdop": 2.7, "tdop": 0.81, "vdop": 2.4, "time": "2018-04-13T13:01:04.000Z", "gdop": 1.74, "hdop": 0.8, "xdop": 0.56, "satellites": [{"used": true, "ss": 44, "el": 39, "az": 148, "PRN": 10}, {"used": true, "ss": 44, "el": 60, "az": 358, "PRN": 14}, {"used": true, "ss": 32, "el": 23, "az": 262, "PRN": 18}, {"used": true, "ss": 42, "el": 32, "az": 312, "PRN": 22}, {"used": true, "ss": 44, "el": 36, "az": 61, "PRN": 25}, {"used": true, "ss": 46, "el": 28, "az": 175, "PRN": 26}, {"used": true, "ss": 46, "el": 76, "az": 297, "PRN": 31}, {"used": true, "ss": 46, "el": 53, "az": 54, "PRN": 32}, {"used": true, "ss": 28, "el": 6, "az": 34, "PRN": 12}, {"used": true, "ss": 30, "el": 19, "az": 289, "PRN": 1}, {"used": true, "ss": 30, "el": 10, "az": 318, "PRN": 3}, {"used": true, "ss": 42, "el": 45, "az": 217, "PRN": 138}], "device": "/dev/ttyUSB0", "ydop": 0.62}]}
{"class": "POLL", "time": "2018-04-08T22:21:43.608Z", "gst": [{"rms": 0.0, "alt": 0.0, "class": "GST", "lon": 0.0, "minor": 0.0, "time": "1970-01-01T00:00:00.000Z", "lat": 0.0, "major": 0.0, "device": "/dev/ttyUSB0", "orient": 0.0}], "active": 1, "tpv": [{"ept": 0.005, "track": 65.4194, "epv": 13.8, "mode": 3, "eps": 4.64, "epy": 2.321, "epc": 27.6, "device": "/dev/ttyUSB0", "alt": 204.591, "class": "TPV", "lon": -84.914389397, "time": "2018-04-13T13:01:11.000Z", "lat": 32.068794439, "climb": 0.054, "speed": 0.983, "epx": 2.085}], "sky": [{"class": "SKY", "pdop": 2.7, "tdop": 0.81, "vdop": 2.4, "time": "2018-04-13T13:01:10.000Z", "gdop": 1.74, "hdop": 0.8, "xdop": 0.56, "satellites": [{"used": true, "ss": 43, "el": 39, "az": 148, "PRN": 10}, {"used": true, "ss": 43, "el": 60, "az": 358, "PRN": 14}, {"used": true, "ss": 38, "el": 23, "az": 262, "PRN": 18}, {"used": true, "ss": 41, "el": 32, "az": 312, "PRN": 22}, {"used": true, "ss": 44, "el": 36, "az": 61, "PRN": 25}, {"used": true, "ss": 46, "el": 28, "az": 175, "PRN": 26}, {"used": true, "ss": 45, "el": 76, "az": 297, "PRN": 31}, {"used": true, "ss": 45, "el": 53, "az": 54, "PRN": 32}, {"used": true, "ss": 27, "el": 6, "az": 34, "PRN": 12}, {"used": true, "ss": 38, "el": 19, "az": 289, "PRN": 1}, {"used": true, "ss": 29, "el": 10, "az": 318, "PRN": 3}, {"used": true, "ss": 44, "el": 45, "az": 217, "PRN": 138}], "device": "/dev/ttyUSB0", "ydop": 0.62}]}
{"class": "POLL", "time": "2018-04-08T22:21:48.639Z", "gst": [{"rms": 0.0, "alt": 0.0, "class": "GST", "lon": 0.0, "minor": 0.0, "time": "1970-01-01T00:00:00.000Z", "lat": 0.0, "major": 0.0, "device": "/dev/ttyUSB0", "orient": 0.0}], "active": 1, "tpv": [{"ept": 0.005, "track": 189.5154, "epv": 13.8, "mode": 3, "eps": 4.64, "epy": 2.321, "epc": 27.6, "device": "/dev/ttyUSB0", "alt": 203.897, "class": "TPV", "lon": -84.914367361, "time": "2018-04-13T13:01:16.000Z", "lat": 32.068798359, "climb": 0.106, "speed": 0.067, "epx": 2.085}], "sky": [{"class": "SKY", "pdop": 2.7, "tdop": 0.81, "vdop": 2.4, "time": "2018-04-13T13:01:16.000Z", "gdop": 1.74, "hdop": 0.8, "xdop": 0.56, "satellites": [{"used": true, "ss": 44, "el": 38, "az": 150, "PRN": 10}, {"used": true, "ss": 38, "el": 23, "az": 262, "PRN": 18}, {"used": true, "ss": 41, "el": 32, "az": 312, "PRN": 22}, {"used": true, "ss": 41, "el": 36, "az": 61, "PRN": 25}, {"used": true, "ss": 46, "el": 28, "az": 175, "PRN": 26}, {"used": true, "ss": 45, "el": 76, "az": 298, "PRN": 31}, {"used": true, "ss": 46, "el": 53, "az": 54, "PRN": 32}, {"used": true, "ss": 30, "el": 6, "az": 34, "PRN": 12}, {"used": true, "ss": 40, "el": 19, "az": 289, "PRN": 1}, {"used": true, "ss": 27, "el": 2, "az": 189, "PRN": 16}, {"used": true, "ss": 42, "el": 45, "az": 217, "PRN": 138}], "device": "/dev/ttyUSB0", "ydop": 0.62}]}
{"class": "POLL", "time": "2018-04-08T22:21:53.668Z", "gst": [{"rms": 0.0, "alt": 0.0, "class": "GST", "lon": 0.0, "minor": 0.0, "time": "1970-01-01T00:00:00.000Z", "lat": 0.0, "major": 0.0, "device": "/dev/ttyUSB0", "orient": 0.0}], "active": 1, "tpv": [{"ept": 0.005, "track": 2.8194, "epv": 13.8, "mode": 3, "eps": 4.64, "epy": 2.321, "epc": 27.6, "device": "/dev/ttyUSB0", "alt": 204.428, "class": "TPV", "lon": -84.914367361, "time": "2018-04-13T13:01:21.000Z", "lat": 32.068806001, "climb": -0.024, "speed": 0.901, "epx": 2.085}], "sky": [{"class": "SKY", "pdop": 2.7, "tdop": 0.81, "vdop": 2.4, "time": "2018-04-13T13:01:19.000Z", "gdop": 1.74, "hdop": 0.8, "xdop": 0.56, "satellites": [{"used": true, "ss": 45, "el": 38, "az": 150, "PRN": 10}, {"used": true, "ss": 39, "el": 23, "az": 262, "PRN": 18}, {"used": true, "ss": 41, "el": 32, "az": 312, "PRN": 22}, {"used": true, "ss": 40, "el": 36, "az": 61, "PRN": 25}, {"used": true, "ss": 45, "el": 28, "az": 175, "PRN": 26}, {"used": true, "ss": 46, "el": 76, "az": 298, "PRN": 31}, {"used": true, "ss": 47, "el": 53, "az": 54, "PRN": 32}, {"used": true, "ss": 31, "el": 6, "az": 34, "PRN": 12}, {"used": true, "ss": 42, "el": 19, "az": 289, "PRN": 1}, {"used": true, "ss": 22, "el": 2, "az": 189, "PRN": 16}, {"used": true, "ss": 43, "el": 45, "az": 217, "PRN": 138}], "device": "/dev/ttyUSB0", "ydop": 0.62}]}
{"class": "POLL", "time": "2018-04-08T22:21:58.700Z", "gst": [{"rms": 0.0, "alt": 0.0, "class": "GST", "lon": 0.0, "minor": 0.0, "time": "1970-01-01T00:00:00.000Z", "lat": 0.0, "major": 0.0, "device": "/dev/ttyUSB0", "orient": 0.0}], "active": 1, "tpv": [{"ept": 0.005, "track": 19.1967, "epv": 13.8, "mode": 3, "eps": 4.64, "epy": 2.321, "epc": 27.6, "device": "/dev/ttyUSB0", "alt": 204.959, "class": "TPV", "lon": -84.914367361, "time": "2018-04-13T13:01:27.000Z", "lat": 32.068813643, "climb": 0.203, "speed": 1.271, "epx": 2.085}], "sky": [{"class": "SKY", "pdop": 2.7, "tdop": 0.81, "vdop": 2.4, "time": "2018-04-13T13:01:25.000Z", "gdop": 1.74, "hdop": 0.8, "xdop": 0.56, "satellites": [{"used": true, "ss": 41, "el": 38, "az": 150, "PRN": 10}, {"used": true, "ss": 38, "el": 23, "az": 262, "PRN": 18}, {"used": true, "ss": 36, "el": 32, "az": 312, "PRN": 22}, {"used": true, "ss": 43, "el": 36, "az": 61, "PRN": 25}, {"used": true, "ss": 36, "el": 28, "az": 175, "PRN": 26}, {"used": true, "ss": 45, "el": 76, "az": 298, "PRN": 31}, {"used": true, "ss": 40, "el": 53, "az": 54, "PRN": 32}, {"used": true, "ss": 30, "el": 6, "az": 34, "PRN": 12}, {"used": true, "ss": 36, "el": 19, "az": 289, "PRN": 1}, {"used": true, "ss": 32, "el": 10, "az": 318, "PRN": 3}, {"used": true, "ss": 41, "el": 45, "az": 217, "PRN": 138}], "device": "/dev/ttyUSB0", "ydop": 0.62}]}
{"class": "POLL", "time": "2018-04-08T22:22:03.730Z", "gst": [{"rms": 0.0, "alt": 0.0, "class": "GST", "lon": 0.0, "minor": 0.0, "time": "1970-01-01T00:00:00.000Z", "lat": 0.0, "major": 0.0, "device": "/dev/ttyUSB0", "orient": 0.0}], "active": 1, "tpv": [{"ept": 0.005, "track": 70.1485, "epv": 13.8, "mode": 3, "eps": 4.64, "epy": 2.321, "epc": 27.6, "device": "/dev/ttyUSB0", "alt": 207.22, "class": "TPV", "lon": -84.91430313, "time": "2018-04-13T13:01:32.000Z", "lat": 32.068854074, "climb": 0.062, "speed": 1.624, "epx": 2.085}], "sky": [{"class": "SKY", "pdop": 2.7, "tdop": 0.81, "vdop": 2.4, "time": "2018-04-13T13:01:31.000Z", "gdop": 1.74, "hdop": 0.8, "xdop": 0.56, "satellites": [{"used": true, "ss": 42, "el": 38, "az": 150, "PRN": 10}, {"used": true, "ss": 41, "el": 23, "az": 262, "PRN": 18}, {"used": true, "ss": 39, "el": 32, "az": 312, "PRN": 22}, {"used": true, "ss": 42, "el": 36, "az": 61, "PRN": 25}, {"used": true, "ss": 43, "el": 28, "az": 175, "PRN": 26}, {"used": true, "ss": 43, "el": 76, "az": 298, "PRN": 31}, {"used": true, "ss": 44, "el": 53, "az": 54, "PRN": 32}, {"used": true, "ss": 27, "el": 6, "az": 34, "PRN": 12}, {"used": true, "ss": 41, "el": 19, "az": 289, "PRN": 1}, {"used": false, "ss": 5, "el": 10, "az": 318, "PRN": 3}, {"used": true, "ss": 43, "el": 45, "az": 217, "PRN": 138}], "device": "/dev/ttyUSB0", "ydop": 0.62}]}
{"class": "POLL", "time": "2018-04-08T22:22:08.763Z", "gst": [{"rms": 0.0, "alt": 0.0, "class": "GST", "lon": 0.0, "minor": 0.0, "time": "1970-01-01T00:00:00.000Z", "lat": 0.0, "major": 0.0, "device": "/dev/ttyUSB0", "orient": 0.0}], "active": 1, "tpv": [{"ept": 0.005, "track": 52.8005, "epv": 13.8, "mode": 3, "eps": 4.64, "epy": 2.321, "epc": 27.6, "device": "/dev/ttyUSB0", "alt": 206.894, "class": "TPV", "lon": -84.914259057, "time": "2018-04-13T13:01:36.000Z", "lat": 32.068877198, "climb": 0.081, "speed": 1.136, "epx": 2.085}], "sky": [{"class": "SKY", "pdop": 2.7, "tdop": 0.81, "vdop": 2.4, "time": "2018-04-13T13:01:34.000Z", "gdop": 1.74, "hdop": 0.8, "xdop": 0.56, "satellites": [{"used": true, "ss": 42, "el": 38, "az": 150, "PRN": 10}, {"used": true, "ss": 42, "el": 23, "az": 262, "PRN": 18}, {"used": true, "ss": 39, "el": 32, "az": 312, "PRN": 22}, {"used": true, "ss": 35, "el": 36, "az": 61, "PRN": 25}, {"used": true, "ss": 38, "el": 28, "az": 175, "PRN": 26}, {"used": true, "ss": 43, "el": 76, "az": 298, "PRN": 31}, {"used": true, "ss": 37, "el": 53, "az": 54, "PRN": 32}, {"used": true, "ss": 27, "el": 6, "az": 34, "PRN": 12}, {"used": true, "ss": 40, "el": 19, "az": 289, "PRN": 1}, {"used": true, "ss": 14, "el": 10, "az": 318, "PRN": 3}, {"used": true, "ss": 38, "el": 45, "az": 217, "PRN": 138}], "device": "/dev/ttyUSB0", "ydop": 0.62}]}
{"class": "POLL", "time": "2018-04-08T22:22:13.793Z", "gst": [{"rms": 0.0, "alt": 0.0, "class": "GST", "lon": 0.0, "minor": 0.0, "time": "1970-01-01T00:00:00.000Z", "lat": 0.0, "major": 0.0, "device": "/dev/ttyUSB0", "orient": 0.0}], "active": 1, "tpv": [{"ept": 0.005, "track": 70.3176, "epv": 13.8, "mode": 3, "eps": 4.64, "epy": 2.321, "epc": 27.6, "device": "/dev/ttyUSB0", "alt": 206.944, "class": "TPV", "lon": -84.914162241, "time": "2018-04-13T13:01:42.000Z", "lat": 32.0688982, "climb": -0.024, "speed": 1.358, "epx": 2.085}], "sky": [{"class": "SKY", "pdop": 2.7, "tdop": 0.81, "vdop": 2.4, "time": "2018-04-13T13:01:40.000Z", "gdop": 1.74, "hdop": 0.8, "xdop": 0.56, "satellites": [{"used": true, "ss": 43, "el": 38, "az": 150, "PRN": 10}, {"used": true, "ss": 43, "el": 23, "az": 262, "PRN": 18}, {"used": true, "ss": 40, "el": 32, "az": 312, "PRN": 22}, {"used": true, "ss": 43, "el": 36, "az": 61, "PRN": 25}, {"used": true, "ss": 39, "el": 28, "az": 175, "PRN": 26}, {"used": true, "ss": 38, "el": 76, "az": 298, "PRN": 31}, {"used": true, "ss": 45, "el": 53, "az": 54, "PRN": 32}, {"used": true, "ss": 34, "el": 6, "az": 34, "PRN": 12}, {"used": true, "ss": 35, "el": 19, "az": 289, "PRN": 1}, {"used": true, "ss": 33, "el": 10, "az": 318, "PRN": 3}, {"used": true, "ss": 38, "el": 45, "az": 217, "PRN": 138}], "device": "/dev/ttyUSB0", "ydop": 0.62}]}
{"class": "POLL", "time": "2018-04-08T22:22:18.824Z", "gst": [{"rms": 0.0, "alt": 0.0, "class": "GST", "lon": 0.0, "minor": 0.0, "time": "1970-01-01T00:00:00.000Z", "lat": 0.0, "major": 0.0, "device": "/dev/ttyUSB0", "orient": 0.0}], "active": 1, "tpv": [{"ept": 0.005, "track": 107.0383, "epv": 13.8, "mode": 3, "eps": 4.64, "epy": 2.321, "epc": 27.6, "device": "/dev/ttyUSB0", "alt": 206.701, "class": "TPV", "lon": -84.914076913, "time": "2018-04-13T13:01:47.000Z", "lat": 32.068899574, "climb": 0.019, "speed": 1.551, "epx": 2.085}], "sky": [{"class": "SKY", "pdop": 2.7, "tdop": 0.81, "vdop": 2.4, "time": "2018-04-13T13:01:46.000Z", "gdop": 1.74, "hdop": 0.8, "xdop": 0.56, "satellites": [{"used": true, "ss": 40, "el": 38, "az": 150, "PRN": 10}, {"used": true, "ss": 37, "el": 22, "az": 262, "PRN": 18}, {"used": true, "ss": 42, "el": 32, "az": 312, "PRN": 22}, {"used": true, "ss": 42, "el": 36, "az": 61, "PRN": 25}, {"used": true, "ss": 39, "el": 28, "az": 175, "PRN": 26}, {"used": true, "ss": 42, "el": 76, "az": 300, "PRN": 31}, {"used": true, "ss": 45, "el": 53, "az": 55, "PRN": 32}, {"used": true, "ss": 36, "el": 6, "az": 34, "PRN": 12}, {"used": true, "ss": 44, "el": 19, "az": 288, "PRN": 1}, {"used": true, "ss": 39, "el": 11, "az": 318, "PRN": 3}, {"used": true, "ss": 39, "el": 45, "az": 217, "PRN": 138}], "device": "/dev/ttyUSB0", "ydop": 0.62}]}
{"class": "POLL", "time": "2018-04-08T22:22:23.852Z", "gst": [{"rms": 0.0, "alt": 0.0, "class": "GST", "lon": 0.0, "minor": 0.0, "time": "1970-01-01T00:00:00.000Z", "lat": 0.0, "major": 0.0, "device": "/dev/ttyUSB0", "orient": 0.0}], "active": 1, "tpv": [{"ept": 0.005, "track": 100.1007, "epv": 13.8, "mode": 3, "eps": 4.64, "epy": 2.321, "epc": 27.6, "device": "/dev/ttyUSB0", "alt": 207.996, "class": "TPV", "lon": -84.914014559, "time": "2018-04-13T13:01:51.000Z", "lat": 32.068892258, "climb": -0.011, "speed": 1.644, "epx": 2.085}], "sky": [{"class": "SKY", "pdop": 2.7, "tdop": 0.81, "vdop": 2.4, "time": "2018-04-13T13:01:49.000Z", "gdop": 1.74, "hdop": 0.8, "xdop": 0.56, "satellites": [{"used": true, "ss": 40, "el": 38, "az": 150, "PRN": 10}, {"used": true, "ss": 39, "el": 22, "az": 262, "PRN": 18}, {"used": true, "ss": 42, "el": 32, "az": 312, "PRN": 22}, {"used": true, "ss": 42, "el": 36, "az": 61, "PRN": 25}, {"used": true, "ss": 39, "el": 28, "az": 175, "PRN": 26}, {"used": true, "ss": 42, "el": 76, "az": 300, "PRN": 31}, {"used": true, "ss": 45, "el": 53, "az": 55, "PRN": 32}, {"used": true, "ss": 35, "el": 6, "az": 34, "PRN": 12}, {"used": true, "ss": 45, "el": 19, "az": 288, "PRN": 1}, {"used": true, "ss": 38, "el": 11, "az": 318, "PRN": 3}, {"used": true, "ss": 41, "el": 45, "az": 217, "PRN": 138}], "device": "/dev/ttyUSB0", "ydop": 0.62}]}
{"class": "POLL", "time": "2018-04-08T22:22:28.883Z", "gst": [{"rms": 0.0, "alt": 0.0, "class": "GST", "lon": 0.0, "minor": 0.0, "time": "1970-01-01T00:00:00.000Z", "lat": 0.0, "major": 0.0, "device": "/dev/ttyUSB0", "orient": 0.0}], "active": 1, "tpv": [{"ept": 0.005, "track": 100.7053, "epv": 13.8, "mode": 3, "eps": 4.64, "epy": 2.321, "epc": 27.6, "device": "/dev/ttyUSB0", "alt": 207.154, "class": "TPV", "lon": -84.913909072, "time": "2018-04-13T13:01:57.000Z", "lat": 32.068865088, "climb": -0.02, "speed": 1.521, "epx": 2.085}], "sky": [{"class": "SKY", "pdop": 2.7, "tdop": 0.81, "vdop": 2.4, "time": "2018-04-13T13:01:55.000Z", "gdop": 1.74, "hdop": 0.8, "xdop": 0.56, "satellites": [{"used": true, "ss": 42, "el": 38, "az": 150, "PRN": 10}, {"used": true, "ss": 43, "el": 22, "az": 262, "PRN": 18}, {"used": true, "ss": 40, "el": 32, "az": 312, "PRN": 22}, {"used": true, "ss": 35, "el": 36, "az": 61, "PRN": 25}, {"used": true, "ss": 39, "el": 28, "az": 175, "PRN": 26}, {"used": true, "ss": 43, "el": 76, "az": 300, "PRN": 31}, {"used": true, "ss": 43, "el": 53, "az": 55, "PRN": 32}, {"used": true, "ss": 26, "el": 6, "az": 34, "PRN": 12}, {"used": true, "ss": 45, "el": 19, "az": 288, "PRN": 1}, {"used": true, "ss": 35, "el": 11, "az": 318, "PRN": 3}, {"used": true, "ss": 42, "el": 45, "az": 217, "PRN": 138}], "device": "/dev/ttyUSB0", "ydop": 0.62}]}
{"class": "POLL", "time": "2018-04-08T22:22:33.908Z", "gst": [{"rms": 0.0, "alt": 0.0, "class": "GST", "lon": 0.0, "minor": 0.0, "time": "1970-01-01T00:00:00.000Z", "lat": 0.0, "major": 0.0, "device": "/dev/ttyUSB0", "orient": 0.0}], "active": 1, "tpv": [{"ept": 0.005, "track": 97.5382, "epv": 13.8, "mode": 3, "eps": 4.64, "epy": 2.321, "epc": 27.6, "device": "/dev/ttyUSB0", "alt": 208.449, "class": "TPV", "lon": -84.913846719, "time": "2018-04-13T13:02:02.000Z", "lat": 32.068857772, "climb": 0.028, "speed": 1.256, "epx": 2.085}], "sky": [{"class": "SKY", "pdop": 2.7, "tdop": 0.81, "vdop": 2.4, "time": "2018-04-13T13:02:01.000Z", "gdop": 1.74, "hdop": 0.8, "xdop": 0.56, "satellites": [{"used": true, "ss": 43, "el": 38, "az": 150, "PRN": 10}, {"used": true, "ss": 42, "el": 22, "az": 262, "PRN": 18}, {"used": true, "ss": 40, "el": 32, "az": 312, "PRN": 22}, {"used": true, "ss": 37, "el": 36, "az": 61, "PRN": 25}, {"used": true, "ss": 41, "el": 28, "az": 175, "PRN": 26}, {"used": true, "ss": 43, "el": 76, "az": 300, "PRN": 31}, {"used": true, "ss": 43, "el": 53, "az": 55, "PRN": 32}, {"used": true, "ss": 29, "el": 6, "az": 34, "PRN": 12}, {"used": true, "ss": 43, "el": 19, "az": 288, "PRN": 1}, {"used": true, "ss": 35, "el": 11, "az": 318, "PRN": 3}, {"used": true, "ss": 40, "el": 45, "az": 217, "PRN": 138}], "device": "/dev/ttyUSB0", "ydop": 0.62}]}
