{"class": "POLL", "time": "2020-09-12T19:17:56.436Z", "active": 1, "tpv": [{"class": "TPV", "device": "/dev/ttyUSB1", "mode": 3, "time": "2020-09-12T19:42:22.000Z", "ept": 0.005, "lat": 33.66012843, "lon": -84.124012776, "alt": 249.441, "epx": 10.396, "epy": 9.782, "epv": 32.66, "track": 54.1954, "speed": 0.661, "climb": -0.129, "eps": 20.79, "epc": 65.32}], "gst": [{"class": "GST", "device": "/dev/ttyUSB1", "time": "1970-01-01T00:00:00.000Z", "rms": 0.0, "major": 0.0, "minor": 0.0, "orient": 0.0, "lat": 0.0, "lon": 0.0, "alt": 0.0}], "sky": [{"class": "SKY", "device": "/dev/ttyUSB1", "time": "2020-09-12T19:42:20.000Z", "xdop": 0.69, "ydop": 0.65, "vdop": 1.42, "hdop": 0.8, "gdop": 1.93, "pdop": 1.71, "satellites": [{"PRN": 15, "el": 53, "az": 42, "ss": 34, "used": true}, {"PRN": 29, "el": 21, "az": 192, "ss": 22, "used": true}, {"PRN": 24, "el": 38, "az": 132, "ss": 35, "used": true}, {"PRN": 10, "el": 24, "az": 288, "ss": 25, "used": true}, {"PRN": 18, "el": 82, "az": 334, "ss": 38, "used": true}, {"PRN": 13, "el": 21, "az": 42, "ss": 26, "used": true}, {"PRN": 20, "el": 51, "az": 313, "ss": 34, "used": true}, {"PRN": 27, "el": 11, "az": 318, "ss": 23, "used": true}, {"PRN": 32, "el": 3, "az": 225, "ss": 15, "used": true}, {"PRN": 21, "el": 84, "az": 160, "ss": 0, "used": false}, {"PRN": 4, "el": 35, "az": 133, "ss": 0, "used": false}, {"PRN": 138, "el": 43, "az": 217, "ss": 32, "used": true}]}], "_extra_data": {"message": "2 CPS | 22 CPM", "data": {"time": 1599938273.973388, "cps": 2, "cpsl": 2, "cpsh": 0, "cpm": 22, "cpml": 22, "cpmh": 0, "maxcps": 5, "calibration": {"CalibCPM_0": 100, "CalibuSv_0": 0.6499999761581421, "CalibCPM_1": 30000, "CalibuSv_1": 195.0, "CalibCPM_2": 25, "CalibuSv_2": 4.849999904632568}}}}
{"class": "POLL", "time": "2020-09-12T19:18:01.648Z", "active": 1, "tpv": [{"class": "TPV", "device": "/dev/ttyUSB1", "mode": 3, "time": "2020-09-12T19:42:28.000Z", "ept": 0.005, "lat": 33.660134008, "lon": -84.124025708, "alt": 252.12, "epx": 10.396, "epy": 9.782, "epv": 32.66, "track": 0.0, "speed": 0.0, "climb": 0.0, "eps": 20.79, "epc": 65.32}], "gst": [{"class": "GST", "device": "/dev/ttyUSB1", "time": "1970-01-01T00:00:00.000Z", "rms": 0.0, "major": 0.0, "minor": 0.0, "orient": 0.0, "lat": 0.0, "lon": 0.0, "alt": 0.0}], "sky": [{"class": "SKY", "device": "/dev/ttyUSB1", "time": "2020-09-12T19:42:26.000Z", "xdop": 0.69, "ydop": 0.65, "vdop": 1.42, "hdop": 0.8, "gdop": 1.93, "pdop": 1.71, "satellites": [{"PRN": 15, "el": 53, "az": 42, "ss": 34, "used": true}, {"PRN": 29, "el": 21, "az": 192, "ss": 28, "used": true}, {"PRN": 24, "el": 38, "az": 132, "ss": 38, "used": true}, {"PRN": 10, "el": 24, "az": 288, "ss": 24, "used": true}, {"PRN": 18, "el": 82, "az": 334, "ss": 40, "used": true}, {"PRN": 13, "el": 21, "az": 42, "ss": 32, "used": true}, {"PRN": 20, "el": 51, "az": 313, "ss": 35, "used": true}, {"PRN": 27, "el": 11, "az": 318, "ss": 25, "used": true}, {"PRN": 32, "el": 3, "az": 225, "ss": 14, "used": true}, {"PRN": 21, "el": 84, "az": 160, "ss": 0, "used": false}, {"PRN": 4, "el": 35, "az": 133, "ss": 0, "used": false}, {"PRN": 138, "el": 43, "az": 217, "ss": 28, "used": true}]}], "_extra_data": {"message": "2 CPS | 22 CPM", "data": {"time": 1599938281.545665, "cps": 2, "cpsl": 0, "cpsh": 0, "cpm": 22, "cpml": 21, "cpmh": 0, "maxcps": 5, "calibration": {"CalibCPM_0": 100, "CalibuSv_0": 0.6499999761581421, "CalibCPM_1": 30000, "CalibuSv_1": 195.0, "CalibCPM_2": 25, "CalibuSv_2": 4.849999904632568}}}}
{"class": "POLL", "time": "2020-09-12T19:18:06.718Z", "active": 1, "tpv": [{"class": "TPV", "device": "/dev/ttyUSB1", "mode": 3, "time": "2020-09-12T19:42:33.000Z", "ept": 0.005, "lat": 33.660141512, "lon": -84.124025708, "alt": 252.675, "epx": 10.396, "epy": 9.782, "epv": 32.66, "track": 47.0017, "speed": 0.528, "climb": 0.136, "eps": 20.79, "epc": 65.32}], "gst": [{"class": "GST", "device": "/dev/ttyUSB1", "time": "1970-01-01T00:00:00.000Z", "rms": 0.0, "major": 0.0, "minor": 0.0, "orient": 0.0, "lat": 0.0, "lon": 0.0, "alt": 0.0}], "sky": [{"class": "SKY", "device": "/dev/ttyUSB1", "time": "2020-09-12T19:42:32.000Z", "xdop": 0.69, "ydop": 0.65, "vdop": 1.42, "hdop": 0.8, "gdop": 1.93, "pdop": 1.71, "satellites": [{"PRN": 15, "el": 53, "az": 42, "ss": 28, "used": true}, {"PRN": 29, "el": 21, "az": 192, "ss": 27, "used": true}, {"PRN": 24, "el": 38, "az": 132, "ss": 45, "used": true}, {"PRN": 10, "el": 24, "az": 288, "ss": 32, "used": true}, {"PRN": 18, "el": 82, "az": 334, "ss": 37, "used": true}, {"PRN": 13, "el": 21, "az": 42, "ss": 24, "used": true}, {"PRN": 20, "el": 51, "az": 313, "ss": 29, "used": true}, {"PRN": 27, "el": 11, "az": 318, "ss": 17, "used": true}, {"PRN": 32, "el": 3, "az": 225, "ss": 14, "used": true}, {"PRN": 21, "el": 84, "az": 160, "ss": 0, "used": false}, {"PRN": 4, "el": 35, "az": 133, "ss": 0, "used": false}, {"PRN": 138, "el": 43, "az": 217, "ss": 38, "used": true}]}], "_extra_data": {"message": "2 CPS | 22 CPM", "data": {"time": 1599938281.545665, "cps": 2, "cpsl": 0, "cpsh": 0, "cpm": 22, "cpml": 21, "cpmh": 0, "maxcps": 5, "calibration": {"CalibCPM_0": 100, "CalibuSv_0": 0.6499999761581421, "CalibCPM_1": 30000, "CalibuSv_1": 195.0, "CalibCPM_2": 25, "CalibuSv_2": 4.849999904632568}}}}
{"class": "POLL", "time": "2020-09-12T19:18:11.786Z", "active": 1, "tpv": [{"class": "TPV", "device": "/dev/ttyUSB1", "status": 2, "mode": 3, "time": "2020-09-12T19:42:38.000Z", "ept": 0.005, "lat": 33.660144557, "lon": -84.124037536, "alt": 253.972, "epx": 2.599, "epy": 2.446, "epv": 8.165, "track": 0.0, "speed": 0.0, "climb": 0.0, "eps": 5.2, "epc": 16.33}], "gst": [{"class": "GST", "device": "/dev/ttyUSB1", "time": "1970-01-01T00:00:00.000Z", "rms": 0.0, "major": 0.0, "minor": 0.0, "orient": 0.0, "lat": 0.0, "lon": 0.0, "alt": 0.0}], "sky": [{"class": "SKY", "device": "/dev/ttyUSB1", "time": "2020-09-12T19:42:38.000Z", "xdop": 0.69, "ydop": 0.65, "vdop": 1.42, "hdop": 1.2, "gdop": 1.93, "pdop": 1.71, "satellites": [{"PRN": 15, "el": 53, "az": 42, "ss": 31, "used": true}, {"PRN": 29, "el": 21, "az": 192, "ss": 8, "used": true}, {"PRN": 24, "el": 38, "az": 132, "ss": 42, "used": true}, {"PRN": 10, "el": 24, "az": 288, "ss": 22, "used": true}, {"PRN": 18, "el": 82, "az": 334, "ss": 41, "used": true}, {"PRN": 13, "el": 21, "az": 42, "ss": 31, "used": true}, {"PRN": 20, "el": 51, "az": 313, "ss": 28, "used": true}, {"PRN": 27, "el": 11, "az": 318, "ss": 24, "used": true}, {"PRN": 32, "el": 3, "az": 225, "ss": 14, "used": true}, {"PRN": 21, "el": 84, "az": 160, "ss": 0, "used": false}, {"PRN": 4, "el": 35, "az": 133, "ss": 0, "used": false}, {"PRN": 138, "el": 43, "az": 217, "ss": 28, "used": true}]}], "_extra_data": {"message": "1 CPS | 25 CPM", "data": {"time": 1599938289.077591, "cps": 1, "cpsl": 0, "cpsh": 0, "cpm": 25, "cpml": 23, "cpmh": 2, "maxcps": 5, "calibration": {"CalibCPM_0": 100, "CalibuSv_0": 0.6499999761581421, "CalibCPM_1": 30000, "CalibuSv_1": 195.0, "CalibCPM_2": 25, "CalibuSv_2": 4.849999904632568}}}}
{"class": "POLL", "time": "2020-09-12T19:18:16.851Z", "active": 1, "tpv": [{"class": "TPV", "device": "/dev/ttyUSB1", "status": 2, "mode": 3, "time": "2020-09-12T19:42:43.000Z", "ept": 0.005, "lat": 33.660144557, "lon": -84.124037536, "alt": 253.972, "epx": 2.599, "epy": 2.446, "epv": 8.165, "track": 0.0, "speed": 0.0, "climb": 0.0, "eps": 5.2, "epc": 16.33}], "gst": [{"class": "GST", "device": "/dev/ttyUSB1", "time": "1970-01-01T00:00:00.000Z", "rms": 0.0, "major": 0.0, "minor": 0.0, "orient": 0.0, "lat": 0.0, "lon": 0.0, "alt": 0.0}], "sky": [{"class": "SKY", "device": "/dev/ttyUSB1", "time": "2020-09-12T19:42:41.000Z", "xdop": 0.69, "ydop": 0.65, "vdop": 1.42, "hdop": 1.2, "gdop": 1.93, "pdop": 1.71, "satellites": [{"PRN": 15, "el": 53, "az": 42, "ss": 39, "used": true}, {"PRN": 29, "el": 21, "az": 192, "ss": 16, "used": true}, {"PRN": 24, "el": 38, "az": 132, "ss": 41, "used": true}, {"PRN": 10, "el": 24, "az": 288, "ss": 21, "used": true}, {"PRN": 18, "el": 82, "az": 334, "ss": 42, "used": true}, {"PRN": 13, "el": 21, "az": 42, "ss": 30, "used": true}, {"PRN": 20, "el": 51, "az": 313, "ss": 28, "used": true}, {"PRN": 27, "el": 11, "az": 318, "ss": 19, "used": true}, {"PRN": 32, "el": 3, "az": 225, "ss": 15, "used": true}, {"PRN": 21, "el": 84, "az": 160, "ss": 0, "used": false}, {"PRN": 4, "el": 35, "az": 133, "ss": 0, "used": false}, {"PRN": 138, "el": 43, "az": 217, "ss": 26, "used": true}]}], "_extra_data": {"message": "1 CPS | 29 CPM", "data": {"time": 1599938296.5957172, "cps": 1, "cpsl": 0, "cpsh": 0, "cpm": 29, "cpml": 25, "cpmh": 3, "maxcps": 5, "calibration": {"CalibCPM_0": 100, "CalibuSv_0": 0.6499999761581421, "CalibCPM_1": 30000, "CalibuSv_1": 195.0, "CalibCPM_2": 25, "CalibuSv_2": 4.849999904632568}}}}
{"class": "POLL", "time": "2020-09-12T19:18:21.923Z", "active": 1, "tpv": [{"class": "TPV", "device": "/dev/ttyUSB1", "status": 2, "mode": 3, "time": "2020-09-12T19:42:48.000Z", "ept": 0.005, "lat": 33.660144557, "lon": -84.124037536, "alt": 253.972, "epx": 2.599, "epy": 2.446, "epv": 8.165, "track": 295.4269, "speed": 0.275, "climb": 0.048, "eps": 5.2, "epc": 16.33}], "gst": [{"class": "GST", "device": "/dev/ttyUSB1", "time": "1970-01-01T00:00:00.000Z", "rms": 0.0, "major": 0.0, "minor": 0.0, "orient": 0.0, "lat": 0.0, "lon": 0.0, "alt": 0.0}], "sky": [{"class": "SKY", "device": "/dev/ttyUSB1", "time": "2020-09-12T19:42:47.000Z", "xdop": 0.69, "ydop": 0.65, "vdop": 1.42, "hdop": 1.2, "gdop": 1.93, "pdop": 1.71, "satellites": [{"PRN": 15, "el": 53, "az": 42, "ss": 37, "used": true}, {"PRN": 29, "el": 21, "az": 192, "ss": 21, "used": true}, {"PRN": 24, "el": 38, "az": 132, "ss": 40, "used": true}, {"PRN": 10, "el": 24, "az": 288, "ss": 21, "used": true}, {"PRN": 18, "el": 82, "az": 334, "ss": 43, "used": true}, {"PRN": 13, "el": 21, "az": 42, "ss": 29, "used": true}, {"PRN": 20, "el": 51, "az": 313, "ss": 31, "used": true}, {"PRN": 27, "el": 11, "az": 318, "ss": 20, "used": true}, {"PRN": 32, "el": 3, "az": 225, "ss": 16, "used": true}, {"PRN": 21, "el": 84, "az": 160, "ss": 0, "used": false}, {"PRN": 4, "el": 35, "az": 133, "ss": 0, "used": false}, {"PRN": 138, "el": 43, "az": 217, "ss": 0, "used": false}]}], "_extra_data": {"message": "1 CPS | 29 CPM", "data": {"time": 1599938296.5957172, "cps": 1, "cpsl": 0, "cpsh": 0, "cpm": 29, "cpml": 25, "cpmh": 3, "maxcps": 5, "calibration": {"CalibCPM_0": 100, "CalibuSv_0": 0.6499999761581421, "CalibCPM_1": 30000, "CalibuSv_1": 195.0, "CalibCPM_2": 25, "CalibuSv_2": 4.849999904632568}}}}
{"class": "POLL", "time": "2020-09-12T19:18:27.001Z", "active": 1, "tpv": [{"class": "TPV", "device": "/dev/ttyUSB1", "mode": 3, "time": "2020-09-12T19:42:53.000Z", "ept": 0.005, "lat": 33.660144557, "lon": -84.124037536, "alt": 253.972, "epx": 10.396, "epy": 9.782, "epv": 32.66, "track": 0.0, "speed": 0.0, "climb": 0.0, "eps": 20.79, "epc": 65.32}], "gst": [{"class": "GST", "device": "/dev/ttyUSB1", "time": "1970-01-01T00:00:00.000Z", "rms": 0.0, "major": 0.0, "minor": 0.0, "orient": 0.0, "lat": 0.0, "lon": 0.0, "alt": 0.0}], "sky": [{"class": "SKY", "device": "/dev/ttyUSB1", "time": "2020-09-12T19:42:53.000Z", "xdop": 0.69, "ydop": 0.65, "vdop": 1.42, "hdop": 0.8, "gdop": 1.93, "pdop": 1.71, "satellites": [{"PRN": 15, "el": 53, "az": 42, "ss": 37, "used": true}, {"PRN": 29, "el": 21, "az": 192, "ss": 20, "used": true}, {"PRN": 24, "el": 38, "az": 132, "ss": 40, "used": true}, {"PRN": 10, "el": 24, "az": 288, "ss": 16, "used": true}, {"PRN": 18, "el": 82, "az": 334, "ss": 43, "used": true}, {"PRN": 13, "el": 21, "az": 42, "ss": 30, "used": true}, {"PRN": 20, "el": 51, "az": 313, "ss": 38, "used": true}, {"PRN": 27, "el": 11, "az": 318, "ss": 26, "used": true}, {"PRN": 32, "el": 3, "az": 225, "ss": 17, "used": true}, {"PRN": 21, "el": 84, "az": 160, "ss": 0, "used": false}, {"PRN": 4, "el": 35, "az": 133, "ss": 0, "used": false}, {"PRN": 138, "el": 43, "az": 217, "ss": 36, "used": true}]}], "_extra_data": {"message": "1 CPS | 31 CPM", "data": {"time": 1599938304.123577, "cps": 1, "cpsl": 1, "cpsh": 0, "cpm": 31, "cpml": 28, "cpmh": 3, "maxcps": 5, "calibration": {"CalibCPM_0": 100, "CalibuSv_0": 0.6499999761581421, "CalibCPM_1": 30000, "CalibuSv_1": 195.0, "CalibCPM_2": 25, "CalibuSv_2": 4.849999904632568}}}}
{"class": "POLL", "time": "2020-09-12T19:18:32.073Z", "active": 1, "tpv": [{"class": "TPV", "device": "/dev/ttyUSB1", "status": 2, "mode": 3, "time": "2020-09-12T19:42:58.000Z", "ept": 0.005, "lat": 33.660142023, "lon": -84.124036433, "alt": 252.59, "epx": 2.599, "epy": 2.446, "epv": 8.165, "track": 0.0, "speed": 0.0, "climb": 0.0, "eps": 5.2, "epc": 16.33}], "gst": [{"class": "GST", "device": "/dev/ttyUSB1", "time": "1970-01-01T00:00:00.000Z", "rms": 0.0, "major": 0.0, "minor": 0.0, "orient": 0.0, "lat": 0.0, "lon": 0.0, "alt": 0.0}], "sky": [{"class": "SKY", "device": "/dev/ttyUSB1", "time": "2020-09-12T19:42:56.000Z", "xdop": 0.69, "ydop": 0.65, "vdop": 1.42, "hdop": 0.8, "gdop": 1.93, "pdop": 1.71, "satellites": [{"PRN": 15, "el": 53, "az": 42, "ss": 37, "used": true}, {"PRN": 29, "el": 20, "az": 192, "ss": 20, "used": true}, {"PRN": 24, "el": 39, "az": 132, "ss": 40, "used": true}, {"PRN": 10, "el": 24, "az": 288, "ss": 23, "used": true}, {"PRN": 18, "el": 82, "az": 334, "ss": 43, "used": true}, {"PRN": 13, "el": 21, "az": 42, "ss": 34, "used": true}, {"PRN": 20, "el": 51, "az": 315, "ss": 38, "used": true}, {"PRN": 27, "el": 11, "az": 316, "ss": 25, "used": true}, {"PRN": 32, "el": 3, "az": 225, "ss": 17, "used": true}, {"PRN": 21, "el": 83, "az": 160, "ss": 0, "used": false}, {"PRN": 4, "el": 35, "az": 135, "ss": 0, "used": false}, {"PRN": 138, "el": 43, "az": 217, "ss": 41, "used": true}]}], "_extra_data": {"message": "1 CPS | 32 CPM", "data": {"time": 1599938311.6563132, "cps": 1, "cpsl": 0, "cpsh": 0, "cpm": 32, "cpml": 29, "cpmh": 3, "maxcps": 5, "calibration": {"CalibCPM_0": 100, "CalibuSv_0": 0.6499999761581421, "CalibCPM_1": 30000, "CalibuSv_1": 195.0, "CalibCPM_2": 25, "CalibuSv_2": 4.849999904632568}}}}
{"class": "POLL", "time": "2020-09-12T19:18:37.129Z", "active": 1, "tpv": [{"class": "TPV", "device": "/dev/ttyUSB1", "status": 2, "mode": 3, "time": "2020-09-12T19:43:03.000Z", "ept": 0.005, "lat": 33.660142023, "lon": -84.124036433, "alt": 252.59, "epx": 2.599, "epy": 2.446, "epv": 8.165, "track": 258.1776, "speed": 0.267, "climb": 0.082, "eps": 5.2, "epc": 16.33}], "gst": [{"class": "GST", "device": "/dev/ttyUSB1", "time": "1970-01-01T00:00:00.000Z", "rms": 0.0, "major": 0.0, "minor": 0.0, "orient": 0.0, "lat": 0.0, "lon": 0.0, "alt": 0.0}], "sky": [{"class": "SKY", "device": "/dev/ttyUSB1", "time": "2020-09-12T19:43:02.000Z", "xdop": 0.69, "ydop": 0.65, "vdop": 1.42, "hdop": 0.8, "gdop": 1.93, "pdop": 1.71, "satellites": [{"PRN": 15, "el": 53, "az": 42, "ss": 45, "used": true}, {"PRN": 29, "el": 20, "az": 192, "ss": 20, "used": true}, {"PRN": 24, "el": 39, "az": 132, "ss": 40, "used": true}, {"PRN": 10, "el": 24, "az": 288, "ss": 30, "used": true}, {"PRN": 18, "el": 82, "az": 334, "ss": 41, "used": true}, {"PRN": 13, "el": 21, "az": 42, "ss": 36, "used": true}, {"PRN": 20, "el": 51, "az": 315, "ss": 38, "used": true}, {"PRN": 27, "el": 11, "az": 316, "ss": 26, "used": true}, {"PRN": 32, "el": 3, "az": 225, "ss": 16, "used": true}, {"PRN": 21, "el": 83, "az": 160, "ss": 18, "used": true}, {"PRN": 4, "el": 35, "az": 135, "ss": 0, "used": false}, {"PRN": 138, "el": 43, "az": 217, "ss": 46, "used": true}]}], "_extra_data": {"message": "1 CPS | 32 CPM", "data": {"time": 1599938311.6563132, "cps": 1, "cpsl": 0, "cpsh": 0, "cpm": 32, "cpml": 29, "cpmh": 3, "maxcps": 5, "calibration": {"CalibCPM_0": 100, "CalibuSv_0": 0.6499999761581421, "CalibCPM_1": 30000, "CalibuSv_1": 195.0, "CalibCPM_2": 25, "CalibuSv_2": 4.849999904632568}}}}
{"class": "POLL", "time": "2020-09-12T19:18:42.199Z", "active": 1, "tpv": [{"class": "TPV", "device": "/dev/ttyUSB1", "status": 2, "mode": 3, "time": "2020-09-12T19:43:09.000Z", "ept": 0.005, "lat": 33.660140097, "lon": -84.124049365, "alt": 254.715, "epx": 2.599, "epy": 2.446, "epv": 8.165, "track": 148.2212, "speed": 0.212, "climb": 0.045, "eps": 5.2, "epc": 16.33}], "gst": [{"class": "GST", "device": "/dev/ttyUSB1", "time": "1970-01-01T00:00:00.000Z", "rms": 0.0, "major": 0.0, "minor": 0.0, "orient": 0.0, "lat": 0.0, "lon": 0.0, "alt": 0.0}], "sky": [{"class": "SKY", "device": "/dev/ttyUSB1", "time": "2020-09-12T19:43:08.000Z", "xdop": 0.69, "ydop": 0.65, "vdop": 1.42, "hdop": 1.0, "gdop": 1.93, "pdop": 1.71, "satellites": [{"PRN": 15, "el": 53, "az": 42, "ss": 46, "used": true}, {"PRN": 29, "el": 20, "az": 192, "ss": 27, "used": true}, {"PRN": 24, "el": 39, "az": 132, "ss": 38, "used": true}, {"PRN": 10, "el": 24, "az": 288, "ss": 29, "used": true}, {"PRN": 18, "el": 82, "az": 334, "ss": 42, "used": true}, {"PRN": 13, "el": 21, "az": 42, "ss": 36, "used": true}, {"PRN": 20, "el": 51, "az": 315, "ss": 35, "used": true}, {"PRN": 27, "el": 11, "az": 316, "ss": 27, "used": true}, {"PRN": 32, "el": 3, "az": 225, "ss": 16, "used": true}, {"PRN": 21, "el": 83, "az": 160, "ss": 2, "used": false}, {"PRN": 4, "el": 35, "az": 135, "ss": 0, "used": false}, {"PRN": 138, "el": 43, "az": 217, "ss": 46, "used": true}]}], "_extra_data": {"message": "1 CPS | 33 CPM", "data": {"time": 1599938319.160279, "cps": 1, "cpsl": 1, "cpsh": 0, "cpm": 33, "cpml": 30, "cpmh": 3, "maxcps": 5, "calibration": {"CalibCPM_0": 100, "CalibuSv_0": 0.6499999761581421, "CalibCPM_1": 30000, "CalibuSv_1": 195.0, "CalibCPM_2": 25, "CalibuSv_2": 4.849999904632568}}}}
{"class": "POLL", "time": "2020-09-12T19:18:47.265Z", "active": 1, "tpv": [{"class": "TPV", "device": "/dev/ttyUSB1", "status": 2, "mode": 3, "time": "2020-09-12T19:43:13.000Z", "ept": 0.005, "lat": 33.660140097, "lon": -84.124049365, "alt": 254.715, "epx": 2.599, "epy": 2.446, "epv": 8.165, "track": 4.2314, "speed": 0.173, "climb": -0.034, "eps": 5.2, "epc": 16.33}], "gst": [{"class": "GST", "device": "/dev/ttyUSB1", "time": "1970-01-01T00:00:00.000Z", "rms": 0.0, "major": 0.0, "minor": 0.0, "orient": 0.0, "lat": 0.0, "lon": 0.0, "alt": 0.0}], "sky": [{"class": "SKY", "device": "/dev/ttyUSB1", "time": "2020-09-12T19:43:11.000Z", "xdop": 0.69, "ydop": 0.65, "vdop": 1.42, "hdop": 0.8, "gdop": 1.93, "pdop": 1.71, "satellites": [{"PRN": 15, "el": 53, "az": 42, "ss": 45, "used": true}, {"PRN": 29, "el": 20, "az": 192, "ss": 23, "used": true}, {"PRN": 24, "el": 39, "az": 132, "ss": 35, "used": true}, {"PRN": 10, "el": 24, "az": 288, "ss": 29, "used": true}, {"PRN": 18, "el": 82, "az": 334, "ss": 42, "used": true}, {"PRN": 13, "el": 21, "az": 42, "ss": 36, "used": true}, {"PRN": 20, "el": 51, "az": 315, "ss": 34, "used": true}, {"PRN": 27, "el": 11, "az": 316, "ss": 20, "used": true}, {"PRN": 32, "el": 3, "az": 225, "ss": 16, "used": true}, {"PRN": 21, "el": 83, "az": 160, "ss": 6, "used": false}, {"PRN": 4, "el": 35, "az": 135, "ss": 0, "used": false}, {"PRN": 138, "el": 43, "az": 217, "ss": 45, "used": true}]}], "_extra_data": {"message": "0 CPS | 26 CPM", "data": {"time": 1599938326.705496, "cps": 0, "cpsl": 0, "cpsh": 0, "cpm": 26, "cpml": 24, "cpmh": 3, "maxcps": 5, "calibration": {"CalibCPM_0": 100, "CalibuSv_0": 0.6499999761581421, "CalibCPM_1": 30000, "CalibuSv_1": 195.0, "CalibCPM_2": 25, "CalibuSv_2": 4.849999904632568}}}}
{"class": "POLL", "time": "2020-09-12T19:18:52.324Z", "active": 1, "tpv": [{"class": "TPV", "device": "/dev/ttyUSB1", "status": 2, "mode": 3, "time": "2020-09-12T19:43:19.000Z", "ept": 0.005, "lat": 33.660150646, "lon": -84.124061193, "alt": 256.566, "epx": 2.599, "epy": 2.446, "epv": 8.165, "track": 0.0, "speed": 0.0, "climb": 0.0, "eps": 5.2, "epc": 16.33}], "gst": [{"class": "GST", "device": "/dev/ttyUSB1", "time": "1970-01-01T00:00:00.000Z", "rms": 0.0, "major": 0.0, "minor": 0.0, "orient": 0.0, "lat": 0.0, "lon": 0.0, "alt": 0.0}], "sky": [{"class": "SKY", "device": "/dev/ttyUSB1", "time": "2020-09-12T19:43:17.000Z", "xdop": 0.69, "ydop": 0.65, "vdop": 1.42, "hdop": 0.8, "gdop": 1.93, "pdop": 1.71, "satellites": [{"PRN": 15, "el": 53, "az": 42, "ss": 39, "used": true}, {"PRN": 29, "el": 20, "az": 192, "ss": 18, "used": false}, {"PRN": 24, "el": 39, "az": 132, "ss": 37, "used": true}, {"PRN": 10, "el": 24, "az": 288, "ss": 34, "used": true}, {"PRN": 18, "el": 82, "az": 334, "ss": 42, "used": true}, {"PRN": 13, "el": 21, "az": 42, "ss": 23, "used": true}, {"PRN": 20, "el": 51, "az": 315, "ss": 20, "used": true}, {"PRN": 27, "el": 11, "az": 316, "ss": 24, "used": true}, {"PRN": 32, "el": 3, "az": 225, "ss": 16, "used": true}, {"PRN": 21, "el": 83, "az": 160, "ss": 0, "used": false}, {"PRN": 4, "el": 35, "az": 135, "ss": 0, "used": false}, {"PRN": 138, "el": 43, "az": 217, "ss": 40, "used": true}]}], "_extra_data": {"message": "0 CPS | 26 CPM", "data": {"time": 1599938326.705496, "cps": 0, "cpsl": 0, "cpsh": 0, "cpm": 26, "cpml": 24, "cpmh": 3, "maxcps": 5, "calibration": {"CalibCPM_0": 100, "CalibuSv_0": 0.6499999761581421, "CalibCPM_1": 30000, "CalibuSv_1": 195.0, "CalibCPM_2": 25, "CalibuSv_2": 4.849999904632568}}}}
{"class": "POLL", "time": "2020-09-12T19:18:57.388Z", "active": 1, "tpv": [{"class": "TPV", "device": "/dev/ttyUSB1", "status": 2, "mode": 3, "time": "2020-09-12T19:43:24.000Z", "ept": 0.005, "lat": 33.660150646, "lon": -84.124061193, "alt": 256.566, "epx": 2.599, "epy": 2.446, "epv": 8.165, "track": 0.0, "speed": 0.0, "climb": 0.0, "eps": 5.2, "epc": 16.33}], "gst": [{"class": "GST", "device": "/dev/ttyUSB1", "time": "1970-01-01T00:00:00.000Z", "rms": 0.0, "major": 0.0, "minor": 0.0, "orient": 0.0, "lat": 0.0, "lon": 0.0, "alt": 0.0}], "sky": [{"class": "SKY", "device": "/dev/ttyUSB1", "time": "2020-09-12T19:43:23.000Z", "xdop": 0.69, "ydop": 0.65, "vdop": 1.42, "hdop": 0.8, "gdop": 1.93, "pdop": 1.71, "satellites": [{"PRN": 15, "el": 53, "az": 42, "ss": 39, "used": true}, {"PRN": 29, "el": 20, "az": 192, "ss": 25, "used": true}, {"PRN": 24, "el": 39, "az": 132, "ss": 37, "used": true}, {"PRN": 10, "el": 24, "az": 288, "ss": 34, "used": true}, {"PRN": 18, "el": 82, "az": 334, "ss": 39, "used": true}, {"PRN": 13, "el": 21, "az": 42, "ss": 7, "used": true}, {"PRN": 20, "el": 51, "az": 315, "ss": 28, "used": true}, {"PRN": 27, "el": 11, "az": 316, "ss": 24, "used": true}, {"PRN": 32, "el": 3, "az": 225, "ss": 16, "used": true}, {"PRN": 21, "el": 83, "az": 160, "ss": 0, "used": false}, {"PRN": 4, "el": 35, "az": 135, "ss": 0, "used": false}, {"PRN": 138, "el": 43, "az": 217, "ss": 36, "used": true}]}], "_extra_data": {"message": "2 CPS | 27 CPM", "data": {"time": 1599938334.2027788, "cps": 2, "cpsl": 2, "cpsh": 0, "cpm": 27, "cpml": 23, "cpmh": 4, "maxcps": 5, "calibration": {"CalibCPM_0": 100, "CalibuSv_0": 0.6499999761581421, "CalibCPM_1": 30000, "CalibuSv_1": 195.0, "CalibCPM_2": 25, "CalibuSv_2": 4.849999904632568}}}}
{"class": "POLL", "time": "2020-09-12T19:19:02.437Z", "active": 1, "tpv": [{"class": "TPV", "device": "/dev/ttyUSB1", "status": 2, "mode": 3, "time": "2020-09-12T19:43:28.000Z", "ept": 0.005, "lat": 33.660150646, "lon": -84.124061193, "alt": 256.566, "epx": 2.599, "epy": 2.446, "epv": 8.165, "track": 0.0, "speed": 0.0, "climb": 0.0, "eps": 5.2, "epc": 16.33}], "gst": [{"class": "GST", "device": "/dev/ttyUSB1", "time": "1970-01-01T00:00:00.000Z", "rms": 0.0, "major": 0.0, "minor": 0.0, "orient": 0.0, "lat": 0.0, "lon": 0.0, "alt": 0.0}], "sky": [{"class": "SKY", "device": "/dev/ttyUSB1", "time": "2020-09-12T19:43:26.000Z", "xdop": 0.69, "ydop": 0.65, "vdop": 1.42, "hdop": 0.8, "gdop": 1.93, "pdop": 1.71, "satellites": [{"PRN": 15, "el": 53, "az": 42, "ss": 39, "used": true}, {"PRN": 29, "el": 20, "az": 192, "ss": 24, "used": true}, {"PRN": 24, "el": 39, "az": 132, "ss": 37, "used": true}, {"PRN": 10, "el": 24, "az": 288, "ss": 34, "used": true}, {"PRN": 18, "el": 82, "az": 334, "ss": 39, "used": true}, {"PRN": 13, "el": 21, "az": 42, "ss": 18, "used": true}, {"PRN": 20, "el": 51, "az": 315, "ss": 23, "used": true}, {"PRN": 27, "el": 11, "az": 316, "ss": 25, "used": true}, {"PRN": 32, "el": 3, "az": 225, "ss": 16, "used": true}, {"PRN": 21, "el": 83, "az": 160, "ss": 0, "used": false}, {"PRN": 4, "el": 35, "az": 135, "ss": 0, "used": false}, {"PRN": 138, "el": 43, "az": 217, "ss": 35, "used": true}]}], "_extra_data": {"message": "0 CPS | 29 CPM", "data": {"time": 1599938341.725445, "cps": 0, "cpsl": 0, "cpsh": 0, "cpm": 29, "cpml": 25, "cpmh": 4, "maxcps": 5, "calibration": {"CalibCPM_0": 100, "CalibuSv_0": 0.6499999761581421, "CalibCPM_1": 30000, "CalibuSv_1": 195.0, "CalibCPM_2": 25, "CalibuSv_2": 4.849999904632568}}}}
{"class": "POLL", "time": "2020-09-12T19:19:07.521Z", "active": 1, "tpv": [{"class": "TPV", "device": "/dev/ttyUSB1", "status": 2, "mode": 3, "time": "2020-09-12T19:43:34.000Z", "ept": 0.005, "lat": 33.660150646, "lon": -84.124061193, "alt": 256.566, "epx": 2.599, "epy": 2.446, "epv": 8.165, "track": 0.0, "speed": 0.0, "climb": 0.0, "eps": 5.2, "epc": 16.33}], "gst": [{"class": "GST", "device": "/dev/ttyUSB1", "time": "1970-01-01T00:00:00.000Z", "rms": 0.0, "major": 0.0, "minor": 0.0, "orient": 0.0, "lat": 0.0, "lon": 0.0, "alt": 0.0}], "sky": [{"class": "SKY", "device": "/dev/ttyUSB1", "time": "2020-09-12T19:43:32.000Z", "xdop": 0.69, "ydop": 0.65, "vdop": 1.42, "hdop": 0.8, "gdop": 1.93, "pdop": 1.71, "satellites": [{"PRN": 15, "el": 53, "az": 42, "ss": 38, "used": true}, {"PRN": 29, "el": 20, "az": 192, "ss": 23, "used": true}, {"PRN": 24, "el": 39, "az": 132, "ss": 38, "used": true}, {"PRN": 10, "el": 24, "az": 288, "ss": 33, "used": true}, {"PRN": 18, "el": 82, "az": 334, "ss": 37, "used": true}, {"PRN": 13, "el": 21, "az": 42, "ss": 21, "used": true}, {"PRN": 20, "el": 51, "az": 315, "ss": 29, "used": true}, {"PRN": 27, "el": 11, "az": 316, "ss": 25, "used": true}, {"PRN": 32, "el": 3, "az": 225, "ss": 14, "used": true}, {"PRN": 21, "el": 83, "az": 160, "ss": 14, "used": false}, {"PRN": 4, "el": 35, "az": 135, "ss": 0, "used": false}, {"PRN": 138, "el": 43, "az": 217, "ss": 32, "used": true}]}], "_extra_data": {"message": "0 CPS | 29 CPM", "data": {"time": 1599938341.725445, "cps": 0, "cpsl": 0, "cpsh": 0, "cpm": 29, "cpml": 25, "cpmh": 4, "maxcps": 5, "calibration": {"CalibCPM_0": 100, "CalibuSv_0": 0.6499999761581421, "CalibCPM_1": 30000, "CalibuSv_1": 195.0, "CalibCPM_2": 25, "CalibuSv_2": 4.849999904632568}}}}
{"class": "POLL", "time": "2020-09-12T19:19:12.596Z", "active": 1, "tpv": [{"class": "TPV", "device": "/dev/ttyUSB1", "status": 2, "mode": 3, "time": "2020-09-12T19:43:39.000Z", "ept": 0.005, "lat": 33.660150646, "lon": -84.124061193, "alt": 256.566, "epx": 2.599, "epy": 2.446, "epv": 8.165, "track": 0.0, "speed": 0.0, "climb": 0.0, "eps": 5.2, "epc": 16.33}], "gst": [{"class": "GST", "device": "/dev/ttyUSB1", "time": "1970-01-01T00:00:00.000Z", "rms": 0.0, "major": 0.0, "minor": 0.0, "orient": 0.0, "lat": 0.0, "lon": 0.0, "alt": 0.0}], "sky": [{"class": "SKY", "device": "/dev/ttyUSB1", "time": "2020-09-12T19:43:38.000Z", "xdop": 0.69, "ydop": 0.65, "vdop": 1.42, "hdop": 0.8, "gdop": 1.93, "pdop": 1.71, "satellites": [{"PRN": 15, "el": 53, "az": 42, "ss": 40, "used": true}, {"PRN": 29, "el": 20, "az": 192, "ss": 24, "used": true}, {"PRN": 24, "el": 39, "az": 132, "ss": 38, "used": true}, {"PRN": 10, "el": 24, "az": 288, "ss": 32, "used": true}, {"PRN": 18, "el": 82, "az": 334, "ss": 37, "used": true}, {"PRN": 13, "el": 21, "az": 42, "ss": 22, "used": true}, {"PRN": 20, "el": 51, "az": 315, "ss": 24, "used": true}, {"PRN": 27, "el": 11, "az": 316, "ss": 21, "used": true}, {"PRN": 32, "el": 3, "az": 225, "ss": 14, "used": true}, {"PRN": 21, "el": 83, "az": 160, "ss": 12, "used": true}, {"PRN": 4, "el": 35, "az": 135, "ss": 0, "used": false}, {"PRN": 138, "el": 43, "az": 217, "ss": 32, "used": true}]}], "_extra_data": {"message": "0 CPS | 27 CPM", "data": {"time": 1599938349.298217, "cps": 0, "cpsl": 0, "cpsh": 0, "cpm": 27, "cpml": 25, "cpmh": 2, "maxcps": 5, "calibration": {"CalibCPM_0": 100, "CalibuSv_0": 0.6499999761581421, "CalibCPM_1": 30000, "CalibuSv_1": 195.0, "CalibCPM_2": 25, "CalibuSv_2": 4.849999904632568}}}}
{"class": "POLL", "time": "2020-09-12T19:19:17.647Z", "active": 1, "tpv": [{"class": "TPV", "device": "/dev/ttyUSB1", "status": 2, "mode": 3, "time": "2020-09-12T19:43:44.000Z", "ept": 0.005, "lat": 33.660150646, "lon": -84.124061193, "alt": 256.566, "epx": 2.599, "epy": 2.446, "epv": 8.165, "track": 284.9079, "speed": 0.515, "climb": 0.027, "eps": 5.2, "epc": 16.33}], "gst": [{"class": "GST", "device": "/dev/ttyUSB1", "time": "1970-01-01T00:00:00.000Z", "rms": 0.0, "major": 0.0, "minor": 0.0, "orient": 0.0, "lat": 0.0, "lon": 0.0, "alt": 0.0}], "sky": [{"class": "SKY", "device": "/dev/ttyUSB1", "time": "2020-09-12T19:43:44.000Z", "xdop": 0.69, "ydop": 0.65, "vdop": 1.42, "hdop": 0.8, "gdop": 1.93, "pdop": 1.71, "satellites": [{"PRN": 15, "el": 53, "az": 42, "ss": 40, "used": true}, {"PRN": 29, "el": 20, "az": 192, "ss": 24, "used": true}, {"PRN": 24, "el": 39, "az": 132, "ss": 37, "used": true}, {"PRN": 10, "el": 24, "az": 288, "ss": 32, "used": true}, {"PRN": 18, "el": 82, "az": 334, "ss": 37, "used": true}, {"PRN": 13, "el": 21, "az": 42, "ss": 28, "used": true}, {"PRN": 20, "el": 51, "az": 315, "ss": 27, "used": true}, {"PRN": 27, "el": 11, "az": 316, "ss": 22, "used": true}, {"PRN": 32, "el": 3, "az": 225, "ss": 13, "used": true}, {"PRN": 21, "el": 83, "az": 160, "ss": 13, "used": true}, {"PRN": 4, "el": 35, "az": 135, "ss": 0, "used": false}, {"PRN": 138, "el": 43, "az": 217, "ss": 38, "used": true}]}], "_extra_data": {"message": "1 CPS | 25 CPM", "data": {"time": 1599938356.846893, "cps": 1, "cpsl": 1, "cpsh": 0, "cpm": 25, "cpml": 24, "cpmh": 1, "maxcps": 5, "calibration": {"CalibCPM_0": 100, "CalibuSv_0": 0.6499999761581421, "CalibCPM_1": 30000, "CalibuSv_1": 195.0, "CalibCPM_2": 25, "CalibuSv_2": 4.849999904632568}}}}
{"class": "POLL", "time": "2020-09-12T19:19:22.720Z", "active": 1, "tpv": [{"class": "TPV", "device": "/dev/ttyUSB1", "mode": 3, "time": "2020-09-12T19:43:49.000Z", "ept": 0.005, "lat": 33.660158662, "lon": -84.124071917, "alt": 257.035, "epx": 10.396, "epy": 9.782, "epv": 32.66, "track": 39.5839, "speed": 0.43, "climb": -0.047, "eps": 20.79, "epc": 65.32}], "gst": [{"class": "GST", "device": "/dev/ttyUSB1", "time": "1970-01-01T00:00:00.000Z", "rms": 0.0, "major": 0.0, "minor": 0.0, "orient": 0.0, "lat": 0.0, "lon": 0.0, "alt": 0.0}], "sky": [{"class": "SKY", "device": "/dev/ttyUSB1", "time": "2020-09-12T19:43:47.000Z", "xdop": 0.69, "ydop": 0.65, "vdop": 1.42, "hdop": 0.8, "gdop": 1.93, "pdop": 1.71, "satellites": [{"PRN": 15, "el": 53, "az": 42, "ss": 41, "used": true}, {"PRN": 29, "el": 20, "az": 192, "ss": 25, "used": true}, {"PRN": 24, "el": 39, "az": 132, "ss": 37, "used": true}, {"PRN": 10, "el": 24, "az": 288, "ss": 32, "used": true}, {"PRN": 18, "el": 83, "az": 334, "ss": 40, "used": true}, {"PRN": 13, "el": 20, "az": 42, "ss": 35, "used": true}, {"PRN": 20, "el": 51, "az": 315, "ss": 36, "used": true}, {"PRN": 27, "el": 11, "az": 316, "ss": 24, "used": true}, {"PRN": 32, "el": 4, "az": 225, "ss": 9, "used": true}, {"PRN": 21, "el": 83, "az": 160, "ss": 13, "used": true}, {"PRN": 4, "el": 34, "az": 135, "ss": 0, "used": false}, {"PRN": 138, "el": 43, "az": 217, "ss": 41, "used": true}]}], "_extra_data": {"message": "1 CPS | 25 CPM", "data": {"time": 1599938356.846893, "cps": 1, "cpsl": 1, "cpsh": 0, "cpm": 25, "cpml": 24, "cpmh": 1, "maxcps": 5, "calibration": {"CalibCPM_0": 100, "CalibuSv_0": 0.6499999761581421, "CalibCPM_1": 30000, "CalibuSv_1": 195.0, "CalibCPM_2": 25, "CalibuSv_2": 4.849999904632568}}}}
{"class": "POLL", "time": "2020-09-12T19:19:27.789Z", "active": 1, "tpv": [{"class": "TPV", "device": "/dev/ttyUSB1", "status": 2, "mode": 3, "time": "2020-09-12T19:43:54.000Z", "ept": 0.005, "lat": 33.660168603, "lon": -84.12406971, "alt": 255.379, "epx": 2.599, "epy": 2.446, "epv": 8.165, "track": 0.0, "speed": 0.0, "climb": 0.0, "eps": 5.2, "epc": 16.33}], "gst": [{"class": "GST", "device": "/dev/ttyUSB1", "time": "1970-01-01T00:00:00.000Z", "rms": 0.0, "major": 0.0, "minor": 0.0, "orient": 0.0, "lat": 0.0, "lon": 0.0, "alt": 0.0}], "sky": [{"class": "SKY", "device": "/dev/ttyUSB1", "time": "2020-09-12T19:43:53.000Z", "xdop": 0.69, "ydop": 0.65, "vdop": 1.42, "hdop": 0.8, "gdop": 1.93, "pdop": 1.71, "satellites": [{"PRN": 15, "el": 53, "az": 42, "ss": 42, "used": true}, {"PRN": 29, "el": 20, "az": 192, "ss": 27, "used": true}, {"PRN": 24, "el": 39, "az": 132, "ss": 38, "used": true}, {"PRN": 10, "el": 24, "az": 288, "ss": 28, "used": true}, {"PRN": 18, "el": 83, "az": 334, "ss": 42, "used": true}, {"PRN": 13, "el": 20, "az": 42, "ss": 36, "used": true}, {"PRN": 20, "el": 51, "az": 315, "ss": 36, "used": true}, {"PRN": 27, "el": 11, "az": 316, "ss": 24, "used": true}, {"PRN": 32, "el": 4, "az": 225, "ss": 12, "used": true}, {"PRN": 21, "el": 83, "az": 160, "ss": 0, "used": false}, {"PRN": 4, "el": 34, "az": 135, "ss": 0, "used": false}, {"PRN": 138, "el": 43, "az": 217, "ss": 42, "used": true}]}], "_extra_data": {"message": "0 CPS | 24 CPM", "data": {"time": 1599938364.390508, "cps": 0, "cpsl": 0, "cpsh": 0, "cpm": 24, "cpml": 21, "cpmh": 1, "maxcps": 5, "calibration": {"CalibCPM_0": 100, "CalibuSv_0": 0.6499999761581421, "CalibCPM_1": 30000, "CalibuSv_1": 195.0, "CalibCPM_2": 25, "CalibuSv_2": 4.849999904632568}}}}
{"class": "POLL", "time": "2020-09-12T19:19:32.866Z", "active": 1, "tpv": [{"class": "TPV", "device": "/dev/ttyUSB1", "status": 2, "mode": 3, "time": "2020-09-12T19:43:59.000Z", "ept": 0.005, "lat": 33.660181078, "lon": -84.124068606, "alt": 255.105, "epx": 2.599, "epy": 2.446, "epv": 8.165, "track": 0.0, "speed": 0.0, "climb": 0.0, "eps": 5.2, "epc": 16.33}], "gst": [{"class": "GST", "device": "/dev/ttyUSB1", "time": "1970-01-01T00:00:00.000Z", "rms": 0.0, "major": 0.0, "minor": 0.0, "orient": 0.0, "lat": 0.0, "lon": 0.0, "alt": 0.0}], "sky": [{"class": "SKY", "device": "/dev/ttyUSB1", "time": "2020-09-12T19:43:59.000Z", "xdop": 0.69, "ydop": 0.65, "vdop": 1.42, "hdop": 0.8, "gdop": 1.93, "pdop": 1.71, "satellites": [{"PRN": 15, "el": 53, "az": 42, "ss": 43, "used": true}, {"PRN": 29, "el": 20, "az": 192, "ss": 28, "used": true}, {"PRN": 24, "el": 39, "az": 132, "ss": 39, "used": true}, {"PRN": 10, "el": 24, "az": 288, "ss": 30, "used": true}, {"PRN": 18, "el": 83, "az": 334, "ss": 44, "used": true}, {"PRN": 13, "el": 20, "az": 42, "ss": 33, "used": true}, {"PRN": 20, "el": 51, "az": 315, "ss": 37, "used": true}, {"PRN": 27, "el": 11, "az": 316, "ss": 25, "used": true}, {"PRN": 32, "el": 4, "az": 225, "ss": 15, "used": true}, {"PRN": 21, "el": 83, "az": 160, "ss": 14, "used": true}, {"PRN": 4, "el": 34, "az": 135, "ss": 0, "used": false}, {"PRN": 138, "el": 43, "az": 217, "ss": 41, "used": true}]}], "_extra_data": {"message": "1 CPS | 25 CPM", "data": {"time": 1599938371.906571, "cps": 1, "cpsl": 1, "cpsh": 0, "cpm": 25, "cpml": 24, "cpmh": 1, "maxcps": 5, "calibration": {"CalibCPM_0": 100, "CalibuSv_0": 0.6499999761581421, "CalibCPM_1": 30000, "CalibuSv_1": 195.0, "CalibCPM_2": 25, "CalibuSv_2": 4.849999904632568}}}}
{"class": "POLL", "time": "2020-09-12T19:19:37.936Z", "active": 1, "tpv": [{"class": "TPV", "device": "/dev/ttyUSB1", "status": 2, "mode": 3, "time": "2020-09-12T19:44:04.000Z", "ept": 0.005, "lat": 33.660181078, "lon": -84.124068606, "alt": 255.105, "epx": 2.599, "epy": 2.446, "epv": 8.165, "track": 0.0, "speed": 0.0, "climb": 0.0, "eps": 5.2, "epc": 16.33}], "gst": [{"class": "GST", "device": "/dev/ttyUSB1", "time": "1970-01-01T00:00:00.000Z", "rms": 0.0, "major": 0.0, "minor": 0.0, "orient": 0.0, "lat": 0.0, "lon": 0.0, "alt": 0.0}], "sky": [{"class": "SKY", "device": "/dev/ttyUSB1", "time": "2020-09-12T19:44:02.000Z", "xdop": 0.69, "ydop": 0.65, "vdop": 1.42, "hdop": 0.8, "gdop": 1.93, "pdop": 1.71, "satellites": [{"PRN": 15, "el": 53, "az": 42, "ss": 44, "used": true}, {"PRN": 29, "el": 20, "az": 192, "ss": 28, "used": true}, {"PRN": 24, "el": 39, "az": 132, "ss": 39, "used": true}, {"PRN": 10, "el": 24, "az": 288, "ss": 29, "used": true}, {"PRN": 18, "el": 83, "az": 334, "ss": 44, "used": true}, {"PRN": 13, "el": 20, "az": 42, "ss": 34, "used": true}, {"PRN": 20, "el": 51, "az": 315, "ss": 38, "used": true}, {"PRN": 27, "el": 11, "az": 316, "ss": 26, "used": true}, {"PRN": 32, "el": 4, "az": 225, "ss": 14, "used": true}, {"PRN": 21, "el": 83, "az": 160, "ss": 0, "used": false}, {"PRN": 4, "el": 34, "az": 135, "ss": 0, "used": false}, {"PRN": 138, "el": 43, "az": 217, "ss": 41, "used": true}]}], "_extra_data": {"message": "1 CPS | 25 CPM", "data": {"time": 1599938371.906571, "cps": 1, "cpsl": 1, "cpsh": 0, "cpm": 25, "cpml": 24, "cpmh": 1, "maxcps": 5, "calibration": {"CalibCPM_0": 100, "CalibuSv_0": 0.6499999761581421, "CalibCPM_1": 30000, "CalibuSv_1": 195.0, "CalibCPM_2": 25, "CalibuSv_2": 4.849999904632568}}}}
{"class": "POLL", "time": "2020-09-12T19:19:43.001Z", "active": 1, "tpv": [{"class": "TPV", "device": "/dev/ttyUSB1", "status": 2, "mode": 3, "time": "2020-09-12T19:44:09.000Z", "ept": 0.005, "lat": 33.660176107, "lon": -84.12406971, "alt": 255.933, "epx": 2.599, "epy": 2.446, "epv": 8.165, "track": 0.0, "speed": 0.0, "climb": 0.0, "eps": 5.2, "epc": 16.33}], "gst": [{"class": "GST", "device": "/dev/ttyUSB1", "time": "1970-01-01T00:00:00.000Z", "rms": 0.0, "major": 0.0, "minor": 0.0, "orient": 0.0, "lat": 0.0, "lon": 0.0, "alt": 0.0}], "sky": [{"class": "SKY", "device": "/dev/ttyUSB1", "time": "2020-09-12T19:44:08.000Z", "xdop": 0.69, "ydop": 0.65, "vdop": 1.42, "hdop": 0.8, "gdop": 1.93, "pdop": 1.71, "satellites": [{"PRN": 15, "el": 53, "az": 42, "ss": 44, "used": true}, {"PRN": 29, "el": 20, "az": 192, "ss": 29, "used": true}, {"PRN": 24, "el": 39, "az": 132, "ss": 40, "used": true}, {"PRN": 10, "el": 24, "az": 288, "ss": 28, "used": true}, {"PRN": 18, "el": 83, "az": 334, "ss": 45, "used": true}, {"PRN": 13, "el": 20, "az": 42, "ss": 35, "used": true}, {"PRN": 20, "el": 51, "az": 315, "ss": 37, "used": true}, {"PRN": 27, "el": 11, "az": 316, "ss": 26, "used": true}, {"PRN": 21, "el": 83, "az": 160, "ss": 0, "used": false}, {"PRN": 4, "el": 34, "az": 135, "ss": 0, "used": false}, {"PRN": 32, "el": 4, "az": 225, "ss": 0, "used": false}, {"PRN": 138, "el": 43, "az": 217, "ss": 43, "used": true}]}], "_extra_data": {"message": "0 CPS | 25 CPM", "data": {"time": 1599938379.45144, "cps": 0, "cpsl": 0, "cpsh": 0, "cpm": 25, "cpml": 24, "cpmh": 2, "maxcps": 5, "calibration": {"CalibCPM_0": 100, "CalibuSv_0": 0.6499999761581421, "CalibCPM_1": 30000, "CalibuSv_1": 195.0, "CalibCPM_2": 25, "CalibuSv_2": 4.849999904632568}}}}
{"class": "POLL", "time": "2020-09-12T19:19:48.058Z", "active": 1, "tpv": [{"class": "TPV", "device": "/dev/ttyUSB1", "status": 2, "mode": 3, "time": "2020-09-12T19:44:14.000Z", "ept": 0.005, "lat": 33.66015664, "lon": -84.124081538, "alt": 255.567, "epx": 2.599, "epy": 2.446, "epv": 8.165, "track": 160.7422, "speed": 0.976, "climb": 0.03, "eps": 5.2, "epc": 16.33}], "gst": [{"class": "GST", "device": "/dev/ttyUSB1", "time": "1970-01-01T00:00:00.000Z", "rms": 0.0, "major": 0.0, "minor": 0.0, "orient": 0.0, "lat": 0.0, "lon": 0.0, "alt": 0.0}], "sky": [{"class": "SKY", "device": "/dev/ttyUSB1", "time": "2020-09-12T19:44:14.000Z", "xdop": 0.69, "ydop": 0.65, "vdop": 1.42, "hdop": 1.2, "gdop": 1.93, "pdop": 1.71, "satellites": [{"PRN": 15, "el": 53, "az": 42, "ss": 44, "used": true}, {"PRN": 21, "el": 83, "az": 160, "ss": 18, "used": false}, {"PRN": 24, "el": 39, "az": 132, "ss": 35, "used": true}, {"PRN": 10, "el": 24, "az": 288, "ss": 32, "used": true}, {"PRN": 18, "el": 83, "az": 334, "ss": 44, "used": true}, {"PRN": 13, "el": 20, "az": 42, "ss": 36, "used": true}, {"PRN": 20, "el": 51, "az": 315, "ss": 41, "used": true}, {"PRN": 27, "el": 11, "az": 316, "ss": 27, "used": true}, {"PRN": 29, "el": 20, "az": 192, "ss": 0, "used": false}, {"PRN": 4, "el": 34, "az": 135, "ss": 0, "used": false}, {"PRN": 32, "el": 4, "az": 225, "ss": 0, "used": false}, {"PRN": 138, "el": 43, "az": 217, "ss": 41, "used": true}]}], "_extra_data": {"message": "1 CPS | 28 CPM", "data": {"time": 1599938387.898593, "cps": 1, "cpsl": 0, "cpsh": 0, "cpm": 28, "cpml": 27, "cpmh": 1, "maxcps": 5, "calibration": {"CalibCPM_0": 100, "CalibuSv_0": 0.6499999761581421, "CalibCPM_1": 30000, "CalibuSv_1": 195.0, "CalibCPM_2": 25, "CalibuSv_2": 4.849999904632568}}}}
{"class": "POLL", "time": "2020-09-12T19:19:53.118Z", "active": 1, "tpv": [{"class": "TPV", "device": "/dev/ttyUSB1", "status": 2, "mode": 3, "time": "2020-09-12T19:44:19.000Z", "ept": 0.005, "lat": 33.660105622, "lon": -84.124061193, "alt": 253.24, "epx": 2.599, "epy": 2.446, "epv": 8.165, "track": 142.1342, "speed": 1.335, "climb": 0.004, "eps": 5.2, "epc": 16.33}], "gst": [{"class": "GST", "device": "/dev/ttyUSB1", "time": "1970-01-01T00:00:00.000Z", "rms": 0.0, "major": 0.0, "minor": 0.0, "orient": 0.0, "lat": 0.0, "lon": 0.0, "alt": 0.0}], "sky": [{"class": "SKY", "device": "/dev/ttyUSB1", "time": "2020-09-12T19:44:17.000Z", "xdop": 0.69, "ydop": 0.65, "vdop": 1.42, "hdop": 0.8, "gdop": 1.93, "pdop": 1.71, "satellites": [{"PRN": 15, "el": 53, "az": 42, "ss": 43, "used": true}, {"PRN": 29, "el": 20, "az": 192, "ss": 25, "used": true}, {"PRN": 24, "el": 39, "az": 132, "ss": 37, "used": true}, {"PRN": 10, "el": 24, "az": 288, "ss": 37, "used": true}, {"PRN": 18, "el": 83, "az": 334, "ss": 44, "used": true}, {"PRN": 13, "el": 20, "az": 42, "ss": 35, "used": true}, {"PRN": 20, "el": 51, "az": 315, "ss": 43, "used": true}, {"PRN": 27, "el": 11, "az": 316, "ss": 28, "used": true}, {"PRN": 21, "el": 83, "az": 160, "ss": 0, "used": false}, {"PRN": 4, "el": 34, "az": 135, "ss": 0, "used": false}, {"PRN": 32, "el": 4, "az": 225, "ss": 0, "used": false}, {"PRN": 138, "el": 43, "az": 217, "ss": 43, "used": true}]}], "_extra_data": {"message": "1 CPS | 28 CPM", "data": {"time": 1599938387.898593, "cps": 1, "cpsl": 0, "cpsh": 0, "cpm": 28, "cpml": 27, "cpmh": 1, "maxcps": 5, "calibration": {"CalibCPM_0": 100, "CalibuSv_0": 0.6499999761581421, "CalibCPM_1": 30000, "CalibuSv_1": 195.0, "CalibCPM_2": 25, "CalibuSv_2": 4.849999904632568}}}}
{"class": "POLL", "time": "2020-09-12T19:19:58.199Z", "active": 1, "tpv": [{"class": "TPV", "device": "/dev/ttyUSB1", "status": 2, "mode": 3, "time": "2020-09-12T19:44:25.000Z", "ept": 0.005, "lat": 33.660051048, "lon": -84.124018295, "alt": 249.701, "epx": 2.599, "epy": 2.446, "epv": 8.165, "track": 124.3728, "speed": 1.475, "climb": -0.102, "eps": 5.2, "epc": 16.33}], "gst": [{"class": "GST", "device": "/dev/ttyUSB1", "time": "1970-01-01T00:00:00.000Z", "rms": 0.0, "major": 0.0, "minor": 0.0, "orient": 0.0, "lat": 0.0, "lon": 0.0, "alt": 0.0}], "sky": [{"class": "SKY", "device": "/dev/ttyUSB1", "time": "2020-09-12T19:44:23.000Z", "xdop": 0.69, "ydop": 0.65, "vdop": 1.42, "hdop": 0.8, "gdop": 1.93, "pdop": 1.71, "satellites": [{"PRN": 15, "el": 53, "az": 42, "ss": 37, "used": true}, {"PRN": 29, "el": 20, "az": 192, "ss": 26, "used": true}, {"PRN": 24, "el": 39, "az": 132, "ss": 38, "used": true}, {"PRN": 10, "el": 24, "az": 288, "ss": 46, "used": true}, {"PRN": 18, "el": 83, "az": 334, "ss": 44, "used": true}, {"PRN": 13, "el": 20, "az": 42, "ss": 30, "used": true}, {"PRN": 20, "el": 51, "az": 315, "ss": 44, "used": true}, {"PRN": 27, "el": 11, "az": 316, "ss": 28, "used": true}, {"PRN": 4, "el": 34, "az": 135, "ss": 15, "used": false}, {"PRN": 5, "el": 1, "az": 85, "ss": 10, "used": false}, {"PRN": 21, "el": 83, "az": 160, "ss": 0, "used": false}, {"PRN": 138, "el": 43, "az": 217, "ss": 35, "used": true}]}], "_extra_data": {"message": "0 CPS | 30 CPM", "data": {"time": 1599938395.4854531, "cps": 0, "cpsl": 0, "cpsh": 0, "cpm": 30, "cpml": 25, "cpmh": 2, "maxcps": 5, "calibration": {"CalibCPM_0": 100, "CalibuSv_0": 0.6499999761581421, "CalibCPM_1": 30000, "CalibuSv_1": 195.0, "CalibCPM_2": 25, "CalibuSv_2": 4.849999904632568}}}}
{"class": "POLL", "time": "2020-09-12T19:20:03.247Z", "active": 1, "tpv": [{"class": "TPV", "device": "/dev/ttyUSB1", "status": 2, "mode": 3, "time": "2020-09-12T19:44:30.000Z", "ept": 0.005, "lat": 33.660010971, "lon": -84.123964672, "alt": 247.356, "epx": 2.599, "epy": 2.446, "epv": 8.165, "track": 130.1945, "speed": 1.269, "climb": -0.123, "eps": 5.2, "epc": 16.33}], "gst": [{"class": "GST", "device": "/dev/ttyUSB1", "time": "1970-01-01T00:00:00.000Z", "rms": 0.0, "major": 0.0, "minor": 0.0, "orient": 0.0, "lat": 0.0, "lon": 0.0, "alt": 0.0}], "sky": [{"class": "SKY", "device": "/dev/ttyUSB1", "time": "2020-09-12T19:44:29.000Z", "xdop": 0.69, "ydop": 0.65, "vdop": 1.42, "hdop": 0.8, "gdop": 1.93, "pdop": 1.71, "satellites": [{"PRN": 15, "el": 53, "az": 42, "ss": 38, "used": true}, {"PRN": 29, "el": 20, "az": 192, "ss": 28, "used": true}, {"PRN": 24, "el": 39, "az": 132, "ss": 32, "used": true}, {"PRN": 10, "el": 24, "az": 288, "ss": 46, "used": true}, {"PRN": 18, "el": 83, "az": 334, "ss": 44, "used": true}, {"PRN": 13, "el": 20, "az": 42, "ss": 31, "used": true}, {"PRN": 20, "el": 51, "az": 315, "ss": 44, "used": true}, {"PRN": 27, "el": 11, "az": 316, "ss": 28, "used": true}, {"PRN": 4, "el": 34, "az": 135, "ss": 16, "used": false}, {"PRN": 32, "el": 4, "az": 225, "ss": 18, "used": true}, {"PRN": 21, "el": 83, "az": 160, "ss": 0, "used": false}, {"PRN": 138, "el": 43, "az": 217, "ss": 34, "used": true}]}], "_extra_data": {"message": "0 CPS | 29 CPM", "data": {"time": 1599938403.018952, "cps": 0, "cpsl": 0, "cpsh": 0, "cpm": 29, "cpml": 27, "cpmh": 2, "maxcps": 5, "calibration": {"CalibCPM_0": 100, "CalibuSv_0": 0.6499999761581421, "CalibCPM_1": 30000, "CalibuSv_1": 195.0, "CalibCPM_2": 25, "CalibuSv_2": 4.849999904632568}}}}
{"class": "POLL", "time": "2020-09-12T19:20:08.333Z", "active": 1, "tpv": [{"class": "TPV", "device": "/dev/ttyUSB1", "status": 2, "mode": 3, "time": "2020-09-12T19:44:34.000Z", "ept": 0.005, "lat": 33.659953959, "lon": -84.123923982, "alt": 246.027, "epx": 2.599, "epy": 2.446, "epv": 8.165, "track": 116.2144, "speed": 1.51, "climb": -0.126, "eps": 5.2, "epc": 16.33}], "gst": [{"class": "GST", "device": "/dev/ttyUSB1", "time": "1970-01-01T00:00:00.000Z", "rms": 0.0, "major": 0.0, "minor": 0.0, "orient": 0.0, "lat": 0.0, "lon": 0.0, "alt": 0.0}], "sky": [{"class": "SKY", "device": "/dev/ttyUSB1", "time": "2020-09-12T19:44:32.000Z", "xdop": 0.69, "ydop": 0.65, "vdop": 1.42, "hdop": 0.8, "gdop": 1.93, "pdop": 1.71, "satellites": [{"PRN": 15, "el": 53, "az": 42, "ss": 36, "used": true}, {"PRN": 29, "el": 20, "az": 192, "ss": 30, "used": true}, {"PRN": 24, "el": 39, "az": 132, "ss": 41, "used": true}, {"PRN": 10, "el": 24, "az": 288, "ss": 45, "used": true}, {"PRN": 18, "el": 83, "az": 334, "ss": 44, "used": true}, {"PRN": 13, "el": 20, "az": 42, "ss": 31, "used": true}, {"PRN": 20, "el": 51, "az": 315, "ss": 44, "used": true}, {"PRN": 27, "el": 11, "az": 316, "ss": 35, "used": true}, {"PRN": 21, "el": 83, "az": 160, "ss": 0, "used": false}, {"PRN": 32, "el": 4, "az": 225, "ss": 17, "used": true}, {"PRN": 4, "el": 34, "az": 135, "ss": 0, "used": false}, {"PRN": 138, "el": 43, "az": 217, "ss": 38, "used": true}]}], "_extra_data": {"message": "0 CPS | 29 CPM", "data": {"time": 1599938403.018952, "cps": 0, "cpsl": 0, "cpsh": 0, "cpm": 29, "cpml": 27, "cpmh": 2, "maxcps": 5, "calibration": {"CalibCPM_0": 100, "CalibuSv_0": 0.6499999761581421, "CalibCPM_1": 30000, "CalibuSv_1": 195.0, "CalibCPM_2": 25, "CalibuSv_2": 4.849999904632568}}}}
{"class": "POLL", "time": "2020-09-12T19:20:13.420Z", "active": 1, "tpv": [{"class": "TPV", "device": "/dev/ttyUSB1", "status": 2, "mode": 3, "time": "2020-09-12T19:44:40.000Z", "ept": 0.005, "lat": 33.659903428, "lon": -84.123861842, "alt": 245.423, "epx": 2.599, "epy": 2.446, "epv": 8.165, "track": 120.6, "speed": 0.981, "climb": 0.074, "eps": 5.2, "epc": 16.33}], "gst": [{"class": "GST", "device": "/dev/ttyUSB1", "time": "1970-01-01T00:00:00.000Z", "rms": 0.0, "major": 0.0, "minor": 0.0, "orient": 0.0, "lat": 0.0, "lon": 0.0, "alt": 0.0}], "sky": [{"class": "SKY", "device": "/dev/ttyUSB1", "time": "2020-09-12T19:44:38.000Z", "xdop": 0.69, "ydop": 0.65, "vdop": 1.42, "hdop": 0.8, "gdop": 1.93, "pdop": 1.71, "satellites": [{"PRN": 15, "el": 53, "az": 42, "ss": 38, "used": true}, {"PRN": 29, "el": 20, "az": 192, "ss": 30, "used": true}, {"PRN": 24, "el": 39, "az": 132, "ss": 38, "used": true}, {"PRN": 10, "el": 24, "az": 288, "ss": 41, "used": true}, {"PRN": 18, "el": 83, "az": 334, "ss": 43, "used": true}, {"PRN": 13, "el": 20, "az": 42, "ss": 30, "used": true}, {"PRN": 20, "el": 51, "az": 315, "ss": 44, "used": true}, {"PRN": 27, "el": 11, "az": 316, "ss": 28, "used": true}, {"PRN": 4, "el": 34, "az": 135, "ss": 14, "used": true}, {"PRN": 32, "el": 4, "az": 225, "ss": 19, "used": true}, {"PRN": 21, "el": 83, "az": 160, "ss": 16, "used": true}, {"PRN": 138, "el": 43, "az": 217, "ss": 40, "used": true}]}], "_extra_data": {"message": "0 CPS | 31 CPM", "data": {"time": 1599938410.567178, "cps": 0, "cpsl": 1, "cpsh": 0, "cpm": 31, "cpml": 29, "cpmh": 2, "maxcps": 5, "calibration": {"CalibCPM_0": 100, "CalibuSv_0": 0.6499999761581421, "CalibCPM_1": 30000, "CalibuSv_1": 195.0, "CalibCPM_2": 25, "CalibuSv_2": 4.849999904632568}}}}
{"class": "POLL", "time": "2020-09-12T19:20:18.487Z", "active": 1, "tpv": [{"class": "TPV", "device": "/dev/ttyUSB1", "status": 2, "mode": 3, "time": "2020-09-12T19:44:45.000Z", "ept": 0.005, "lat": 33.659876433, "lon": -84.123821152, "alt": 246.311, "epx": 2.599, "epy": 2.446, "epv": 8.165, "track": 117.1649, "speed": 1.369, "climb": 0.036, "eps": 5.2, "epc": 16.33}], "gst": [{"class": "GST", "device": "/dev/ttyUSB1", "time": "1970-01-01T00:00:00.000Z", "rms": 0.0, "major": 0.0, "minor": 0.0, "orient": 0.0, "lat": 0.0, "lon": 0.0, "alt": 0.0}], "sky": [{"class": "SKY", "device": "/dev/ttyUSB1", "time": "2020-09-12T19:44:44.000Z", "xdop": 0.69, "ydop": 0.65, "vdop": 1.42, "hdop": 0.8, "gdop": 1.93, "pdop": 1.71, "satellites": [{"PRN": 15, "el": 53, "az": 42, "ss": 35, "used": true}, {"PRN": 29, "el": 20, "az": 192, "ss": 32, "used": true}, {"PRN": 24, "el": 39, "az": 132, "ss": 32, "used": true}, {"PRN": 10, "el": 24, "az": 288, "ss": 38, "used": true}, {"PRN": 18, "el": 83, "az": 334, "ss": 42, "used": true}, {"PRN": 13, "el": 20, "az": 42, "ss": 30, "used": true}, {"PRN": 20, "el": 51, "az": 315, "ss": 43, "used": true}, {"PRN": 27, "el": 11, "az": 316, "ss": 36, "used": true}, {"PRN": 21, "el": 83, "az": 160, "ss": 0, "used": false}, {"PRN": 5, "el": 1, "az": 85, "ss": 16, "used": false}, {"PRN": 4, "el": 34, "az": 135, "ss": 0, "used": false}, {"PRN": 138, "el": 43, "az": 217, "ss": 42, "used": true}]}], "_extra_data": {"message": "0 CPS | 37 CPM", "data": {"time": 1599938418.1010702, "cps": 0, "cpsl": 0, "cpsh": 0, "cpm": 37, "cpml": 35, "cpmh": 2, "maxcps": 5, "calibration": {"CalibCPM_0": 100, "CalibuSv_0": 0.6499999761581421, "CalibCPM_1": 30000, "CalibuSv_1": 195.0, "CalibCPM_2": 25, "CalibuSv_2": 4.849999904632568}}}}
{"class": "POLL", "time": "2020-09-12T19:20:23.522Z", "active": 1, "tpv": [{"class": "TPV", "device": "/dev/ttyUSB1", "status": 2, "mode": 3, "time": "2020-09-12T19:44:49.000Z", "ept": 0.005, "lat": 33.659871342, "lon": -84.123766425, "alt": 245.355, "epx": 2.599, "epy": 2.446, "epv": 8.165, "track": 84.1029, "speed": 1.526, "climb": -0.01, "eps": 5.2, "epc": 16.33}], "gst": [{"class": "GST", "device": "/dev/ttyUSB1", "time": "1970-01-01T00:00:00.000Z", "rms": 0.0, "major": 0.0, "minor": 0.0, "orient": 0.0, "lat": 0.0, "lon": 0.0, "alt": 0.0}], "sky": [{"class": "SKY", "device": "/dev/ttyUSB1", "time": "2020-09-12T19:44:50.000Z", "xdop": 0.69, "ydop": 0.65, "vdop": 1.42, "tdop": 0.84, "hdop": 0.8, "gdop": 1.93, "pdop": 1.71, "satellites": [{"PRN": 15, "el": 53, "az": 42, "ss": 37, "used": true}, {"PRN": 29, "el": 20, "az": 192, "ss": 26, "used": true}, {"PRN": 24, "el": 39, "az": 132, "ss": 34, "used": true}, {"PRN": 10, "el": 24, "az": 288, "ss": 38, "used": true}, {"PRN": 18, "el": 83, "az": 334, "ss": 32, "used": true}, {"PRN": 13, "el": 20, "az": 42, "ss": 36, "used": true}, {"PRN": 20, "el": 51, "az": 315, "ss": 39, "used": true}, {"PRN": 27, "el": 11, "az": 316, "ss": 28, "used": true}, {"PRN": 21, "el": 83, "az": 160, "ss": 12, "used": true}, {"PRN": 32, "el": 4, "az": 225, "ss": 0, "used": false}, {"PRN": 4, "el": 34, "az": 135, "ss": 19, "used": false}, {"PRN": 138, "el": 43, "az": 217, "ss": 31, "used": true}]}], "_extra_data": {"message": "0 CPS | 37 CPM", "data": {"time": 1599938418.1010702, "cps": 0, "cpsl": 0, "cpsh": 0, "cpm": 37, "cpml": 35, "cpmh": 2, "maxcps": 5, "calibration": {"CalibCPM_0": 100, "CalibuSv_0": 0.6499999761581421, "CalibCPM_1": 30000, "CalibuSv_1": 195.0, "CalibCPM_2": 25, "CalibuSv_2": 4.849999904632568}}}}
{"class": "POLL", "time": "2020-09-12T19:20:28.560Z", "active": 1, "tpv": [{"class": "TPV", "device": "/dev/ttyUSB1", "status": 2, "mode": 3, "time": "2020-09-12T19:44:55.000Z", "ept": 0.005, "lat": 33.65989271, "lon": -84.123689146, "alt": 245.404, "epx": 2.599, "epy": 2.446, "epv": 8.165, "track": 62.1675, "speed": 0.873, "climb": 0.065, "eps": 5.2, "epc": 16.33}], "gst": [{"class": "GST", "device": "/dev/ttyUSB1", "time": "1970-01-01T00:00:00.000Z", "rms": 0.0, "major": 0.0, "minor": 0.0, "orient": 0.0, "lat": 0.0, "lon": 0.0, "alt": 0.0}], "sky": [{"class": "SKY", "device": "/dev/ttyUSB1", "time": "2020-09-12T19:44:53.000Z", "xdop": 0.69, "ydop": 0.65, "vdop": 1.42, "hdop": 0.8, "gdop": 1.93, "pdop": 1.71, "satellites": [{"PRN": 15, "el": 53, "az": 42, "ss": 35, "used": true}, {"PRN": 29, "el": 20, "az": 192, "ss": 35, "used": true}, {"PRN": 24, "el": 39, "az": 132, "ss": 41, "used": true}, {"PRN": 10, "el": 24, "az": 288, "ss": 29, "used": true}, {"PRN": 18, "el": 83, "az": 334, "ss": 32, "used": true}, {"PRN": 13, "el": 20, "az": 42, "ss": 31, "used": true}, {"PRN": 20, "el": 51, "az": 315, "ss": 35, "used": true}, {"PRN": 27, "el": 11, "az": 316, "ss": 28, "used": true}, {"PRN": 21, "el": 83, "az": 160, "ss": 0, "used": false}, {"PRN": 4, "el": 34, "az": 135, "ss": 0, "used": false}, {"PRN": 32, "el": 4, "az": 225, "ss": 0, "used": false}, {"PRN": 138, "el": 43, "az": 217, "ss": 42, "used": true}]}], "_extra_data": {"message": "0 CPS | 37 CPM", "data": {"time": 1599938425.6920729, "cps": 0, "cpsl": 1, "cpsh": 0, "cpm": 37, "cpml": 35, "cpmh": 2, "maxcps": 5, "calibration": {"CalibCPM_0": 100, "CalibuSv_0": 0.6499999761581421, "CalibCPM_1": 30000, "CalibuSv_1": 195.0, "CalibCPM_2": 25, "CalibuSv_2": 4.849999904632568}}}}
{"class": "POLL", "time": "2020-09-12T19:20:33.594Z", "active": 1, "tpv": [{"class": "TPV", "device": "/dev/ttyUSB1", "status": 2, "mode": 3, "time": "2020-09-12T19:45:00.000Z", "ept": 0.005, "lat": 33.659915101, "lon": -84.123633316, "alt": 245.283, "epx": 2.599, "epy": 2.446, "epv": 8.165, "track": 57.9726, "speed": 1.38, "climb": 0.028, "eps": 5.2, "epc": 16.33}], "gst": [{"class": "GST", "device": "/dev/ttyUSB1", "time": "1970-01-01T00:00:00.000Z", "rms": 0.0, "major": 0.0, "minor": 0.0, "orient": 0.0, "lat": 0.0, "lon": 0.0, "alt": 0.0}], "sky": [{"class": "SKY", "device": "/dev/ttyUSB1", "time": "2020-09-12T19:44:59.000Z", "xdop": 0.69, "ydop": 0.65, "vdop": 1.42, "hdop": 0.8, "gdop": 1.93, "pdop": 1.71, "satellites": [{"PRN": 15, "el": 53, "az": 42, "ss": 42, "used": true}, {"PRN": 29, "el": 20, "az": 192, "ss": 29, "used": true}, {"PRN": 24, "el": 39, "az": 132, "ss": 40, "used": true}, {"PRN": 10, "el": 24, "az": 288, "ss": 31, "used": true}, {"PRN": 18, "el": 83, "az": 334, "ss": 38, "used": true}, {"PRN": 13, "el": 20, "az": 42, "ss": 33, "used": true}, {"PRN": 20, "el": 51, "az": 315, "ss": 40, "used": true}, {"PRN": 27, "el": 11, "az": 316, "ss": 31, "used": true}, {"PRN": 32, "el": 4, "az": 225, "ss": 4, "used": false}, {"PRN": 21, "el": 83, "az": 160, "ss": 0, "used": false}, {"PRN": 4, "el": 34, "az": 135, "ss": 0, "used": false}, {"PRN": 138, "el": 43, "az": 217, "ss": 44, "used": true}]}], "_extra_data": {"message": "0 CPS | 39 CPM", "data": {"time": 1599938433.170589, "cps": 0, "cpsl": 0, "cpsh": 0, "cpm": 39, "cpml": 37, "cpmh": 2, "maxcps": 5, "calibration": {"CalibCPM_0": 100, "CalibuSv_0": 0.6499999761581421, "CalibCPM_1": 30000, "CalibuSv_1": 195.0, "CalibCPM_2": 25, "CalibuSv_2": 4.849999904632568}}}}
{"class": "POLL", "time": "2020-09-12T19:20:38.642Z", "active": 1, "tpv": [{"class": "TPV", "device": "/dev/ttyUSB1", "status": 2, "mode": 3, "time": "2020-09-12T19:45:05.000Z", "ept": 0.005, "lat": 33.659960516, "lon": -84.123588211, "alt": 246.739, "epx": 2.599, "epy": 2.446, "epv": 8.165, "track": 37.8975, "speed": 1.095, "climb": 0.055, "eps": 5.2, "epc": 16.33}], "gst": [{"class": "GST", "device": "/dev/ttyUSB1", "time": "1970-01-01T00:00:00.000Z", "rms": 0.0, "major": 0.0, "minor": 0.0, "orient": 0.0, "lat": 0.0, "lon": 0.0, "alt": 0.0}], "sky": [{"class": "SKY", "device": "/dev/ttyUSB1", "time": "2020-09-12T19:45:05.000Z", "xdop": 0.69, "ydop": 0.65, "vdop": 1.42, "hdop": 0.8, "gdop": 1.93, "pdop": 1.71, "satellites": [{"PRN": 15, "el": 53, "az": 42, "ss": 42, "used": true}, {"PRN": 29, "el": 20, "az": 192, "ss": 36, "used": true}, {"PRN": 24, "el": 39, "az": 132, "ss": 38, "used": true}, {"PRN": 10, "el": 24, "az": 288, "ss": 32, "used": true}, {"PRN": 18, "el": 83, "az": 334, "ss": 38, "used": true}, {"PRN": 13, "el": 20, "az": 42, "ss": 34, "used": true}, {"PRN": 20, "el": 51, "az": 315, "ss": 38, "used": true}, {"PRN": 27, "el": 11, "az": 316, "ss": 28, "used": true}, {"PRN": 21, "el": 83, "az": 160, "ss": 0, "used": false}, {"PRN": 32, "el": 4, "az": 225, "ss": 16, "used": false}, {"PRN": 4, "el": 34, "az": 135, "ss": 0, "used": false}, {"PRN": 138, "el": 43, "az": 217, "ss": 44, "used": true}]}], "_extra_data": {"message": "0 CPS | 39 CPM", "data": {"time": 1599938433.170589, "cps": 0, "cpsl": 0, "cpsh": 0, "cpm": 39, "cpml": 37, "cpmh": 2, "maxcps": 5, "calibration": {"CalibCPM_0": 100, "CalibuSv_0": 0.6499999761581421, "CalibCPM_1": 30000, "CalibuSv_1": 195.0, "CalibCPM_2": 25, "CalibuSv_2": 4.849999904632568}}}}
{"class": "POLL", "time": "2020-09-12T19:20:43.708Z", "active": 1, "tpv": [{"class": "TPV", "device": "/dev/ttyUSB1", "status": 2, "mode": 3, "time": "2020-09-12T19:45:10.000Z", "ept": 0.005, "lat": 33.659990411, "lon": -84.12353238, "alt": 247.172, "epx": 2.599, "epy": 2.446, "epv": 8.165, "track": 46.6226, "speed": 1.097, "climb": -0.004, "eps": 5.2, "epc": 16.33}], "gst": [{"class": "GST", "device": "/dev/ttyUSB1", "time": "1970-01-01T00:00:00.000Z", "rms": 0.0, "major": 0.0, "minor": 0.0, "orient": 0.0, "lat": 0.0, "lon": 0.0, "alt": 0.0}], "sky": [{"class": "SKY", "device": "/dev/ttyUSB1", "time": "2020-09-12T19:45:08.000Z", "xdop": 0.69, "ydop": 0.65, "vdop": 1.42, "hdop": 0.8, "gdop": 1.93, "pdop": 1.71, "satellites": [{"PRN": 15, "el": 53, "az": 42, "ss": 42, "used": true}, {"PRN": 29, "el": 20, "az": 192, "ss": 37, "used": true}, {"PRN": 24, "el": 39, "az": 132, "ss": 38, "used": true}, {"PRN": 10, "el": 24, "az": 288, "ss": 37, "used": true}, {"PRN": 18, "el": 83, "az": 334, "ss": 38, "used": true}, {"PRN": 13, "el": 20, "az": 42, "ss": 37, "used": true}, {"PRN": 20, "el": 51, "az": 315, "ss": 37, "used": true}, {"PRN": 27, "el": 11, "az": 316, "ss": 32, "used": true}, {"PRN": 21, "el": 83, "az": 160, "ss": 0, "used": false}, {"PRN": 32, "el": 4, "az": 225, "ss": 18, "used": true}, {"PRN": 4, "el": 34, "az": 135, "ss": 0, "used": false}, {"PRN": 138, "el": 43, "az": 217, "ss": 40, "used": true}]}], "_extra_data": {"message": "2 CPS | 39 CPM", "data": {"time": 1599938440.753093, "cps": 2, "cpsl": 1, "cpsh": 0, "cpm": 39, "cpml": 39, "cpmh": 2, "maxcps": 5, "calibration": {"CalibCPM_0": 100, "CalibuSv_0": 0.6499999761581421, "CalibCPM_1": 30000, "CalibuSv_1": 195.0, "CalibCPM_2": 25, "CalibuSv_2": 4.849999904632568}}}}
