{"class": "POLL", "time": "2020-09-06T12:53:04.545Z", "active": 1, "tpv": [{"class": "TPV", "device": "/dev/ttyUSB1", "mode": 3, "time": "2020-09-06T12:53:02.000Z", "ept": 0.005, "lat": 33.753608752, "lon": -84.245452483, "alt": 321.828, "epx": 42.857, "epy": 16.33, "epv": 87.069, "track": 172.6192, "speed": 0.285, "climb": 0.873, "eps": 88.37, "epc": 179.52}], "gst": [{"class": "GST", "device": "/dev/ttyUSB1", "time": "1970-01-01T00:00:00.000Z", "rms": 0.0, "major": 0.0, "minor": 0.0, "orient": 0.0, "lat": 0.0, "lon": 0.0, "alt": 0.0}], "sky": [{"class": "SKY", "device": "/dev/ttyUSB1", "time": "2020-09-06T12:53:00.000Z", "xdop": 2.86, "ydop": 1.09, "vdop": 3.79, "hdop": 2.4, "gdop": 6.03, "pdop": 4.87, "satellites": [{"PRN": 6, "el": 77, "az": 294, "ss": 44, "used": true}, {"PRN": 17, "el": 54, "az": 46, "ss": 40, "used": true}, {"PRN": 19, "el": 60, "az": 7, "ss": 41, "used": true}, {"PRN": 28, "el": 42, "az": 141, "ss": 33, "used": true}, {"PRN": 3, "el": 16, "az": 43, "ss": 30, "used": true}, {"PRN": 2, "el": 70, "az": 270, "ss": 27, "used": true}, {"PRN": 24, "el": 23, "az": 261, "ss": 5, "used": false}, {"PRN": 25, "el": 11, "az": 318, "ss": 0, "used": false}, {"PRN": 22, "el": 4, "az": 37, "ss": 0, "used": false}, {"PRN": 138, "el": 43, "az": 217, "ss": 0, "used": false}]}], "_extra_data": {"message": "0 CPS | 18 CPM", "data": {"time": 1599396686.640288, "cps": 0, "cpsl": 0, "cpsh": 0, "cpm": 18, "cpml": 18, "cpmh": 0, "maxcps": 9, "calibration": {"CalibCPM_0": 100, "CalibuSv_0": 0.6499999761581421, "CalibCPM_1": 30000, "CalibuSv_1": 195.0, "CalibCPM_2": 25, "CalibuSv_2": 4.849999904632568}}}}
{"class": "POLL", "time": "2020-09-06T12:53:09.685Z", "active": 1, "tpv": [{"class": "TPV", "device": "/dev/ttyUSB1", "mode": 3, "time": "2020-09-06T12:53:08.000Z", "ept": 0.005, "lat": 33.753598322, "lon": -84.245447155, "alt": 327.159, "epx": 42.857, "epy": 16.33, "epv": 87.069, "track": 93.5297, "speed": 0.548, "climb": 0.95, "eps": 85.71, "epc": 174.14}], "gst": [{"class": "GST", "device": "/dev/ttyUSB1", "time": "1970-01-01T00:00:00.000Z", "rms": 0.0, "major": 0.0, "minor": 0.0, "orient": 0.0, "lat": 0.0, "lon": 0.0, "alt": 0.0}], "sky": [{"class": "SKY", "device": "/dev/ttyUSB1", "time": "2020-09-06T12:53:06.000Z", "xdop": 2.86, "ydop": 1.09, "vdop": 3.79, "hdop": 2.4, "gdop": 6.03, "pdop": 4.87, "satellites": [{"PRN": 6, "el": 77, "az": 294, "ss": 38, "used": true}, {"PRN": 17, "el": 54, "az": 46, "ss": 29, "used": true}, {"PRN": 19, "el": 60, "az": 7, "ss": 35, "used": true}, {"PRN": 28, "el": 42, "az": 141, "ss": 26, "used": true}, {"PRN": 3, "el": 16, "az": 43, "ss": 28, "used": true}, {"PRN": 2, "el": 70, "az": 270, "ss": 9, "used": true}, {"PRN": 25, "el": 11, "az": 318, "ss": 14, "used": true}, {"PRN": 22, "el": 4, "az": 37, "ss": 3, "used": false}, {"PRN": 24, "el": 23, "az": 261, "ss": 0, "used": false}, {"PRN": 138, "el": 43, "az": 217, "ss": 0, "used": false}]}], "_extra_data": {"message": "0 CPS | 16 CPM", "data": {"time": 1599396788.8129656, "cps": 0, "cpsl": 0, "cpsh": 0, "cpm": 16, "cpml": 16, "cpmh": 0, "maxcps": 9, "calibration": {"CalibCPM_0": 100, "CalibuSv_0": 0.6499999761581421, "CalibCPM_1": 30000, "CalibuSv_1": 195.0, "CalibCPM_2": 25, "CalibuSv_2": 4.849999904632568}}}}
{"class": "POLL", "time": "2020-09-06T12:53:14.707Z", "active": 1, "tpv": [{"class": "TPV", "device": "/dev/ttyUSB1", "mode": 3, "time": "2020-09-06T12:53:13.000Z", "ept": 0.005, "lat": 33.753612811, "lon": -84.245436417, "alt": 328.354, "epx": 42.857, "epy": 16.33, "epv": 87.069, "track": 136.1196, "speed": 0.412, "climb": 0.894, "eps": 85.71, "epc": 174.14}], "gst": [{"class": "GST", "device": "/dev/ttyUSB1", "time": "1970-01-01T00:00:00.000Z", "rms": 0.0, "major": 0.0, "minor": 0.0, "orient": 0.0, "lat": 0.0, "lon": 0.0, "alt": 0.0}], "sky": [{"class": "SKY", "device": "/dev/ttyUSB1", "time": "2020-09-06T12:53:12.000Z", "xdop": 2.86, "ydop": 1.09, "vdop": 3.79, "hdop": 2.4, "gdop": 6.03, "pdop": 4.87, "satellites": [{"PRN": 6, "el": 77, "az": 294, "ss": 37, "used": true}, {"PRN": 17, "el": 54, "az": 46, "ss": 28, "used": true}, {"PRN": 19, "el": 60, "az": 7, "ss": 33, "used": true}, {"PRN": 28, "el": 42, "az": 141, "ss": 25, "used": true}, {"PRN": 3, "el": 16, "az": 43, "ss": 28, "used": true}, {"PRN": 2, "el": 70, "az": 270, "ss": 13, "used": true}, {"PRN": 25, "el": 11, "az": 318, "ss": 0, "used": false}, {"PRN": 24, "el": 23, "az": 261, "ss": 0, "used": false}, {"PRN": 22, "el": 4, "az": 37, "ss": 0, "used": false}, {"PRN": 138, "el": 43, "az": 217, "ss": 0, "used": false}]}], "_extra_data": {"message": "0 CPS | 16 CPM", "data": {"time": 1599396788.8129656, "cps": 0, "cpsl": 0, "cpsh": 0, "cpm": 16, "cpml": 16, "cpmh": 0, "maxcps": 9, "calibration": {"CalibCPM_0": 100, "CalibuSv_0": 0.6499999761581421, "CalibCPM_1": 30000, "CalibuSv_1": 195.0, "CalibCPM_2": 25, "CalibuSv_2": 4.849999904632568}}}}
{"class": "POLL", "time": "2020-09-06T12:53:19.734Z", "active": 1, "tpv": [{"class": "TPV", "device": "/dev/ttyUSB1", "mode": 3, "time": "2020-09-06T12:53:17.000Z", "ept": 0.005, "lat": 33.753641749, "lon": -84.245464303, "alt": 325.35, "epx": 42.857, "epy": 16.33, "epv": 87.069, "track": 340.2072, "speed": 0.148, "climb": 0.691, "eps": 85.71, "epc": 174.14}], "gst": [{"class": "GST", "device": "/dev/ttyUSB1", "time": "1970-01-01T00:00:00.000Z", "rms": 0.0, "major": 0.0, "minor": 0.0, "orient": 0.0, "lat": 0.0, "lon": 0.0, "alt": 0.0}], "sky": [{"class": "SKY", "device": "/dev/ttyUSB1", "time": "2020-09-06T12:53:15.000Z", "xdop": 2.86, "ydop": 1.09, "vdop": 3.79, "hdop": 2.4, "gdop": 6.03, "pdop": 4.87, "satellites": [{"PRN": 6, "el": 77, "az": 294, "ss": 37, "used": true}, {"PRN": 17, "el": 54, "az": 46, "ss": 29, "used": true}, {"PRN": 19, "el": 60, "az": 7, "ss": 33, "used": true}, {"PRN": 28, "el": 42, "az": 141, "ss": 26, "used": true}, {"PRN": 3, "el": 16, "az": 43, "ss": 27, "used": true}, {"PRN": 2, "el": 70, "az": 270, "ss": 21, "used": true}, {"PRN": 24, "el": 23, "az": 261, "ss": 15, "used": false}, {"PRN": 25, "el": 11, "az": 318, "ss": 0, "used": false}, {"PRN": 22, "el": 4, "az": 37, "ss": 0, "used": false}, {"PRN": 138, "el": 43, "az": 217, "ss": 0, "used": false}]}], "_extra_data": {"message": "0 CPS | 17 CPM", "data": {"time": 1599396795.9558604, "cps": 0, "cpsl": 0, "cpsh": 0, "cpm": 17, "cpml": 17, "cpmh": 0, "maxcps": 9, "calibration": {"CalibCPM_0": 100, "CalibuSv_0": 0.6499999761581421, "CalibCPM_1": 30000, "CalibuSv_1": 195.0, "CalibCPM_2": 25, "CalibuSv_2": 4.849999904632568}}}}
{"class": "POLL", "time": "2020-09-06T12:53:24.759Z", "active": 1, "tpv": [{"class": "TPV", "device": "/dev/ttyUSB1", "mode": 3, "time": "2020-09-06T12:53:23.000Z", "ept": 0.005, "lat": 33.753650672, "lon": -84.245490026, "alt": 318.47, "epx": 42.857, "epy": 16.33, "epv": 87.069, "track": 300.3012, "speed": 0.303, "climb": 0.221, "eps": 85.71, "epc": 174.14}], "gst": [{"class": "GST", "device": "/dev/ttyUSB1", "time": "1970-01-01T00:00:00.000Z", "rms": 0.0, "major": 0.0, "minor": 0.0, "orient": 0.0, "lat": 0.0, "lon": 0.0, "alt": 0.0}], "sky": [{"class": "SKY", "device": "/dev/ttyUSB1", "time": "2020-09-06T12:53:21.000Z", "xdop": 2.86, "ydop": 1.09, "vdop": 3.79, "hdop": 2.4, "gdop": 6.03, "pdop": 4.87, "satellites": [{"PRN": 6, "el": 77, "az": 295, "ss": 37, "used": true}, {"PRN": 17, "el": 54, "az": 46, "ss": 29, "used": true}, {"PRN": 19, "el": 60, "az": 7, "ss": 32, "used": true}, {"PRN": 28, "el": 42, "az": 141, "ss": 25, "used": true}, {"PRN": 3, "el": 16, "az": 43, "ss": 26, "used": true}, {"PRN": 2, "el": 70, "az": 271, "ss": 22, "used": true}, {"PRN": 25, "el": 11, "az": 318, "ss": 14, "used": false}, {"PRN": 22, "el": 4, "az": 37, "ss": 14, "used": true}, {"PRN": 24, "el": 23, "az": 261, "ss": 15, "used": false}, {"PRN": 135, "el": 27, "az": 241, "ss": 0, "used": false}]}], "_extra_data": {"message": "0 CPS | 16 CPM", "data": {"time": 1599396803.1001375, "cps": 0, "cpsl": 0, "cpsh": 0, "cpm": 16, "cpml": 16, "cpmh": 0, "maxcps": 9, "calibration": {"CalibCPM_0": 100, "CalibuSv_0": 0.6499999761581421, "CalibCPM_1": 30000, "CalibuSv_1": 195.0, "CalibCPM_2": 25, "CalibuSv_2": 4.849999904632568}}}}
{"class": "POLL", "time": "2020-09-06T12:53:29.782Z", "active": 1, "tpv": [{"class": "TPV", "device": "/dev/ttyUSB1", "mode": 3, "time": "2020-09-06T12:53:28.000Z", "ept": 0.005, "lat": 33.753670065, "lon": -84.245524322, "alt": 309.852, "epx": 42.857, "epy": 16.33, "epv": 87.069, "track": 328.1461, "speed": 0.212, "climb": -0.044, "eps": 85.71, "epc": 174.14}], "gst": [{"class": "GST", "device": "/dev/ttyUSB1", "time": "1970-01-01T00:00:00.000Z", "rms": 0.0, "major": 0.0, "minor": 0.0, "orient": 0.0, "lat": 0.0, "lon": 0.0, "alt": 0.0}], "sky": [{"class": "SKY", "device": "/dev/ttyUSB1", "time": "2020-09-06T12:53:27.000Z", "xdop": 2.86, "ydop": 1.09, "vdop": 3.79, "hdop": 3.0, "gdop": 6.03, "pdop": 4.87, "satellites": [{"PRN": 6, "el": 77, "az": 295, "ss": 36, "used": true}, {"PRN": 17, "el": 54, "az": 46, "ss": 28, "used": true}, {"PRN": 19, "el": 60, "az": 7, "ss": 31, "used": true}, {"PRN": 22, "el": 4, "az": 37, "ss": 14, "used": false}, {"PRN": 3, "el": 16, "az": 43, "ss": 26, "used": true}, {"PRN": 28, "el": 42, "az": 141, "ss": 3, "used": false}, {"PRN": 2, "el": 70, "az": 271, "ss": 0, "used": false}, {"PRN": 25, "el": 11, "az": 318, "ss": 0, "used": false}, {"PRN": 24, "el": 23, "az": 261, "ss": 0, "used": false}, {"PRN": 135, "el": 27, "az": 241, "ss": 0, "used": false}]}], "_extra_data": {"message": "0 CPS | 16 CPM", "data": {"time": 1599396803.1001375, "cps": 0, "cpsl": 0, "cpsh": 0, "cpm": 16, "cpml": 16, "cpmh": 0, "maxcps": 9, "calibration": {"CalibCPM_0": 100, "CalibuSv_0": 0.6499999761581421, "CalibCPM_1": 30000, "CalibuSv_1": 195.0, "CalibCPM_2": 25, "CalibuSv_2": 4.849999904632568}}}}
{"class": "POLL", "time": "2020-09-06T12:53:34.805Z", "active": 1, "tpv": [{"class": "TPV", "device": "/dev/ttyUSB1", "mode": 3, "time": "2020-09-06T12:53:33.000Z", "ept": 0.005, "lat": 33.753675048, "lon": -84.24552324, "alt": 309.024, "epx": 42.857, "epy": 16.33, "epv": 87.069, "track": 219.5014, "speed": 0.215, "climb": 0.024, "eps": 85.71, "epc": 174.14}], "gst": [{"class": "GST", "device": "/dev/ttyUSB1", "time": "1970-01-01T00:00:00.000Z", "rms": 0.0, "major": 0.0, "minor": 0.0, "orient": 0.0, "lat": 0.0, "lon": 0.0, "alt": 0.0}], "sky": [{"class": "SKY", "device": "/dev/ttyUSB1", "time": "2020-09-06T12:53:33.000Z", "xdop": 2.86, "ydop": 1.09, "vdop": 3.79, "hdop": 3.0, "gdop": 6.03, "pdop": 4.87, "satellites": [{"PRN": 6, "el": 77, "az": 295, "ss": 36, "used": true}, {"PRN": 17, "el": 54, "az": 46, "ss": 24, "used": true}, {"PRN": 19, "el": 60, "az": 7, "ss": 30, "used": true}, {"PRN": 2, "el": 70, "az": 271, "ss": 0, "used": false}, {"PRN": 3, "el": 16, "az": 43, "ss": 24, "used": true}, {"PRN": 28, "el": 42, "az": 141, "ss": 27, "used": true}, {"PRN": 25, "el": 11, "az": 318, "ss": 0, "used": false}, {"PRN": 24, "el": 23, "az": 261, "ss": 0, "used": false}, {"PRN": 22, "el": 4, "az": 37, "ss": 0, "used": false}, {"PRN": 135, "el": 27, "az": 241, "ss": 0, "used": false}]}], "_extra_data": {"message": "0 CPS | 20 CPM", "data": {"time": 1599396810.2407575, "cps": 0, "cpsl": 0, "cpsh": 0, "cpm": 20, "cpml": 20, "cpmh": 0, "maxcps": 9, "calibration": {"CalibCPM_0": 100, "CalibuSv_0": 0.6499999761581421, "CalibCPM_1": 30000, "CalibuSv_1": 195.0, "CalibCPM_2": 25, "CalibuSv_2": 4.849999904632568}}}}
{"class": "POLL", "time": "2020-09-06T12:53:39.832Z", "active": 1, "tpv": [{"class": "TPV", "device": "/dev/ttyUSB1", "mode": 3, "time": "2020-09-06T12:53:38.000Z", "ept": 0.005, "lat": 33.753675048, "lon": -84.24552324, "alt": 309.024, "epx": 42.857, "epy": 16.33, "epv": 87.069, "track": 0.0, "speed": 0.0, "climb": 0.0, "eps": 85.71, "epc": 174.14}], "gst": [{"class": "GST", "device": "/dev/ttyUSB1", "time": "1970-01-01T00:00:00.000Z", "rms": 0.0, "major": 0.0, "minor": 0.0, "orient": 0.0, "lat": 0.0, "lon": 0.0, "alt": 0.0}], "sky": [{"class": "SKY", "device": "/dev/ttyUSB1", "time": "2020-09-06T12:53:36.000Z", "xdop": 2.86, "ydop": 1.09, "vdop": 3.79, "hdop": 3.0, "gdop": 6.03, "pdop": 4.87, "satellites": [{"PRN": 6, "el": 77, "az": 295, "ss": 35, "used": true}, {"PRN": 17, "el": 54, "az": 46, "ss": 22, "used": true}, {"PRN": 19, "el": 60, "az": 7, "ss": 31, "used": true}, {"PRN": 2, "el": 70, "az": 271, "ss": 0, "used": false}, {"PRN": 3, "el": 16, "az": 43, "ss": 24, "used": true}, {"PRN": 28, "el": 42, "az": 141, "ss": 27, "used": true}, {"PRN": 25, "el": 11, "az": 318, "ss": 0, "used": false}, {"PRN": 24, "el": 23, "az": 261, "ss": 0, "used": false}, {"PRN": 22, "el": 4, "az": 37, "ss": 0, "used": false}, {"PRN": 135, "el": 27, "az": 241, "ss": 0, "used": false}]}], "_extra_data": {"message": "0 CPS | 18 CPM", "data": {"time": 1599396817.3827906, "cps": 0, "cpsl": 0, "cpsh": 0, "cpm": 18, "cpml": 18, "cpmh": 0, "maxcps": 9, "calibration": {"CalibCPM_0": 100, "CalibuSv_0": 0.6499999761581421, "CalibCPM_1": 30000, "CalibuSv_1": 195.0, "CalibCPM_2": 25, "CalibuSv_2": 4.849999904632568}}}}
{"class": "POLL", "time": "2020-09-06T12:53:44.856Z", "active": 1, "tpv": [{"class": "TPV", "device": "/dev/ttyUSB1", "mode": 3, "time": "2020-09-06T12:53:43.000Z", "ept": 0.005, "lat": 33.753680032, "lon": -84.245522158, "alt": 308.197, "epx": 42.857, "epy": 16.33, "epv": 87.069, "track": 0.0, "speed": 0.0, "climb": 0.0, "eps": 85.71, "epc": 174.14}], "gst": [{"class": "GST", "device": "/dev/ttyUSB1", "time": "1970-01-01T00:00:00.000Z", "rms": 0.0, "major": 0.0, "minor": 0.0, "orient": 0.0, "lat": 0.0, "lon": 0.0, "alt": 0.0}], "sky": [{"class": "SKY", "device": "/dev/ttyUSB1", "time": "2020-09-06T12:53:42.000Z", "xdop": 2.86, "ydop": 1.09, "vdop": 3.79, "hdop": 3.0, "gdop": 6.03, "pdop": 4.87, "satellites": [{"PRN": 6, "el": 77, "az": 295, "ss": 35, "used": true}, {"PRN": 17, "el": 54, "az": 46, "ss": 22, "used": true}, {"PRN": 19, "el": 60, "az": 7, "ss": 32, "used": true}, {"PRN": 25, "el": 11, "az": 318, "ss": 14, "used": true}, {"PRN": 3, "el": 16, "az": 43, "ss": 22, "used": true}, {"PRN": 28, "el": 42, "az": 141, "ss": 27, "used": true}, {"PRN": 2, "el": 70, "az": 271, "ss": 0, "used": false}, {"PRN": 24, "el": 23, "az": 261, "ss": 0, "used": false}, {"PRN": 22, "el": 4, "az": 37, "ss": 0, "used": false}, {"PRN": 135, "el": 27, "az": 241, "ss": 0, "used": false}]}], "_extra_data": {"message": "0 CPS | 17 CPM", "data": {"time": 1599396824.5212605, "cps": 0, "cpsl": 0, "cpsh": 0, "cpm": 17, "cpml": 17, "cpmh": 0, "maxcps": 9, "calibration": {"CalibCPM_0": 100, "CalibuSv_0": 0.6499999761581421, "CalibCPM_1": 30000, "CalibuSv_1": 195.0, "CalibCPM_2": 25, "CalibuSv_2": 4.849999904632568}}}}
{"class": "POLL", "time": "2020-09-06T12:53:49.879Z", "active": 1, "tpv": [{"class": "TPV", "device": "/dev/ttyUSB1", "mode": 3, "time": "2020-09-06T12:53:48.000Z", "ept": 0.005, "lat": 33.753673039, "lon": -84.245532896, "alt": 307.558, "epx": 42.857, "epy": 16.33, "epv": 87.069, "track": 0.0, "speed": 0.0, "climb": 0.0, "eps": 85.71, "epc": 174.14}], "gst": [{"class": "GST", "device": "/dev/ttyUSB1", "time": "1970-01-01T00:00:00.000Z", "rms": 0.0, "major": 0.0, "minor": 0.0, "orient": 0.0, "lat": 0.0, "lon": 0.0, "alt": 0.0}], "sky": [{"class": "SKY", "device": "/dev/ttyUSB1", "time": "2020-09-06T12:53:48.000Z", "xdop": 2.86, "ydop": 1.09, "vdop": 3.79, "hdop": 3.0, "gdop": 6.03, "pdop": 4.87, "satellites": [{"PRN": 6, "el": 77, "az": 295, "ss": 35, "used": true}, {"PRN": 17, "el": 54, "az": 46, "ss": 22, "used": true}, {"PRN": 19, "el": 60, "az": 7, "ss": 33, "used": true}, {"PRN": 2, "el": 70, "az": 271, "ss": 0, "used": false}, {"PRN": 3, "el": 16, "az": 43, "ss": 21, "used": true}, {"PRN": 28, "el": 42, "az": 141, "ss": 27, "used": true}, {"PRN": 22, "el": 4, "az": 37, "ss": 14, "used": false}, {"PRN": 25, "el": 11, "az": 318, "ss": 0, "used": false}, {"PRN": 24, "el": 23, "az": 261, "ss": 0, "used": false}, {"PRN": 120, "el": 8, "az": 102, "ss": 0, "used": false}]}], "_extra_data": {"message": "0 CPS | 17 CPM", "data": {"time": 1599396824.5212605, "cps": 0, "cpsl": 0, "cpsh": 0, "cpm": 17, "cpml": 17, "cpmh": 0, "maxcps": 9, "calibration": {"CalibCPM_0": 100, "CalibuSv_0": 0.6499999761581421, "CalibCPM_1": 30000, "CalibuSv_1": 195.0, "CalibCPM_2": 25, "CalibuSv_2": 4.849999904632568}}}}
{"class": "POLL", "time": "2020-09-06T12:53:54.899Z", "active": 1, "tpv": [{"class": "TPV", "device": "/dev/ttyUSB1", "mode": 3, "time": "2020-09-06T12:53:53.000Z", "ept": 0.005, "lat": 33.753673039, "lon": -84.245532896, "alt": 307.558, "epx": 42.857, "epy": 16.33, "epv": 87.069, "track": 0.0, "speed": 0.0, "climb": 0.0, "eps": 85.71, "epc": 174.14}], "gst": [{"class": "GST", "device": "/dev/ttyUSB1", "time": "1970-01-01T00:00:00.000Z", "rms": 0.0, "major": 0.0, "minor": 0.0, "orient": 0.0, "lat": 0.0, "lon": 0.0, "alt": 0.0}], "sky": [{"class": "SKY", "device": "/dev/ttyUSB1", "time": "2020-09-06T12:53:51.000Z", "xdop": 2.86, "ydop": 1.09, "vdop": 3.79, "hdop": 3.0, "gdop": 6.03, "pdop": 4.87, "satellites": [{"PRN": 6, "el": 77, "az": 295, "ss": 35, "used": true}, {"PRN": 17, "el": 54, "az": 46, "ss": 22, "used": true}, {"PRN": 19, "el": 60, "az": 7, "ss": 33, "used": true}, {"PRN": 2, "el": 70, "az": 271, "ss": 0, "used": false}, {"PRN": 3, "el": 16, "az": 43, "ss": 20, "used": true}, {"PRN": 28, "el": 42, "az": 141, "ss": 24, "used": true}, {"PRN": 25, "el": 11, "az": 318, "ss": 0, "used": false}, {"PRN": 24, "el": 23, "az": 261, "ss": 0, "used": false}, {"PRN": 22, "el": 4, "az": 37, "ss": 0, "used": false}, {"PRN": 120, "el": 8, "az": 102, "ss": 0, "used": false}]}], "_extra_data": {"message": "0 CPS | 15 CPM", "data": {"time": 1599396831.6617525, "cps": 0, "cpsl": 0, "cpsh": 0, "cpm": 15, "cpml": 15, "cpmh": 0, "maxcps": 9, "calibration": {"CalibCPM_0": 100, "CalibuSv_0": 0.6499999761581421, "CalibCPM_1": 30000, "CalibuSv_1": 195.0, "CalibCPM_2": 25, "CalibuSv_2": 4.849999904632568}}}}
{"class": "POLL", "time": "2020-09-06T12:53:59.923Z", "active": 1, "tpv": [{"class": "TPV", "device": "/dev/ttyUSB1", "mode": 3, "time": "2020-09-06T12:53:58.000Z", "ept": 0.005, "lat": 33.753680535, "lon": -84.245532896, "alt": 308.114, "epx": 42.857, "epy": 16.33, "epv": 87.069, "track": 93.2048, "speed": 0.249, "climb": 0.021, "eps": 85.71, "epc": 174.14}], "gst": [{"class": "GST", "device": "/dev/ttyUSB1", "time": "1970-01-01T00:00:00.000Z", "rms": 0.0, "major": 0.0, "minor": 0.0, "orient": 0.0, "lat": 0.0, "lon": 0.0, "alt": 0.0}], "sky": [{"class": "SKY", "device": "/dev/ttyUSB1", "time": "2020-09-06T12:53:57.000Z", "xdop": 2.86, "ydop": 1.09, "vdop": 3.79, "hdop": 3.0, "gdop": 6.03, "pdop": 4.87, "satellites": [{"PRN": 6, "el": 77, "az": 295, "ss": 35, "used": true}, {"PRN": 17, "el": 54, "az": 46, "ss": 22, "used": true}, {"PRN": 19, "el": 60, "az": 7, "ss": 34, "used": true}, {"PRN": 2, "el": 70, "az": 271, "ss": 0, "used": false}, {"PRN": 3, "el": 16, "az": 43, "ss": 20, "used": true}, {"PRN": 28, "el": 42, "az": 141, "ss": 24, "used": true}, {"PRN": 25, "el": 11, "az": 318, "ss": 0, "used": false}, {"PRN": 24, "el": 23, "az": 261, "ss": 0, "used": false}, {"PRN": 22, "el": 4, "az": 37, "ss": 0, "used": false}, {"PRN": 120, "el": 8, "az": 102, "ss": 0, "used": false}]}], "_extra_data": {"message": "0 CPS | 13 CPM", "data": {"time": 1599396838.8029122, "cps": 0, "cpsl": 0, "cpsh": 0, "cpm": 13, "cpml": 13, "cpmh": 0, "maxcps": 9, "calibration": {"CalibCPM_0": 100, "CalibuSv_0": 0.6499999761581421, "CalibCPM_1": 30000, "CalibuSv_1": 195.0, "CalibCPM_2": 25, "CalibuSv_2": 4.849999904632568}}}}
{"class": "POLL", "time": "2020-09-06T12:54:04.950Z", "active": 1, "tpv": [{"class": "TPV", "device": "/dev/ttyUSB1", "mode": 3, "time": "2020-09-06T12:54:03.000Z", "ept": 0.005, "lat": 33.753685518, "lon": -84.245531814, "alt": 307.287, "epx": 42.857, "epy": 16.33, "epv": 87.069, "track": 0.0, "speed": 0.0, "climb": 0.0, "eps": 85.71, "epc": 174.14}], "gst": [{"class": "GST", "device": "/dev/ttyUSB1", "time": "1970-01-01T00:00:00.000Z", "rms": 0.0, "major": 0.0, "minor": 0.0, "orient": 0.0, "lat": 0.0, "lon": 0.0, "alt": 0.0}], "sky": [{"class": "SKY", "device": "/dev/ttyUSB1", "time": "2020-09-06T12:54:03.000Z", "xdop": 2.86, "ydop": 1.09, "vdop": 3.79, "hdop": 3.0, "gdop": 6.03, "pdop": 4.87, "satellites": [{"PRN": 6, "el": 77, "az": 295, "ss": 35, "used": true}, {"PRN": 17, "el": 54, "az": 46, "ss": 23, "used": true}, {"PRN": 19, "el": 60, "az": 7, "ss": 34, "used": true}, {"PRN": 2, "el": 70, "az": 271, "ss": 20, "used": true}, {"PRN": 3, "el": 16, "az": 43, "ss": 20, "used": true}, {"PRN": 28, "el": 42, "az": 141, "ss": 18, "used": true}, {"PRN": 25, "el": 11, "az": 318, "ss": 13, "used": false}, {"PRN": 24, "el": 23, "az": 261, "ss": 0, "used": false}, {"PRN": 22, "el": 4, "az": 37, "ss": 0, "used": false}, {"PRN": 120, "el": 8, "az": 102, "ss": 0, "used": false}]}], "_extra_data": {"message": "0 CPS | 13 CPM", "data": {"time": 1599396838.8029122, "cps": 0, "cpsl": 0, "cpsh": 0, "cpm": 13, "cpml": 13, "cpmh": 0, "maxcps": 9, "calibration": {"CalibCPM_0": 100, "CalibuSv_0": 0.6499999761581421, "CalibCPM_1": 30000, "CalibuSv_1": 195.0, "CalibCPM_2": 25, "CalibuSv_2": 4.849999904632568}}}}
{"class": "POLL", "time": "2020-09-06T12:54:09.978Z", "active": 1, "tpv": [{"class": "TPV", "device": "/dev/ttyUSB1", "mode": 3, "time": "2020-09-06T12:54:08.000Z", "ept": 0.005, "lat": 33.753686021, "lon": -84.245542552, "alt": 307.203, "epx": 42.857, "epy": 16.33, "epv": 87.069, "track": 0.0, "speed": 0.0, "climb": 0.0, "eps": 85.71, "epc": 174.14}], "gst": [{"class": "GST", "device": "/dev/ttyUSB1", "time": "1970-01-01T00:00:00.000Z", "rms": 0.0, "major": 0.0, "minor": 0.0, "orient": 0.0, "lat": 0.0, "lon": 0.0, "alt": 0.0}], "sky": [{"class": "SKY", "device": "/dev/ttyUSB1", "time": "2020-09-06T12:54:06.000Z", "xdop": 2.86, "ydop": 1.09, "vdop": 3.79, "hdop": 6.0, "gdop": 6.03, "pdop": 4.87, "satellites": [{"PRN": 6, "el": 77, "az": 295, "ss": 35, "used": true}, {"PRN": 17, "el": 54, "az": 46, "ss": 28, "used": true}, {"PRN": 19, "el": 60, "az": 7, "ss": 34, "used": true}, {"PRN": 2, "el": 70, "az": 271, "ss": 20, "used": true}, {"PRN": 3, "el": 16, "az": 43, "ss": 19, "used": true}, {"PRN": 28, "el": 42, "az": 141, "ss": 15, "used": true}, {"PRN": 25, "el": 11, "az": 318, "ss": 12, "used": true}, {"PRN": 22, "el": 4, "az": 37, "ss": 14, "used": false}, {"PRN": 24, "el": 23, "az": 261, "ss": 0, "used": false}, {"PRN": 120, "el": 8, "az": 102, "ss": 0, "used": false}]}], "_extra_data": {"message": "0 CPS | 12 CPM", "data": {"time": 1599396845.9521308, "cps": 0, "cpsl": 0, "cpsh": 0, "cpm": 12, "cpml": 12, "cpmh": 0, "maxcps": 9, "calibration": {"CalibCPM_0": 100, "CalibuSv_0": 0.6499999761581421, "CalibCPM_1": 30000, "CalibuSv_1": 195.0, "CalibCPM_2": 25, "CalibuSv_2": 4.849999904632568}}}}
{"class": "POLL", "time": "2020-09-06T12:54:15.000Z", "active": 1, "tpv": [{"class": "TPV", "device": "/dev/ttyUSB1", "mode": 3, "time": "2020-09-06T12:54:13.000Z", "ept": 0.005, "lat": 33.753686523, "lon": -84.245553291, "alt": 307.12, "epx": 42.857, "epy": 16.33, "epv": 87.069, "track": 0.0, "speed": 0.0, "climb": 0.0, "eps": 85.71, "epc": 174.14}], "gst": [{"class": "GST", "device": "/dev/ttyUSB1", "time": "1970-01-01T00:00:00.000Z", "rms": 0.0, "major": 0.0, "minor": 0.0, "orient": 0.0, "lat": 0.0, "lon": 0.0, "alt": 0.0}], "sky": [{"class": "SKY", "device": "/dev/ttyUSB1", "time": "2020-09-06T12:54:12.000Z", "xdop": 2.86, "ydop": 1.09, "vdop": 3.79, "hdop": 6.0, "gdop": 6.03, "pdop": 4.87, "satellites": [{"PRN": 6, "el": 77, "az": 295, "ss": 35, "used": true}, {"PRN": 17, "el": 54, "az": 46, "ss": 28, "used": true}, {"PRN": 19, "el": 60, "az": 7, "ss": 34, "used": true}, {"PRN": 2, "el": 70, "az": 271, "ss": 8, "used": false}, {"PRN": 3, "el": 16, "az": 43, "ss": 18, "used": true}, {"PRN": 28, "el": 42, "az": 141, "ss": 15, "used": true}, {"PRN": 22, "el": 4, "az": 37, "ss": 10, "used": false}, {"PRN": 25, "el": 11, "az": 318, "ss": 0, "used": false}, {"PRN": 24, "el": 23, "az": 261, "ss": 0, "used": false}, {"PRN": 120, "el": 8, "az": 102, "ss": 0, "used": false}]}], "_extra_data": {"message": "0 CPS | 11 CPM", "data": {"time": 1599396853.0911615, "cps": 0, "cpsl": 0, "cpsh": 0, "cpm": 11, "cpml": 11, "cpmh": 0, "maxcps": 9, "calibration": {"CalibCPM_0": 100, "CalibuSv_0": 0.6499999761581421, "CalibCPM_1": 30000, "CalibuSv_1": 195.0, "CalibCPM_2": 25, "CalibuSv_2": 4.849999904632568}}}}
{"class": "POLL", "time": "2020-09-06T12:54:20.030Z", "active": 1, "tpv": [{"class": "TPV", "device": "/dev/ttyUSB1", "mode": 3, "time": "2020-09-06T12:54:18.000Z", "ept": 0.005, "lat": 33.753686523, "lon": -84.245553291, "alt": 307.12, "epx": 42.857, "epy": 16.33, "epv": 87.069, "track": 0.0, "speed": 0.0, "climb": 0.0, "eps": 85.71, "epc": 174.14}], "gst": [{"class": "GST", "device": "/dev/ttyUSB1", "time": "1970-01-01T00:00:00.000Z", "rms": 0.0, "major": 0.0, "minor": 0.0, "orient": 0.0, "lat": 0.0, "lon": 0.0, "alt": 0.0}], "sky": [{"class": "SKY", "device": "/dev/ttyUSB1", "time": "2020-09-06T12:54:18.000Z", "xdop": 2.86, "ydop": 1.09, "vdop": 3.79, "hdop": 6.0, "gdop": 6.03, "pdop": 4.87, "satellites": [{"PRN": 6, "el": 77, "az": 295, "ss": 34, "used": true}, {"PRN": 17, "el": 54, "az": 46, "ss": 24, "used": true}, {"PRN": 19, "el": 60, "az": 7, "ss": 35, "used": true}, {"PRN": 2, "el": 70, "az": 271, "ss": 12, "used": true}, {"PRN": 3, "el": 16, "az": 43, "ss": 17, "used": true}, {"PRN": 28, "el": 42, "az": 141, "ss": 16, "used": true}, {"PRN": 25, "el": 11, "az": 318, "ss": 0, "used": false}, {"PRN": 24, "el": 23, "az": 261, "ss": 0, "used": false}, {"PRN": 22, "el": 4, "az": 37, "ss": 0, "used": false}, {"PRN": 138, "el": 43, "az": 217, "ss": 0, "used": false}]}], "_extra_data": {"message": "0 CPS | 11 CPM", "data": {"time": 1599396853.0911615, "cps": 0, "cpsl": 0, "cpsh": 0, "cpm": 11, "cpml": 11, "cpmh": 0, "maxcps": 9, "calibration": {"CalibCPM_0": 100, "CalibuSv_0": 0.6499999761581421, "CalibCPM_1": 30000, "CalibuSv_1": 195.0, "CalibCPM_2": 25, "CalibuSv_2": 4.849999904632568}}}}
{"class": "POLL", "time": "2020-09-06T12:54:25.060Z", "active": 1, "tpv": [{"class": "TPV", "device": "/dev/ttyUSB1", "mode": 3, "time": "2020-09-06T12:54:23.000Z", "ept": 0.005, "lat": 33.753691507, "lon": -84.245552208, "alt": 306.293, "epx": 42.857, "epy": 16.33, "epv": 87.069, "track": 0.0, "speed": 0.0, "climb": 0.0, "eps": 85.71, "epc": 174.14}], "gst": [{"class": "GST", "device": "/dev/ttyUSB1", "time": "1970-01-01T00:00:00.000Z", "rms": 0.0, "major": 0.0, "minor": 0.0, "orient": 0.0, "lat": 0.0, "lon": 0.0, "alt": 0.0}], "sky": [{"class": "SKY", "device": "/dev/ttyUSB1", "time": "2020-09-06T12:54:21.000Z", "xdop": 2.86, "ydop": 1.09, "vdop": 3.79, "hdop": 3.0, "gdop": 6.03, "pdop": 4.87, "satellites": [{"PRN": 6, "el": 77, "az": 295, "ss": 34, "used": true}, {"PRN": 17, "el": 54, "az": 46, "ss": 25, "used": true}, {"PRN": 19, "el": 60, "az": 7, "ss": 35, "used": true}, {"PRN": 2, "el": 70, "az": 271, "ss": 13, "used": true}, {"PRN": 3, "el": 16, "az": 43, "ss": 16, "used": true}, {"PRN": 28, "el": 42, "az": 141, "ss": 18, "used": true}, {"PRN": 22, "el": 4, "az": 37, "ss": 15, "used": false}, {"PRN": 24, "el": 23, "az": 261, "ss": 16, "used": false}, {"PRN": 25, "el": 11, "az": 318, "ss": 0, "used": false}, {"PRN": 138, "el": 43, "az": 217, "ss": 0, "used": false}]}], "_extra_data": {"message": "0 CPS | 8 CPM", "data": {"time": 1599396860.2396383, "cps": 0, "cpsl": 0, "cpsh": 0, "cpm": 8, "cpml": 8, "cpmh": 0, "maxcps": 9, "calibration": {"CalibCPM_0": 100, "CalibuSv_0": 0.6499999761581421, "CalibCPM_1": 30000, "CalibuSv_1": 195.0, "CalibCPM_2": 25, "CalibuSv_2": 4.849999904632568}}}}
{"class": "POLL", "time": "2020-09-06T12:54:35.118Z", "active": 1, "tpv": [{"class": "TPV", "device": "/dev/ttyUSB1", "mode": 3, "time": "2020-09-06T12:54:33.000Z", "ept": 0.005, "lat": 33.753686523, "lon": -84.245553291, "alt": 307.12, "epx": 42.857, "epy": 16.33, "epv": 87.069, "track": 158.5007, "speed": 0.305, "climb": -0.025, "eps": 88.37, "epc": 179.52}], "gst": [{"class": "GST", "device": "/dev/ttyUSB1", "time": "1970-01-01T00:00:00.000Z", "rms": 0.0, "major": 0.0, "minor": 0.0, "orient": 0.0, "lat": 0.0, "lon": 0.0, "alt": 0.0}], "sky": [{"class": "SKY", "device": "/dev/ttyUSB1", "time": "2020-09-06T12:54:33.000Z", "xdop": 2.86, "ydop": 1.09, "vdop": 3.79, "hdop": 2.4, "gdop": 6.03, "pdop": 4.87, "satellites": [{"PRN": 6, "el": 77, "az": 295, "ss": 33, "used": true}, {"PRN": 17, "el": 54, "az": 46, "ss": 28, "used": true}, {"PRN": 19, "el": 60, "az": 7, "ss": 34, "used": true}, {"PRN": 2, "el": 70, "az": 271, "ss": 18, "used": true}, {"PRN": 3, "el": 16, "az": 43, "ss": 7, "used": true}, {"PRN": 28, "el": 42, "az": 141, "ss": 16, "used": true}, {"PRN": 24, "el": 23, "az": 261, "ss": 0, "used": false}, {"PRN": 25, "el": 11, "az": 318, "ss": 13, "used": false}, {"PRN": 22, "el": 4, "az": 37, "ss": 0, "used": false}, {"PRN": 138, "el": 43, "az": 217, "ss": 0, "used": false}]}], "_extra_data": {"message": "1 CPS | 6 CPM", "data": {"time": 1599396874.5215821, "cps": 1, "cpsl": 1, "cpsh": 0, "cpm": 6, "cpml": 6, "cpmh": 0, "maxcps": 9, "calibration": {"CalibCPM_0": 100, "CalibuSv_0": 0.6499999761581421, "CalibCPM_1": 30000, "CalibuSv_1": 195.0, "CalibCPM_2": 25, "CalibuSv_2": 4.849999904632568}}}}
{"class": "POLL", "time": "2020-09-06T12:54:40.141Z", "active": 1, "tpv": [{"class": "TPV", "device": "/dev/ttyUSB1", "mode": 3, "time": "2020-09-06T12:54:38.000Z", "ept": 0.005, "lat": 33.75366705, "lon": -84.245565111, "alt": 306.752, "epx": 42.857, "epy": 16.33, "epv": 87.069, "track": 131.7214, "speed": 0.167, "climb": -0.059, "eps": 85.71, "epc": 174.14}], "gst": [{"class": "GST", "device": "/dev/ttyUSB1", "time": "1970-01-01T00:00:00.000Z", "rms": 0.0, "major": 0.0, "minor": 0.0, "orient": 0.0, "lat": 0.0, "lon": 0.0, "alt": 0.0}], "sky": [{"class": "SKY", "device": "/dev/ttyUSB1", "time": "2020-09-06T12:54:36.000Z", "xdop": 2.86, "ydop": 1.09, "vdop": 3.79, "hdop": 3.0, "gdop": 6.03, "pdop": 4.87, "satellites": [{"PRN": 6, "el": 77, "az": 295, "ss": 34, "used": true}, {"PRN": 17, "el": 54, "az": 46, "ss": 28, "used": true}, {"PRN": 19, "el": 60, "az": 7, "ss": 34, "used": true}, {"PRN": 2, "el": 70, "az": 271, "ss": 20, "used": true}, {"PRN": 3, "el": 16, "az": 43, "ss": 11, "used": true}, {"PRN": 28, "el": 42, "az": 141, "ss": 14, "used": true}, {"PRN": 24, "el": 23, "az": 261, "ss": 15, "used": false}, {"PRN": 25, "el": 11, "az": 318, "ss": 12, "used": true}, {"PRN": 22, "el": 4, "az": 37, "ss": 0, "used": false}, {"PRN": 138, "el": 43, "az": 217, "ss": 0, "used": false}]}], "_extra_data": {"message": "1 CPS | 6 CPM", "data": {"time": 1599396874.5215821, "cps": 1, "cpsl": 1, "cpsh": 0, "cpm": 6, "cpml": 6, "cpmh": 0, "maxcps": 9, "calibration": {"CalibCPM_0": 100, "CalibuSv_0": 0.6499999761581421, "CalibCPM_1": 30000, "CalibuSv_1": 195.0, "CalibCPM_2": 25, "CalibuSv_2": 4.849999904632568}}}}
{"class": "POLL", "time": "2020-09-06T12:54:50.198Z", "active": 1, "tpv": [{"class": "TPV", "device": "/dev/ttyUSB1", "mode": 3, "time": "2020-09-06T12:54:47.000Z", "ept": 0.005, "lat": 33.753652561, "lon": -84.245575849, "alt": 305.558, "epx": 42.857, "epy": 16.33, "epv": 87.069, "track": 138.0938, "speed": 0.54, "climb": -0.074, "eps": 88.37, "epc": 179.52}], "gst": [{"class": "GST", "device": "/dev/ttyUSB1", "time": "1970-01-01T00:00:00.000Z", "rms": 0.0, "major": 0.0, "minor": 0.0, "orient": 0.0, "lat": 0.0, "lon": 0.0, "alt": 0.0}], "sky": [{"class": "SKY", "device": "/dev/ttyUSB1", "time": "2020-09-06T12:54:48.000Z", "xdop": 2.86, "ydop": 1.09, "vdop": 3.79, "tdop": 4.52, "hdop": 6.0, "gdop": 6.03, "pdop": 4.87, "satellites": [{"PRN": 6, "el": 77, "az": 298, "ss": 36, "used": true}, {"PRN": 17, "el": 53, "az": 48, "ss": 30, "used": true}, {"PRN": 19, "el": 60, "az": 9, "ss": 34, "used": true}, {"PRN": 2, "el": 70, "az": 273, "ss": 16, "used": false}, {"PRN": 3, "el": 16, "az": 43, "ss": 12, "used": true}, {"PRN": 28, "el": 41, "az": 142, "ss": 16, "used": false}, {"PRN": 24, "el": 22, "az": 259, "ss": 0, "used": false}, {"PRN": 25, "el": 12, "az": 318, "ss": 0, "used": false}, {"PRN": 22, "el": 4, "az": 36, "ss": 0, "used": false}, {"PRN": 135, "el": 27, "az": 241, "ss": 0, "used": false}]}], "_extra_data": {"message": "0 CPS | 4 CPM", "data": {"time": 1599396888.800479, "cps": 0, "cpsl": 0, "cpsh": 0, "cpm": 4, "cpml": 5, "cpmh": 0, "maxcps": 9, "calibration": {"CalibCPM_0": 100, "CalibuSv_0": 0.6499999761581421, "CalibCPM_1": 30000, "CalibuSv_1": 195.0, "CalibCPM_2": 25, "CalibuSv_2": 4.849999904632568}}}}
{"class": "POLL", "time": "2020-09-06T12:54:55.219Z", "active": 1, "tpv": [{"class": "TPV", "device": "/dev/ttyUSB1", "mode": 3, "time": "2020-09-06T12:54:53.000Z", "ept": 0.005, "lat": 33.753609094, "lon": -84.245608065, "alt": 301.974, "epx": 42.857, "epy": 16.33, "epv": 87.069, "track": 152.2868, "speed": 0.321, "climb": -0.474, "eps": 85.71, "epc": 174.14}], "gst": [{"class": "GST", "device": "/dev/ttyUSB1", "time": "1970-01-01T00:00:00.000Z", "rms": 0.0, "major": 0.0, "minor": 0.0, "orient": 0.0, "lat": 0.0, "lon": 0.0, "alt": 0.0}], "sky": [{"class": "SKY", "device": "/dev/ttyUSB1", "time": "2020-09-06T12:54:51.000Z", "xdop": 2.86, "ydop": 1.09, "vdop": 3.79, "hdop": 3.0, "gdop": 6.03, "pdop": 4.87, "satellites": [{"PRN": 6, "el": 77, "az": 298, "ss": 36, "used": true}, {"PRN": 17, "el": 53, "az": 48, "ss": 30, "used": true}, {"PRN": 19, "el": 60, "az": 9, "ss": 34, "used": true}, {"PRN": 2, "el": 70, "az": 273, "ss": 0, "used": false}, {"PRN": 3, "el": 16, "az": 43, "ss": 12, "used": true}, {"PRN": 28, "el": 41, "az": 142, "ss": 18, "used": true}, {"PRN": 24, "el": 22, "az": 259, "ss": 0, "used": false}, {"PRN": 25, "el": 12, "az": 318, "ss": 0, "used": false}, {"PRN": 22, "el": 4, "az": 36, "ss": 0, "used": false}, {"PRN": 135, "el": 27, "az": 241, "ss": 0, "used": false}]}], "_extra_data": {"message": "0 CPS | 4 CPM", "data": {"time": 1599396888.800479, "cps": 0, "cpsl": 0, "cpsh": 0, "cpm": 4, "cpml": 5, "cpmh": 0, "maxcps": 9, "calibration": {"CalibCPM_0": 100, "CalibuSv_0": 0.6499999761581421, "CalibCPM_1": 30000, "CalibuSv_1": 195.0, "CalibCPM_2": 25, "CalibuSv_2": 4.849999904632568}}}}
{"class": "POLL", "time": "2020-09-06T12:55:00.237Z", "active": 1, "tpv": [{"class": "TPV", "device": "/dev/ttyUSB1", "mode": 3, "time": "2020-09-06T12:54:58.000Z", "ept": 0.005, "lat": 33.753606582, "lon": -84.245659592, "alt": 298.791, "epx": 42.857, "epy": 16.33, "epv": 87.069, "track": 177.0437, "speed": 0.243, "climb": -0.312, "eps": 85.71, "epc": 174.14}], "gst": [{"class": "GST", "device": "/dev/ttyUSB1", "time": "1970-01-01T00:00:00.000Z", "rms": 0.0, "major": 0.0, "minor": 0.0, "orient": 0.0, "lat": 0.0, "lon": 0.0, "alt": 0.0}], "sky": [{"class": "SKY", "device": "/dev/ttyUSB1", "time": "2020-09-06T12:54:57.000Z", "xdop": 2.86, "ydop": 1.09, "vdop": 3.79, "hdop": 3.0, "gdop": 6.03, "pdop": 4.87, "satellites": [{"PRN": 6, "el": 77, "az": 298, "ss": 37, "used": true}, {"PRN": 17, "el": 53, "az": 48, "ss": 30, "used": true}, {"PRN": 19, "el": 60, "az": 9, "ss": 34, "used": true}, {"PRN": 2, "el": 70, "az": 273, "ss": 0, "used": false}, {"PRN": 3, "el": 16, "az": 43, "ss": 13, "used": true}, {"PRN": 28, "el": 41, "az": 142, "ss": 15, "used": true}, {"PRN": 24, "el": 22, "az": 259, "ss": 0, "used": false}, {"PRN": 25, "el": 12, "az": 318, "ss": 0, "used": false}, {"PRN": 22, "el": 4, "az": 36, "ss": 0, "used": false}, {"PRN": 135, "el": 27, "az": 241, "ss": 0, "used": false}]}], "_extra_data": {"message": "0 CPS | 10 CPM", "data": {"time": 1599396895.941498, "cps": 0, "cpsl": 0, "cpsh": 0, "cpm": 10, "cpml": 10, "cpmh": 0, "maxcps": 9, "calibration": {"CalibCPM_0": 100, "CalibuSv_0": 0.6499999761581421, "CalibCPM_1": 30000, "CalibuSv_1": 195.0, "CalibCPM_2": 25, "CalibuSv_2": 4.849999904632568}}}}
{"class": "POLL", "time": "2020-09-06T12:55:05.264Z", "active": 1, "tpv": [{"class": "TPV", "device": "/dev/ttyUSB1", "mode": 3, "time": "2020-09-06T12:55:03.000Z", "ept": 0.005, "lat": 33.75362304, "lon": -84.245688561, "alt": 296.06, "epx": 42.857, "epy": 16.33, "epv": 87.069, "track": 225.9179, "speed": 0.329, "climb": -0.333, "eps": 85.71, "epc": 174.14}], "gst": [{"class": "GST", "device": "/dev/ttyUSB1", "time": "1970-01-01T00:00:00.000Z", "rms": 0.0, "major": 0.0, "minor": 0.0, "orient": 0.0, "lat": 0.0, "lon": 0.0, "alt": 0.0}], "sky": [{"class": "SKY", "device": "/dev/ttyUSB1", "time": "2020-09-06T12:55:03.000Z", "xdop": 2.86, "ydop": 1.09, "vdop": 3.79, "hdop": 3.0, "gdop": 6.03, "pdop": 4.87, "satellites": [{"PRN": 6, "el": 77, "az": 298, "ss": 38, "used": true}, {"PRN": 17, "el": 53, "az": 48, "ss": 29, "used": true}, {"PRN": 19, "el": 60, "az": 9, "ss": 34, "used": true}, {"PRN": 2, "el": 70, "az": 273, "ss": 21, "used": true}, {"PRN": 3, "el": 16, "az": 43, "ss": 13, "used": true}, {"PRN": 28, "el": 41, "az": 142, "ss": 12, "used": true}, {"PRN": 24, "el": 22, "az": 259, "ss": 0, "used": false}, {"PRN": 25, "el": 12, "az": 318, "ss": 0, "used": false}, {"PRN": 22, "el": 4, "az": 36, "ss": 0, "used": false}, {"PRN": 135, "el": 27, "az": 241, "ss": 0, "used": false}]}], "_extra_data": {"message": "0 CPS | 12 CPM", "data": {"time": 1599396903.083419, "cps": 0, "cpsl": 0, "cpsh": 0, "cpm": 12, "cpml": 12, "cpmh": 0, "maxcps": 9, "calibration": {"CalibCPM_0": 100, "CalibuSv_0": 0.6499999761581421, "CalibCPM_1": 30000, "CalibuSv_1": 195.0, "CalibCPM_2": 25, "CalibuSv_2": 4.849999904632568}}}}
{"class": "POLL", "time": "2020-09-06T12:55:10.290Z", "active": 1, "tpv": [{"class": "TPV", "device": "/dev/ttyUSB1", "mode": 3, "time": "2020-09-06T12:55:08.000Z", "ept": 0.005, "lat": 33.753631038, "lon": -84.2456993, "alt": 296.532, "epx": 42.857, "epy": 16.33, "epv": 87.069, "track": 121.5119, "speed": 0.438, "climb": -0.108, "eps": 85.71, "epc": 174.14}], "gst": [{"class": "GST", "device": "/dev/ttyUSB1", "time": "1970-01-01T00:00:00.000Z", "rms": 0.0, "major": 0.0, "minor": 0.0, "orient": 0.0, "lat": 0.0, "lon": 0.0, "alt": 0.0}], "sky": [{"class": "SKY", "device": "/dev/ttyUSB1", "time": "2020-09-06T12:55:06.000Z", "xdop": 2.86, "ydop": 1.09, "vdop": 3.79, "hdop": 3.0, "gdop": 6.03, "pdop": 4.87, "satellites": [{"PRN": 6, "el": 77, "az": 298, "ss": 38, "used": true}, {"PRN": 17, "el": 53, "az": 48, "ss": 28, "used": true}, {"PRN": 19, "el": 60, "az": 9, "ss": 34, "used": true}, {"PRN": 2, "el": 70, "az": 273, "ss": 20, "used": true}, {"PRN": 3, "el": 16, "az": 43, "ss": 13, "used": true}, {"PRN": 28, "el": 41, "az": 142, "ss": 12, "used": true}, {"PRN": 24, "el": 22, "az": 259, "ss": 0, "used": false}, {"PRN": 25, "el": 12, "az": 318, "ss": 0, "used": false}, {"PRN": 22, "el": 4, "az": 36, "ss": 0, "used": false}, {"PRN": 135, "el": 27, "az": 241, "ss": 0, "used": false}]}], "_extra_data": {"message": "0 CPS | 15 CPM", "data": {"time": 1599396910.2210977, "cps": 0, "cpsl": 0, "cpsh": 0, "cpm": 15, "cpml": 15, "cpmh": 0, "maxcps": 9, "calibration": {"CalibCPM_0": 100, "CalibuSv_0": 0.6499999761581421, "CalibCPM_1": 30000, "CalibuSv_1": 195.0, "CalibCPM_2": 25, "CalibuSv_2": 4.849999904632568}}}}
{"class": "POLL", "time": "2020-09-06T12:55:15.318Z", "active": 1, "tpv": [{"class": "TPV", "device": "/dev/ttyUSB1", "mode": 3, "time": "2020-09-06T12:55:13.000Z", "ept": 0.005, "lat": 33.753643015, "lon": -84.245687479, "alt": 296.344, "epx": 42.857, "epy": 16.33, "epv": 87.069, "track": 232.0581, "speed": 0.158, "climb": -0.08, "eps": 85.71, "epc": 174.14}], "gst": [{"class": "GST", "device": "/dev/ttyUSB1", "time": "1970-01-01T00:00:00.000Z", "rms": 0.0, "major": 0.0, "minor": 0.0, "orient": 0.0, "lat": 0.0, "lon": 0.0, "alt": 0.0}], "sky": [{"class": "SKY", "device": "/dev/ttyUSB1", "time": "2020-09-06T12:55:12.000Z", "xdop": 2.86, "ydop": 1.09, "vdop": 3.79, "hdop": 3.0, "gdop": 6.03, "pdop": 4.87, "satellites": [{"PRN": 6, "el": 77, "az": 298, "ss": 33, "used": true}, {"PRN": 17, "el": 53, "az": 48, "ss": 36, "used": true}, {"PRN": 19, "el": 60, "az": 9, "ss": 34, "used": true}, {"PRN": 2, "el": 70, "az": 273, "ss": 18, "used": false}, {"PRN": 3, "el": 16, "az": 43, "ss": 16, "used": true}, {"PRN": 28, "el": 41, "az": 142, "ss": 29, "used": true}, {"PRN": 24, "el": 22, "az": 259, "ss": 0, "used": false}, {"PRN": 25, "el": 12, "az": 318, "ss": 0, "used": false}, {"PRN": 22, "el": 4, "az": 36, "ss": 0, "used": false}, {"PRN": 135, "el": 27, "az": 241, "ss": 0, "used": false}]}], "_extra_data": {"message": "0 CPS | 15 CPM", "data": {"time": 1599396910.2210977, "cps": 0, "cpsl": 0, "cpsh": 0, "cpm": 15, "cpml": 15, "cpmh": 0, "maxcps": 9, "calibration": {"CalibCPM_0": 100, "CalibuSv_0": 0.6499999761581421, "CalibCPM_1": 30000, "CalibuSv_1": 195.0, "CalibCPM_2": 25, "CalibuSv_2": 4.849999904632568}}}}
{"class": "POLL", "time": "2020-09-06T12:55:20.349Z", "active": 1, "tpv": [{"class": "TPV", "device": "/dev/ttyUSB1", "mode": 3, "time": "2020-09-06T12:55:19.000Z", "ept": 0.005, "lat": 33.753630033, "lon": -84.245677823, "alt": 296.699, "epx": 42.857, "epy": 16.33, "epv": 87.069, "track": 0.0, "speed": 0.0, "climb": 0.0, "eps": 85.71, "epc": 174.14}], "gst": [{"class": "GST", "device": "/dev/ttyUSB1", "time": "1970-01-01T00:00:00.000Z", "rms": 0.0, "major": 0.0, "minor": 0.0, "orient": 0.0, "lat": 0.0, "lon": 0.0, "alt": 0.0}], "sky": [{"class": "SKY", "device": "/dev/ttyUSB1", "time": "2020-09-06T12:55:18.000Z", "xdop": 2.86, "ydop": 1.09, "vdop": 3.79, "hdop": 3.0, "gdop": 6.03, "pdop": 4.87, "satellites": [{"PRN": 6, "el": 77, "az": 298, "ss": 32, "used": true}, {"PRN": 17, "el": 53, "az": 48, "ss": 30, "used": true}, {"PRN": 19, "el": 60, "az": 9, "ss": 24, "used": true}, {"PRN": 2, "el": 70, "az": 273, "ss": 17, "used": true}, {"PRN": 3, "el": 16, "az": 43, "ss": 14, "used": true}, {"PRN": 28, "el": 41, "az": 142, "ss": 28, "used": true}, {"PRN": 24, "el": 22, "az": 259, "ss": 18, "used": false}, {"PRN": 25, "el": 12, "az": 318, "ss": 0, "used": false}, {"PRN": 22, "el": 4, "az": 36, "ss": 0, "used": false}, {"PRN": 120, "el": 8, "az": 102, "ss": 0, "used": false}]}], "_extra_data": {"message": "0 CPS | 18 CPM", "data": {"time": 1599396917.3628082, "cps": 0, "cpsl": 0, "cpsh": 0, "cpm": 18, "cpml": 18, "cpmh": 0, "maxcps": 9, "calibration": {"CalibCPM_0": 100, "CalibuSv_0": 0.6499999761581421, "CalibCPM_1": 30000, "CalibuSv_1": 195.0, "CalibCPM_2": 25, "CalibuSv_2": 4.849999904632568}}}}
{"class": "POLL", "time": "2020-09-06T12:55:25.376Z", "active": 1, "tpv": [{"class": "TPV", "device": "/dev/ttyUSB1", "mode": 3, "time": "2020-09-06T12:55:23.000Z", "ept": 0.005, "lat": 33.753630033, "lon": -84.245677823, "alt": 296.699, "epx": 42.857, "epy": 16.33, "epv": 87.069, "track": 0.0, "speed": 0.0, "climb": 0.0, "eps": 85.71, "epc": 174.14}], "gst": [{"class": "GST", "device": "/dev/ttyUSB1", "time": "1970-01-01T00:00:00.000Z", "rms": 0.0, "major": 0.0, "minor": 0.0, "orient": 0.0, "lat": 0.0, "lon": 0.0, "alt": 0.0}], "sky": [{"class": "SKY", "device": "/dev/ttyUSB1", "time": "2020-09-06T12:55:21.000Z", "xdop": 2.86, "ydop": 1.09, "vdop": 3.79, "hdop": 3.0, "gdop": 6.03, "pdop": 4.87, "satellites": [{"PRN": 6, "el": 77, "az": 298, "ss": 32, "used": true}, {"PRN": 17, "el": 53, "az": 48, "ss": 30, "used": true}, {"PRN": 19, "el": 60, "az": 9, "ss": 26, "used": true}, {"PRN": 2, "el": 70, "az": 273, "ss": 21, "used": true}, {"PRN": 3, "el": 16, "az": 43, "ss": 9, "used": true}, {"PRN": 28, "el": 41, "az": 142, "ss": 28, "used": true}, {"PRN": 24, "el": 22, "az": 259, "ss": 0, "used": false}, {"PRN": 25, "el": 12, "az": 318, "ss": 0, "used": false}, {"PRN": 22, "el": 4, "az": 36, "ss": 0, "used": false}, {"PRN": 120, "el": 8, "az": 102, "ss": 0, "used": false}]}], "_extra_data": {"message": "0 CPS | 18 CPM", "data": {"time": 1599396924.5095835, "cps": 0, "cpsl": 0, "cpsh": 0, "cpm": 18, "cpml": 18, "cpmh": 0, "maxcps": 9, "calibration": {"CalibCPM_0": 100, "CalibuSv_0": 0.6499999761581421, "CalibCPM_1": 30000, "CalibuSv_1": 195.0, "CalibCPM_2": 25, "CalibuSv_2": 4.849999904632568}}}}
{"class": "POLL", "time": "2020-09-06T12:55:30.405Z", "active": 1, "tpv": [{"class": "TPV", "device": "/dev/ttyUSB1", "mode": 3, "time": "2020-09-06T12:55:29.000Z", "ept": 0.005, "lat": 33.753629531, "lon": -84.245667084, "alt": 296.782, "epx": 42.857, "epy": 16.33, "epv": 87.069, "track": 0.0, "speed": 0.0, "climb": 0.0, "eps": 85.71, "epc": 174.14}], "gst": [{"class": "GST", "device": "/dev/ttyUSB1", "time": "1970-01-01T00:00:00.000Z", "rms": 0.0, "major": 0.0, "minor": 0.0, "orient": 0.0, "lat": 0.0, "lon": 0.0, "alt": 0.0}], "sky": [{"class": "SKY", "device": "/dev/ttyUSB1", "time": "2020-09-06T12:55:27.000Z", "xdop": 2.86, "ydop": 1.09, "vdop": 3.79, "hdop": 2.4, "gdop": 6.03, "pdop": 4.87, "satellites": [{"PRN": 6, "el": 77, "az": 298, "ss": 32, "used": true}, {"PRN": 17, "el": 53, "az": 48, "ss": 28, "used": true}, {"PRN": 19, "el": 60, "az": 9, "ss": 29, "used": true}, {"PRN": 2, "el": 70, "az": 273, "ss": 24, "used": true}, {"PRN": 3, "el": 16, "az": 43, "ss": 9, "used": true}, {"PRN": 28, "el": 41, "az": 142, "ss": 28, "used": true}, {"PRN": 22, "el": 4, "az": 36, "ss": 15, "used": false}, {"PRN": 25, "el": 12, "az": 318, "ss": 14, "used": false}, {"PRN": 24, "el": 22, "az": 259, "ss": 5, "used": false}, {"PRN": 120, "el": 8, "az": 102, "ss": 0, "used": false}]}], "_extra_data": {"message": "0 CPS | 18 CPM", "data": {"time": 1599396924.5095835, "cps": 0, "cpsl": 0, "cpsh": 0, "cpm": 18, "cpml": 18, "cpmh": 0, "maxcps": 9, "calibration": {"CalibCPM_0": 100, "CalibuSv_0": 0.6499999761581421, "CalibCPM_1": 30000, "CalibuSv_1": 195.0, "CalibCPM_2": 25, "CalibuSv_2": 4.849999904632568}}}}
{"class": "POLL", "time": "2020-09-06T12:55:35.430Z", "active": 1, "tpv": [{"class": "TPV", "device": "/dev/ttyUSB1", "mode": 3, "time": "2020-09-06T12:55:34.000Z", "ept": 0.005, "lat": 33.753621533, "lon": -84.245656346, "alt": 296.31, "epx": 42.857, "epy": 16.33, "epv": 87.069, "track": 0.0, "speed": 0.0, "climb": 0.0, "eps": 85.71, "epc": 174.14}], "gst": [{"class": "GST", "device": "/dev/ttyUSB1", "time": "1970-01-01T00:00:00.000Z", "rms": 0.0, "major": 0.0, "minor": 0.0, "orient": 0.0, "lat": 0.0, "lon": 0.0, "alt": 0.0}], "sky": [{"class": "SKY", "device": "/dev/ttyUSB1", "time": "2020-09-06T12:55:33.000Z", "xdop": 2.86, "ydop": 1.09, "vdop": 3.79, "hdop": 3.0, "gdop": 6.03, "pdop": 4.87, "satellites": [{"PRN": 6, "el": 77, "az": 298, "ss": 32, "used": true}, {"PRN": 17, "el": 53, "az": 48, "ss": 34, "used": true}, {"PRN": 19, "el": 60, "az": 9, "ss": 37, "used": true}, {"PRN": 2, "el": 70, "az": 273, "ss": 24, "used": true}, {"PRN": 3, "el": 16, "az": 43, "ss": 26, "used": true}, {"PRN": 28, "el": 41, "az": 142, "ss": 19, "used": true}, {"PRN": 22, "el": 4, "az": 36, "ss": 18, "used": false}, {"PRN": 24, "el": 22, "az": 259, "ss": 0, "used": false}, {"PRN": 25, "el": 12, "az": 318, "ss": 0, "used": false}, {"PRN": 120, "el": 8, "az": 102, "ss": 0, "used": false}]}], "_extra_data": {"message": "0 CPS | 17 CPM", "data": {"time": 1599396931.65184, "cps": 0, "cpsl": 1, "cpsh": 0, "cpm": 17, "cpml": 16, "cpmh": 0, "maxcps": 9, "calibration": {"CalibCPM_0": 100, "CalibuSv_0": 0.6499999761581421, "CalibCPM_1": 30000, "CalibuSv_1": 195.0, "CalibCPM_2": 25, "CalibuSv_2": 4.849999904632568}}}}
{"class": "POLL", "time": "2020-09-06T12:55:40.457Z", "active": 1, "tpv": [{"class": "TPV", "device": "/dev/ttyUSB1", "mode": 3, "time": "2020-09-06T12:55:38.000Z", "ept": 0.005, "lat": 33.753616549, "lon": -84.245657428, "alt": 297.137, "epx": 42.857, "epy": 16.33, "epv": 87.069, "track": 0.0, "speed": 0.0, "climb": 0.0, "eps": 85.71, "epc": 174.14}], "gst": [{"class": "GST", "device": "/dev/ttyUSB1", "time": "1970-01-01T00:00:00.000Z", "rms": 0.0, "major": 0.0, "minor": 0.0, "orient": 0.0, "lat": 0.0, "lon": 0.0, "alt": 0.0}], "sky": [{"class": "SKY", "device": "/dev/ttyUSB1", "time": "2020-09-06T12:55:36.000Z", "xdop": 2.86, "ydop": 1.09, "vdop": 3.79, "hdop": 3.0, "gdop": 6.03, "pdop": 4.87, "satellites": [{"PRN": 6, "el": 77, "az": 298, "ss": 33, "used": true}, {"PRN": 17, "el": 53, "az": 48, "ss": 34, "used": true}, {"PRN": 19, "el": 60, "az": 9, "ss": 36, "used": true}, {"PRN": 2, "el": 70, "az": 273, "ss": 24, "used": true}, {"PRN": 3, "el": 16, "az": 43, "ss": 25, "used": true}, {"PRN": 28, "el": 41, "az": 142, "ss": 18, "used": true}, {"PRN": 22, "el": 4, "az": 36, "ss": 7, "used": false}, {"PRN": 24, "el": 22, "az": 259, "ss": 0, "used": false}, {"PRN": 25, "el": 12, "az": 318, "ss": 0, "used": false}, {"PRN": 120, "el": 8, "az": 102, "ss": 0, "used": false}]}], "_extra_data": {"message": "1 CPS | 19 CPM", "data": {"time": 1599396938.8023353, "cps": 1, "cpsl": 0, "cpsh": 0, "cpm": 19, "cpml": 18, "cpmh": 1, "maxcps": 9, "calibration": {"CalibCPM_0": 100, "CalibuSv_0": 0.6499999761581421, "CalibCPM_1": 30000, "CalibuSv_1": 195.0, "CalibCPM_2": 25, "CalibuSv_2": 4.849999904632568}}}}
{"class": "POLL", "time": "2020-09-06T12:55:45.483Z", "active": 1, "tpv": [{"class": "TPV", "device": "/dev/ttyUSB1", "mode": 3, "time": "2020-09-06T12:55:44.000Z", "ept": 0.005, "lat": 33.753616047, "lon": -84.24564669, "alt": 297.22, "epx": 42.857, "epy": 16.33, "epv": 87.069, "track": 108.4971, "speed": 0.393, "climb": -0.038, "eps": 85.71, "epc": 174.14}], "gst": [{"class": "GST", "device": "/dev/ttyUSB1", "time": "1970-01-01T00:00:00.000Z", "rms": 0.0, "major": 0.0, "minor": 0.0, "orient": 0.0, "lat": 0.0, "lon": 0.0, "alt": 0.0}], "sky": [{"class": "SKY", "device": "/dev/ttyUSB1", "time": "2020-09-06T12:55:42.000Z", "xdop": 2.86, "ydop": 1.09, "vdop": 3.79, "hdop": 3.0, "gdop": 6.03, "pdop": 4.87, "satellites": [{"PRN": 6, "el": 77, "az": 298, "ss": 32, "used": true}, {"PRN": 17, "el": 53, "az": 48, "ss": 33, "used": true}, {"PRN": 19, "el": 60, "az": 9, "ss": 24, "used": true}, {"PRN": 2, "el": 70, "az": 273, "ss": 23, "used": true}, {"PRN": 3, "el": 16, "az": 43, "ss": 23, "used": true}, {"PRN": 28, "el": 41, "az": 142, "ss": 4, "used": false}, {"PRN": 22, "el": 4, "az": 36, "ss": 3, "used": false}, {"PRN": 24, "el": 22, "az": 259, "ss": 0, "used": false}, {"PRN": 25, "el": 12, "az": 318, "ss": 0, "used": false}, {"PRN": 120, "el": 8, "az": 102, "ss": 0, "used": false}]}], "_extra_data": {"message": "1 CPS | 19 CPM", "data": {"time": 1599396938.8023353, "cps": 1, "cpsl": 0, "cpsh": 0, "cpm": 19, "cpml": 18, "cpmh": 1, "maxcps": 9, "calibration": {"CalibCPM_0": 100, "CalibuSv_0": 0.6499999761581421, "CalibCPM_1": 30000, "CalibuSv_1": 195.0, "CalibCPM_2": 25, "CalibuSv_2": 4.849999904632568}}}}
{"class": "POLL", "time": "2020-09-06T12:55:50.506Z", "active": 1, "tpv": [{"class": "TPV", "device": "/dev/ttyUSB1", "mode": 3, "time": "2020-09-06T12:55:49.000Z", "ept": 0.005, "lat": 33.753616047, "lon": -84.24564669, "alt": 297.22, "epx": 42.857, "epy": 16.33, "epv": 87.069, "track": 328.146, "speed": 0.212, "climb": -0.044, "eps": 85.71, "epc": 174.14}], "gst": [{"class": "GST", "device": "/dev/ttyUSB1", "time": "1970-01-01T00:00:00.000Z", "rms": 0.0, "major": 0.0, "minor": 0.0, "orient": 0.0, "lat": 0.0, "lon": 0.0, "alt": 0.0}], "sky": [{"class": "SKY", "device": "/dev/ttyUSB1", "time": "2020-09-06T12:55:48.000Z", "xdop": 2.86, "ydop": 1.09, "vdop": 3.79, "hdop": 3.0, "gdop": 6.03, "pdop": 4.87, "satellites": [{"PRN": 6, "el": 77, "az": 298, "ss": 31, "used": true}, {"PRN": 17, "el": 53, "az": 48, "ss": 34, "used": true}, {"PRN": 19, "el": 60, "az": 9, "ss": 33, "used": true}, {"PRN": 2, "el": 70, "az": 273, "ss": 17, "used": true}, {"PRN": 3, "el": 16, "az": 43, "ss": 24, "used": true}, {"PRN": 28, "el": 41, "az": 142, "ss": 18, "used": true}, {"PRN": 24, "el": 22, "az": 259, "ss": 0, "used": false}, {"PRN": 25, "el": 12, "az": 318, "ss": 0, "used": false}, {"PRN": 22, "el": 4, "az": 36, "ss": 0, "used": false}, {"PRN": 138, "el": 43, "az": 217, "ss": 0, "used": false}]}], "_extra_data": {"message": "0 CPS | 21 CPM", "data": {"time": 1599396945.9449553, "cps": 0, "cpsl": 0, "cpsh": 0, "cpm": 21, "cpml": 20, "cpmh": 1, "maxcps": 9, "calibration": {"CalibCPM_0": 100, "CalibuSv_0": 0.6499999761581421, "CalibCPM_1": 30000, "CalibuSv_1": 195.0, "CalibCPM_2": 25, "CalibuSv_2": 4.849999904632568}}}}
{"class": "POLL", "time": "2020-09-06T12:55:55.528Z", "active": 1, "tpv": [{"class": "TPV", "device": "/dev/ttyUSB1", "mode": 3, "time": "2020-09-06T12:55:53.000Z", "ept": 0.005, "lat": 33.753616047, "lon": -84.24564669, "alt": 297.22, "epx": 42.857, "epy": 16.33, "epv": 87.069, "track": 0.0, "speed": 0.0, "climb": 0.0, "eps": 85.71, "epc": 174.14}], "gst": [{"class": "GST", "device": "/dev/ttyUSB1", "time": "1970-01-01T00:00:00.000Z", "rms": 0.0, "major": 0.0, "minor": 0.0, "orient": 0.0, "lat": 0.0, "lon": 0.0, "alt": 0.0}], "sky": [{"class": "SKY", "device": "/dev/ttyUSB1", "time": "2020-09-06T12:55:51.000Z", "xdop": 2.86, "ydop": 1.09, "vdop": 3.79, "hdop": 3.0, "gdop": 6.03, "pdop": 4.87, "satellites": [{"PRN": 6, "el": 77, "az": 298, "ss": 33, "used": true}, {"PRN": 17, "el": 53, "az": 48, "ss": 34, "used": true}, {"PRN": 19, "el": 60, "az": 9, "ss": 39, "used": true}, {"PRN": 2, "el": 70, "az": 273, "ss": 18, "used": true}, {"PRN": 3, "el": 16, "az": 43, "ss": 18, "used": true}, {"PRN": 28, "el": 41, "az": 142, "ss": 25, "used": true}, {"PRN": 24, "el": 22, "az": 259, "ss": 0, "used": false}, {"PRN": 25, "el": 12, "az": 318, "ss": 0, "used": false}, {"PRN": 22, "el": 4, "az": 36, "ss": 0, "used": false}, {"PRN": 138, "el": 43, "az": 217, "ss": 0, "used": false}]}], "_extra_data": {"message": "1 CPS | 17 CPM", "data": {"time": 1599396953.0843115, "cps": 1, "cpsl": 1, "cpsh": 0, "cpm": 17, "cpml": 16, "cpmh": 1, "maxcps": 9, "calibration": {"CalibCPM_0": 100, "CalibuSv_0": 0.6499999761581421, "CalibCPM_1": 30000, "CalibuSv_1": 195.0, "CalibCPM_2": 25, "CalibuSv_2": 4.849999904632568}}}}
{"class": "POLL", "time": "2020-09-06T12:56:00.555Z", "active": 1, "tpv": [{"class": "TPV", "device": "/dev/ttyUSB1", "mode": 3, "time": "2020-09-06T12:55:59.000Z", "ept": 0.005, "lat": 33.753623041, "lon": -84.245635951, "alt": 297.859, "epx": 42.857, "epy": 16.33, "epv": 87.069, "track": 0.0, "speed": 0.0, "climb": 0.0, "eps": 85.71, "epc": 174.14}], "gst": [{"class": "GST", "device": "/dev/ttyUSB1", "time": "1970-01-01T00:00:00.000Z", "rms": 0.0, "major": 0.0, "minor": 0.0, "orient": 0.0, "lat": 0.0, "lon": 0.0, "alt": 0.0}], "sky": [{"class": "SKY", "device": "/dev/ttyUSB1", "time": "2020-09-06T12:55:57.000Z", "xdop": 2.86, "ydop": 1.09, "vdop": 3.79, "hdop": 3.0, "gdop": 6.03, "pdop": 4.87, "satellites": [{"PRN": 6, "el": 77, "az": 298, "ss": 31, "used": true}, {"PRN": 17, "el": 53, "az": 48, "ss": 30, "used": true}, {"PRN": 19, "el": 60, "az": 9, "ss": 30, "used": true}, {"PRN": 2, "el": 70, "az": 273, "ss": 23, "used": true}, {"PRN": 3, "el": 16, "az": 43, "ss": 18, "used": true}, {"PRN": 28, "el": 41, "az": 142, "ss": 22, "used": true}, {"PRN": 24, "el": 22, "az": 259, "ss": 0, "used": false}, {"PRN": 25, "el": 12, "az": 318, "ss": 0, "used": false}, {"PRN": 22, "el": 4, "az": 36, "ss": 0, "used": false}, {"PRN": 138, "el": 43, "az": 217, "ss": 0, "used": false}]}], "_extra_data": {"message": "0 CPS | 14 CPM", "data": {"time": 1599396960.224625, "cps": 0, "cpsl": 0, "cpsh": 0, "cpm": 14, "cpml": 13, "cpmh": 1, "maxcps": 9, "calibration": {"CalibCPM_0": 100, "CalibuSv_0": 0.6499999761581421, "CalibCPM_1": 30000, "CalibuSv_1": 195.0, "CalibCPM_2": 25, "CalibuSv_2": 4.849999904632568}}}}
{"class": "POLL", "time": "2020-09-06T12:56:05.578Z", "active": 1, "tpv": [{"class": "TPV", "device": "/dev/ttyUSB1", "mode": 3, "time": "2020-09-06T12:56:04.000Z", "ept": 0.005, "lat": 33.753622538, "lon": -84.245625213, "alt": 297.943, "epx": 42.857, "epy": 16.33, "epv": 87.069, "track": 74.1108, "speed": 1.061, "climb": 0.015, "eps": 85.71, "epc": 174.14}], "gst": [{"class": "GST", "device": "/dev/ttyUSB1", "time": "1970-01-01T00:00:00.000Z", "rms": 0.0, "major": 0.0, "minor": 0.0, "orient": 0.0, "lat": 0.0, "lon": 0.0, "alt": 0.0}], "sky": [{"class": "SKY", "device": "/dev/ttyUSB1", "time": "2020-09-06T12:56:03.000Z", "xdop": 2.86, "ydop": 1.09, "vdop": 3.79, "hdop": 3.0, "gdop": 6.03, "pdop": 4.87, "satellites": [{"PRN": 6, "el": 77, "az": 298, "ss": 33, "used": true}, {"PRN": 17, "el": 53, "az": 48, "ss": 30, "used": true}, {"PRN": 19, "el": 60, "az": 9, "ss": 32, "used": true}, {"PRN": 2, "el": 70, "az": 273, "ss": 24, "used": true}, {"PRN": 3, "el": 16, "az": 43, "ss": 20, "used": true}, {"PRN": 28, "el": 41, "az": 142, "ss": 23, "used": true}, {"PRN": 24, "el": 22, "az": 259, "ss": 7, "used": false}, {"PRN": 25, "el": 12, "az": 318, "ss": 15, "used": false}, {"PRN": 22, "el": 4, "az": 36, "ss": 0, "used": false}, {"PRN": 138, "el": 43, "az": 217, "ss": 0, "used": false}]}], "_extra_data": {"message": "0 CPS | 14 CPM", "data": {"time": 1599396960.224625, "cps": 0, "cpsl": 0, "cpsh": 0, "cpm": 14, "cpml": 13, "cpmh": 1, "maxcps": 9, "calibration": {"CalibCPM_0": 100, "CalibuSv_0": 0.6499999761581421, "CalibCPM_1": 30000, "CalibuSv_1": 195.0, "CalibCPM_2": 25, "CalibuSv_2": 4.849999904632568}}}}
{"class": "POLL", "time": "2020-09-06T12:56:10.598Z", "active": 1, "tpv": [{"class": "TPV", "device": "/dev/ttyUSB1", "mode": 3, "time": "2020-09-06T12:56:08.000Z", "ept": 0.005, "lat": 33.753623002, "lon": -84.245527485, "alt": 297.866, "epx": 42.857, "epy": 16.33, "epv": 87.069, "track": 101.5004, "speed": 2.158, "climb": -0.031, "eps": 85.71, "epc": 174.14}], "gst": [{"class": "GST", "device": "/dev/ttyUSB1", "time": "1970-01-01T00:00:00.000Z", "rms": 0.0, "major": 0.0, "minor": 0.0, "orient": 0.0, "lat": 0.0, "lon": 0.0, "alt": 0.0}], "sky": [{"class": "SKY", "device": "/dev/ttyUSB1", "time": "2020-09-06T12:56:06.000Z", "xdop": 2.86, "ydop": 1.09, "vdop": 3.79, "hdop": 3.0, "gdop": 6.03, "pdop": 4.87, "satellites": [{"PRN": 6, "el": 77, "az": 298, "ss": 32, "used": true}, {"PRN": 17, "el": 53, "az": 48, "ss": 30, "used": true}, {"PRN": 19, "el": 60, "az": 9, "ss": 32, "used": true}, {"PRN": 2, "el": 70, "az": 273, "ss": 18, "used": true}, {"PRN": 3, "el": 16, "az": 43, "ss": 20, "used": true}, {"PRN": 28, "el": 41, "az": 142, "ss": 34, "used": true}, {"PRN": 24, "el": 22, "az": 259, "ss": 16, "used": false}, {"PRN": 25, "el": 12, "az": 318, "ss": 14, "used": true}, {"PRN": 22, "el": 4, "az": 36, "ss": 0, "used": false}, {"PRN": 138, "el": 43, "az": 217, "ss": 0, "used": false}]}], "_extra_data": {"message": "0 CPS | 12 CPM", "data": {"time": 1599396967.3652263, "cps": 0, "cpsl": 0, "cpsh": 0, "cpm": 12, "cpml": 11, "cpmh": 1, "maxcps": 9, "calibration": {"CalibCPM_0": 100, "CalibuSv_0": 0.6499999761581421, "CalibCPM_1": 30000, "CalibuSv_1": 195.0, "CalibCPM_2": 25, "CalibuSv_2": 4.849999904632568}}}}
