{"class": "POLL", "time": "2020-09-12T18:45:49.622Z", "active": 1, "tpv": [{"class": "TPV", "device": "/dev/ttyUSB0", "mode": 3, "time": "2020-09-12T18:45:48.000Z", "ept": 0.005, "lat": 33.753360812, "lon": -84.24564569, "alt": 289.191, "epx": 8.932, "epy": 12.998, "epv": 32.2, "track": 217.032, "speed": 6.138, "climb": 0.358, "eps": 26.0, "epc": 64.4}], "gst": [{"class": "GST", "device": "/dev/ttyUSB0", "time": "1970-01-01T00:00:00.000Z", "rms": 0.0, "major": 0.0, "minor": 0.0, "orient": 0.0, "lat": 0.0, "lon": 0.0, "alt": 0.0}], "sky": [{"class": "SKY", "device": "/dev/ttyUSB0", "time": "2020-09-12T18:45:46.000Z", "xdop": 0.6, "ydop": 0.87, "vdop": 1.4, "hdop": 1.0, "gdop": 1.96, "pdop": 1.8, "satellites": [{"PRN": 10, "el": 9, "az": 267, "ss": 22, "used": true}, {"PRN": 13, "el": 44, "az": 49, "ss": 44, "used": true}, {"PRN": 15, "el": 78, "az": 73, "ss": 43, "used": true}, {"PRN": 18, "el": 55, "az": 325, "ss": 38, "used": true}, {"PRN": 20, "el": 35, "az": 286, "ss": 40, "used": true}, {"PRN": 2, "el": 6, "az": 126, "ss": 21, "used": true}, {"PRN": 24, "el": 18, "az": 151, "ss": 21, "used": true}, {"PRN": 29, "el": 46, "az": 204, "ss": 41, "used": true}, {"PRN": 21, "el": 69, "az": 330, "ss": 0, "used": false}, {"PRN": 5, "el": 57, "az": 30, "ss": 32, "used": true}, {"PRN": 4, "el": 57, "az": 109, "ss": 0, "used": false}, {"PRN": 138, "el": 43, "az": 217, "ss": 38, "used": true}]}], "_extra_data": {"message": "0 CPS | 23 CPM", "data": {"time": 1599936347.7883604, "cps": 0, "cpsl": 0, "cpsh": 0, "cpm": 23, "cpml": 23, "cpmh": 1, "maxcps": 2, "calibration": {"CalibCPM_0": 100, "CalibuSv_0": 0.6499999761581421, "CalibCPM_1": 30000, "CalibuSv_1": 195.0, "CalibCPM_2": 25, "CalibuSv_2": 4.849999904632568}}}}
{"class": "POLL", "time": "2020-09-12T18:45:55.091Z", "active": 1, "tpv": [{"class": "TPV", "device": "/dev/ttyUSB0", "mode": 3, "time": "2020-09-12T18:45:53.000Z", "ept": 0.005, "lat": 33.753236595, "lon": -84.245936791, "alt": 290.012, "epx": 8.932, "epy": 12.998, "epv": 32.2, "track": 266.6507, "speed": 6.703, "climb": 0.136, "eps": 26.0, "epc": 64.4}], "gst": [{"class": "GST", "device": "/dev/ttyUSB0", "time": "1970-01-01T00:00:00.000Z", "rms": 0.0, "major": 0.0, "minor": 0.0, "orient": 0.0, "lat": 0.0, "lon": 0.0, "alt": 0.0}], "sky": [{"class": "SKY", "device": "/dev/ttyUSB0", "time": "2020-09-12T18:45:52.000Z", "xdop": 0.6, "ydop": 0.87, "vdop": 1.4, "hdop": 1.0, "gdop": 1.96, "pdop": 1.8, "satellites": [{"PRN": 10, "el": 9, "az": 267, "ss": 28, "used": true}, {"PRN": 13, "el": 44, "az": 49, "ss": 36, "used": true}, {"PRN": 15, "el": 78, "az": 73, "ss": 44, "used": true}, {"PRN": 18, "el": 55, "az": 325, "ss": 45, "used": true}, {"PRN": 20, "el": 35, "az": 286, "ss": 41, "used": true}, {"PRN": 2, "el": 6, "az": 126, "ss": 22, "used": true}, {"PRN": 24, "el": 18, "az": 151, "ss": 25, "used": true}, {"PRN": 29, "el": 46, "az": 204, "ss": 42, "used": true}, {"PRN": 21, "el": 69, "az": 330, "ss": 0, "used": false}, {"PRN": 5, "el": 57, "az": 30, "ss": 32, "used": true}, {"PRN": 4, "el": 57, "az": 109, "ss": 0, "used": false}, {"PRN": 138, "el": 43, "az": 217, "ss": 44, "used": true}]}], "_extra_data": {"message": "0 CPS | 23 CPM", "data": {"time": 1599936347.7883604, "cps": 0, "cpsl": 0, "cpsh": 0, "cpm": 23, "cpml": 23, "cpmh": 1, "maxcps": 2, "calibration": {"CalibCPM_0": 100, "CalibuSv_0": 0.6499999761581421, "CalibCPM_1": 30000, "CalibuSv_1": 195.0, "CalibCPM_2": 25, "CalibuSv_2": 4.849999904632568}}}}
{"class": "POLL", "time": "2020-09-12T18:46:00.194Z", "active": 1, "tpv": [{"class": "TPV", "device": "/dev/ttyUSB0", "mode": 3, "time": "2020-09-12T18:45:58.000Z", "ept": 0.005, "lat": 33.753230296, "lon": -84.246395377, "alt": 292.857, "epx": 8.932, "epy": 12.998, "epv": 32.2, "track": 269.1231, "speed": 8.335, "climb": 0.416, "eps": 26.0, "epc": 64.4}], "gst": [{"class": "GST", "device": "/dev/ttyUSB0", "time": "1970-01-01T00:00:00.000Z", "rms": 0.0, "major": 0.0, "minor": 0.0, "orient": 0.0, "lat": 0.0, "lon": 0.0, "alt": 0.0}], "sky": [{"class": "SKY", "device": "/dev/ttyUSB0", "time": "2020-09-12T18:45:58.000Z", "xdop": 0.6, "ydop": 0.87, "vdop": 1.4, "hdop": 1.0, "gdop": 1.96, "pdop": 1.8, "satellites": [{"PRN": 10, "el": 9, "az": 267, "ss": 37, "used": true}, {"PRN": 13, "el": 44, "az": 49, "ss": 41, "used": true}, {"PRN": 15, "el": 78, "az": 73, "ss": 45, "used": true}, {"PRN": 18, "el": 55, "az": 325, "ss": 37, "used": true}, {"PRN": 20, "el": 35, "az": 286, "ss": 32, "used": true}, {"PRN": 2, "el": 6, "az": 126, "ss": 22, "used": true}, {"PRN": 24, "el": 18, "az": 151, "ss": 32, "used": true}, {"PRN": 29, "el": 46, "az": 204, "ss": 40, "used": true}, {"PRN": 21, "el": 69, "az": 330, "ss": 0, "used": false}, {"PRN": 5, "el": 57, "az": 30, "ss": 38, "used": true}, {"PRN": 4, "el": 57, "az": 109, "ss": 0, "used": false}, {"PRN": 138, "el": 43, "az": 217, "ss": 40, "used": true}]}], "_extra_data": {"message": "1 CPS | 24 CPM", "data": {"time": 1599936355.5776894, "cps": 1, "cpsl": 1, "cpsh": 0, "cpm": 24, "cpml": 23, "cpmh": 1, "maxcps": 2, "calibration": {"CalibCPM_0": 100, "CalibuSv_0": 0.6499999761581421, "CalibCPM_1": 30000, "CalibuSv_1": 195.0, "CalibCPM_2": 25, "CalibuSv_2": 4.849999904632568}}}}
{"class": "POLL", "time": "2020-09-12T18:46:05.315Z", "active": 1, "tpv": [{"class": "TPV", "device": "/dev/ttyUSB0", "mode": 3, "time": "2020-09-12T18:46:03.000Z", "ept": 0.005, "lat": 33.753224999, "lon": -84.246875439, "alt": 295.536, "epx": 8.932, "epy": 12.998, "epv": 32.2, "track": 269.7862, "speed": 8.209, "climb": 0.496, "eps": 26.0, "epc": 64.4}], "gst": [{"class": "GST", "device": "/dev/ttyUSB0", "time": "1970-01-01T00:00:00.000Z", "rms": 0.0, "major": 0.0, "minor": 0.0, "orient": 0.0, "lat": 0.0, "lon": 0.0, "alt": 0.0}], "sky": [{"class": "SKY", "device": "/dev/ttyUSB0", "time": "2020-09-12T18:46:01.000Z", "xdop": 0.6, "ydop": 0.87, "vdop": 1.4, "hdop": 1.0, "gdop": 1.96, "pdop": 1.8, "satellites": [{"PRN": 10, "el": 9, "az": 267, "ss": 34, "used": true}, {"PRN": 13, "el": 44, "az": 49, "ss": 40, "used": true}, {"PRN": 15, "el": 78, "az": 73, "ss": 45, "used": true}, {"PRN": 18, "el": 55, "az": 325, "ss": 39, "used": true}, {"PRN": 20, "el": 35, "az": 286, "ss": 29, "used": true}, {"PRN": 2, "el": 6, "az": 126, "ss": 17, "used": true}, {"PRN": 24, "el": 18, "az": 151, "ss": 34, "used": true}, {"PRN": 29, "el": 46, "az": 204, "ss": 43, "used": true}, {"PRN": 21, "el": 69, "az": 330, "ss": 0, "used": false}, {"PRN": 5, "el": 57, "az": 30, "ss": 33, "used": true}, {"PRN": 4, "el": 57, "az": 109, "ss": 0, "used": false}, {"PRN": 138, "el": 43, "az": 217, "ss": 46, "used": true}]}], "_extra_data": {"message": "1 CPS | 22 CPM", "data": {"time": 1599936363.4744585, "cps": 1, "cpsl": 1, "cpsh": 0, "cpm": 22, "cpml": 21, "cpmh": 0, "maxcps": 2, "calibration": {"CalibCPM_0": 100, "CalibuSv_0": 0.6499999761581421, "CalibCPM_1": 30000, "CalibuSv_1": 195.0, "CalibCPM_2": 25, "CalibuSv_2": 4.849999904632568}}}}
{"class": "POLL", "time": "2020-09-12T18:46:10.408Z", "active": 1, "tpv": [{"class": "TPV", "device": "/dev/ttyUSB0", "mode": 3, "time": "2020-09-12T18:46:08.000Z", "ept": 0.005, "lat": 33.753239173, "lon": -84.24734368, "alt": 298.582, "epx": 8.932, "epy": 12.998, "epv": 32.2, "track": 272.2504, "speed": 8.564, "climb": 0.397, "eps": 26.0, "epc": 64.4}], "gst": [{"class": "GST", "device": "/dev/ttyUSB0", "time": "1970-01-01T00:00:00.000Z", "rms": 0.0, "major": 0.0, "minor": 0.0, "orient": 0.0, "lat": 0.0, "lon": 0.0, "alt": 0.0}], "sky": [{"class": "SKY", "device": "/dev/ttyUSB0", "time": "2020-09-12T18:46:07.000Z", "xdop": 0.6, "ydop": 0.87, "vdop": 1.4, "hdop": 1.0, "gdop": 1.96, "pdop": 1.8, "satellites": [{"PRN": 10, "el": 9, "az": 267, "ss": 36, "used": true}, {"PRN": 13, "el": 44, "az": 49, "ss": 44, "used": true}, {"PRN": 15, "el": 78, "az": 73, "ss": 38, "used": true}, {"PRN": 18, "el": 55, "az": 325, "ss": 42, "used": true}, {"PRN": 20, "el": 35, "az": 286, "ss": 28, "used": true}, {"PRN": 2, "el": 6, "az": 126, "ss": 5, "used": false}, {"PRN": 24, "el": 18, "az": 151, "ss": 26, "used": true}, {"PRN": 29, "el": 46, "az": 204, "ss": 41, "used": true}, {"PRN": 21, "el": 69, "az": 330, "ss": 0, "used": false}, {"PRN": 5, "el": 57, "az": 30, "ss": 27, "used": true}, {"PRN": 4, "el": 57, "az": 109, "ss": 0, "used": false}, {"PRN": 138, "el": 43, "az": 217, "ss": 46, "used": true}]}], "_extra_data": {"message": "1 CPS | 22 CPM", "data": {"time": 1599936363.4744585, "cps": 1, "cpsl": 1, "cpsh": 0, "cpm": 22, "cpml": 21, "cpmh": 0, "maxcps": 2, "calibration": {"CalibCPM_0": 100, "CalibuSv_0": 0.6499999761581421, "CalibCPM_1": 30000, "CalibuSv_1": 195.0, "CalibCPM_2": 25, "CalibuSv_2": 4.849999904632568}}}}
{"class": "POLL", "time": "2020-09-12T18:46:15.518Z", "active": 1, "tpv": [{"class": "TPV", "device": "/dev/ttyUSB0", "mode": 3, "time": "2020-09-12T18:46:14.000Z", "ept": 0.005, "lat": 33.753238933, "lon": -84.24793437, "alt": 304.022, "epx": 8.932, "epy": 12.998, "epv": 32.2, "track": 271.207, "speed": 9.069, "climb": 0.389, "eps": 26.0, "epc": 64.4}], "gst": [{"class": "GST", "device": "/dev/ttyUSB0", "time": "1970-01-01T00:00:00.000Z", "rms": 0.0, "major": 0.0, "minor": 0.0, "orient": 0.0, "lat": 0.0, "lon": 0.0, "alt": 0.0}], "sky": [{"class": "SKY", "device": "/dev/ttyUSB0", "time": "2020-09-12T18:46:13.000Z", "xdop": 0.6, "ydop": 0.87, "vdop": 1.4, "hdop": 1.0, "gdop": 1.96, "pdop": 1.8, "satellites": [{"PRN": 10, "el": 9, "az": 267, "ss": 36, "used": true}, {"PRN": 13, "el": 44, "az": 49, "ss": 34, "used": true}, {"PRN": 15, "el": 78, "az": 73, "ss": 44, "used": true}, {"PRN": 18, "el": 55, "az": 325, "ss": 44, "used": true}, {"PRN": 20, "el": 35, "az": 286, "ss": 35, "used": true}, {"PRN": 2, "el": 6, "az": 126, "ss": 26, "used": true}, {"PRN": 24, "el": 18, "az": 151, "ss": 34, "used": true}, {"PRN": 29, "el": 46, "az": 204, "ss": 43, "used": true}, {"PRN": 21, "el": 69, "az": 330, "ss": 0, "used": false}, {"PRN": 5, "el": 57, "az": 30, "ss": 29, "used": true}, {"PRN": 4, "el": 57, "az": 109, "ss": 0, "used": false}, {"PRN": 138, "el": 43, "az": 217, "ss": 45, "used": true}]}], "_extra_data": {"message": "0 CPS | 20 CPM", "data": {"time": 1599936371.3454082, "cps": 0, "cpsl": 0, "cpsh": 0, "cpm": 20, "cpml": 20, "cpmh": 0, "maxcps": 2, "calibration": {"CalibCPM_0": 100, "CalibuSv_0": 0.6499999761581421, "CalibCPM_1": 30000, "CalibuSv_1": 195.0, "CalibCPM_2": 25, "CalibuSv_2": 4.849999904632568}}}}
{"class": "POLL", "time": "2020-09-12T18:46:20.592Z", "active": 1, "tpv": [{"class": "TPV", "device": "/dev/ttyUSB0", "mode": 3, "time": "2020-09-12T18:46:18.000Z", "ept": 0.005, "lat": 33.753242093, "lon": -84.248327441, "alt": 307.096, "epx": 8.932, "epy": 12.998, "epv": 32.2, "track": 268.2603, "speed": 8.089, "climb": 0.367, "eps": 26.0, "epc": 64.4}], "gst": [{"class": "GST", "device": "/dev/ttyUSB0", "time": "1970-01-01T00:00:00.000Z", "rms": 0.0, "major": 0.0, "minor": 0.0, "orient": 0.0, "lat": 0.0, "lon": 0.0, "alt": 0.0}], "sky": [{"class": "SKY", "device": "/dev/ttyUSB0", "time": "2020-09-12T18:46:16.000Z", "xdop": 0.6, "ydop": 0.87, "vdop": 1.4, "hdop": 1.0, "gdop": 1.96, "pdop": 1.8, "satellites": [{"PRN": 10, "el": 9, "az": 267, "ss": 36, "used": true}, {"PRN": 13, "el": 44, "az": 49, "ss": 45, "used": true}, {"PRN": 15, "el": 78, "az": 73, "ss": 46, "used": true}, {"PRN": 18, "el": 55, "az": 325, "ss": 44, "used": true}, {"PRN": 20, "el": 35, "az": 286, "ss": 34, "used": true}, {"PRN": 2, "el": 6, "az": 126, "ss": 31, "used": true}, {"PRN": 24, "el": 18, "az": 151, "ss": 29, "used": true}, {"PRN": 29, "el": 46, "az": 204, "ss": 44, "used": true}, {"PRN": 21, "el": 69, "az": 330, "ss": 0, "used": false}, {"PRN": 5, "el": 57, "az": 30, "ss": 28, "used": true}, {"PRN": 4, "el": 57, "az": 109, "ss": 0, "used": false}, {"PRN": 138, "el": 43, "az": 217, "ss": 43, "used": true}]}], "_extra_data": {"message": "0 CPS | 16 CPM", "data": {"time": 1599936378.8404393, "cps": 0, "cpsl": 1, "cpsh": 0, "cpm": 16, "cpml": 15, "cpmh": 0, "maxcps": 2, "calibration": {"CalibCPM_0": 100, "CalibuSv_0": 0.6499999761581421, "CalibCPM_1": 30000, "CalibuSv_1": 195.0, "CalibCPM_2": 25, "CalibuSv_2": 4.849999904632568}}}}
{"class": "POLL", "time": "2020-09-12T18:46:25.666Z", "active": 1, "tpv": [{"class": "TPV", "device": "/dev/ttyUSB0", "mode": 3, "time": "2020-09-12T18:46:24.000Z", "ept": 0.005, "lat": 33.753247727, "lon": -84.248665739, "alt": 309.761, "epx": 8.932, "epy": 12.998, "epv": 32.2, "track": 307.4112, "speed": 1.972, "climb": 0.007, "eps": 26.0, "epc": 64.4}], "gst": [{"class": "GST", "device": "/dev/ttyUSB0", "time": "1970-01-01T00:00:00.000Z", "rms": 0.0, "major": 0.0, "minor": 0.0, "orient": 0.0, "lat": 0.0, "lon": 0.0, "alt": 0.0}], "sky": [{"class": "SKY", "device": "/dev/ttyUSB0", "time": "2020-09-12T18:46:22.000Z", "xdop": 0.6, "ydop": 0.87, "vdop": 1.4, "hdop": 1.0, "gdop": 1.96, "pdop": 1.8, "satellites": [{"PRN": 10, "el": 9, "az": 267, "ss": 29, "used": true}, {"PRN": 13, "el": 44, "az": 49, "ss": 40, "used": true}, {"PRN": 15, "el": 78, "az": 72, "ss": 46, "used": true}, {"PRN": 18, "el": 56, "az": 325, "ss": 44, "used": true}, {"PRN": 20, "el": 35, "az": 286, "ss": 41, "used": true}, {"PRN": 2, "el": 6, "az": 126, "ss": 24, "used": true}, {"PRN": 24, "el": 18, "az": 151, "ss": 33, "used": true}, {"PRN": 29, "el": 46, "az": 204, "ss": 34, "used": true}, {"PRN": 21, "el": 69, "az": 330, "ss": 0, "used": false}, {"PRN": 5, "el": 56, "az": 30, "ss": 30, "used": true}, {"PRN": 4, "el": 56, "az": 109, "ss": 0, "used": false}, {"PRN": 138, "el": 43, "az": 217, "ss": 39, "used": true}]}], "_extra_data": {"message": "0 CPS | 16 CPM", "data": {"time": 1599936378.8404393, "cps": 0, "cpsl": 1, "cpsh": 0, "cpm": 16, "cpml": 15, "cpmh": 0, "maxcps": 2, "calibration": {"CalibCPM_0": 100, "CalibuSv_0": 0.6499999761581421, "CalibCPM_1": 30000, "CalibuSv_1": 195.0, "CalibCPM_2": 25, "CalibuSv_2": 4.849999904632568}}}}
{"class": "POLL", "time": "2020-09-12T18:46:30.731Z", "active": 1, "tpv": [{"class": "TPV", "device": "/dev/ttyUSB0", "mode": 3, "time": "2020-09-12T18:46:28.000Z", "ept": 0.005, "lat": 33.753269208, "lon": -84.248696873, "alt": 309.795, "epx": 8.932, "epy": 12.998, "epv": 32.2, "track": 0.0, "speed": 0.0, "climb": 0.0, "eps": 26.0, "epc": 64.4}], "gst": [{"class": "GST", "device": "/dev/ttyUSB0", "time": "1970-01-01T00:00:00.000Z", "rms": 0.0, "major": 0.0, "minor": 0.0, "orient": 0.0, "lat": 0.0, "lon": 0.0, "alt": 0.0}], "sky": [{"class": "SKY", "device": "/dev/ttyUSB0", "time": "2020-09-12T18:46:28.000Z", "xdop": 0.6, "ydop": 0.87, "vdop": 1.4, "hdop": 1.0, "gdop": 1.96, "pdop": 1.8, "satellites": [{"PRN": 10, "el": 9, "az": 267, "ss": 38, "used": true}, {"PRN": 13, "el": 44, "az": 49, "ss": 42, "used": true}, {"PRN": 15, "el": 78, "az": 72, "ss": 47, "used": true}, {"PRN": 18, "el": 56, "az": 325, "ss": 35, "used": true}, {"PRN": 20, "el": 35, "az": 286, "ss": 39, "used": true}, {"PRN": 2, "el": 6, "az": 126, "ss": 17, "used": true}, {"PRN": 24, "el": 18, "az": 151, "ss": 29, "used": true}, {"PRN": 29, "el": 46, "az": 204, "ss": 43, "used": true}, {"PRN": 21, "el": 69, "az": 330, "ss": 0, "used": false}, {"PRN": 5, "el": 56, "az": 30, "ss": 25, "used": true}, {"PRN": 4, "el": 56, "az": 109, "ss": 0, "used": false}, {"PRN": 138, "el": 43, "az": 217, "ss": 42, "used": true}]}], "_extra_data": {"message": "1 CPS | 15 CPM", "data": {"time": 1599936386.3770723, "cps": 1, "cpsl": 1, "cpsh": 0, "cpm": 15, "cpml": 15, "cpmh": 0, "maxcps": 2, "calibration": {"CalibCPM_0": 100, "CalibuSv_0": 0.6499999761581421, "CalibCPM_1": 30000, "CalibuSv_1": 195.0, "CalibCPM_2": 25, "CalibuSv_2": 4.849999904632568}}}}
{"class": "POLL", "time": "2020-09-12T18:46:35.787Z", "active": 1, "tpv": [{"class": "TPV", "device": "/dev/ttyUSB0", "mode": 3, "time": "2020-09-12T18:46:33.000Z", "ept": 0.005, "lat": 33.753236251, "lon": -84.248688297, "alt": 309.866, "epx": 8.932, "epy": 12.998, "epv": 32.2, "track": 151.828, "speed": 1.948, "climb": -0.13, "eps": 26.0, "epc": 64.4}], "gst": [{"class": "GST", "device": "/dev/ttyUSB0", "time": "1970-01-01T00:00:00.000Z", "rms": 0.0, "major": 0.0, "minor": 0.0, "orient": 0.0, "lat": 0.0, "lon": 0.0, "alt": 0.0}], "sky": [{"class": "SKY", "device": "/dev/ttyUSB0", "time": "2020-09-12T18:46:34.000Z", "xdop": 0.6, "ydop": 0.87, "vdop": 1.4, "tdop": 0.88, "hdop": 1.0, "gdop": 1.96, "pdop": 1.8, "satellites": [{"PRN": 10, "el": 9, "az": 267, "ss": 34, "used": true}, {"PRN": 13, "el": 43, "az": 49, "ss": 43, "used": true}, {"PRN": 15, "el": 78, "az": 72, "ss": 47, "used": true}, {"PRN": 18, "el": 56, "az": 325, "ss": 44, "used": true}, {"PRN": 20, "el": 35, "az": 286, "ss": 40, "used": true}, {"PRN": 2, "el": 6, "az": 126, "ss": 21, "used": true}, {"PRN": 24, "el": 18, "az": 151, "ss": 24, "used": true}, {"PRN": 29, "el": 46, "az": 204, "ss": 44, "used": true}, {"PRN": 21, "el": 69, "az": 330, "ss": 0, "used": false}, {"PRN": 5, "el": 56, "az": 30, "ss": 33, "used": true}, {"PRN": 4, "el": 56, "az": 109, "ss": 0, "used": false}, {"PRN": 138, "el": 43, "az": 217, "ss": 44, "used": true}]}], "_extra_data": {"message": "1 CPS | 19 CPM", "data": {"time": 1599936393.9362574, "cps": 1, "cpsl": 1, "cpsh": 0, "cpm": 19, "cpml": 18, "cpmh": 1, "maxcps": 2, "calibration": {"CalibCPM_0": 100, "CalibuSv_0": 0.6499999761581421, "CalibCPM_1": 30000, "CalibuSv_1": 195.0, "CalibCPM_2": 25, "CalibuSv_2": 4.849999904632568}}}}
{"class": "POLL", "time": "2020-09-12T18:46:40.829Z", "active": 1, "tpv": [{"class": "TPV", "device": "/dev/ttyUSB0", "mode": 3, "time": "2020-09-12T18:46:39.000Z", "ept": 0.005, "lat": 33.753163846, "lon": -84.248692624, "alt": 309.285, "epx": 8.932, "epy": 12.998, "epv": 32.2, "track": 188.351, "speed": 1.288, "climb": -0.118, "eps": 26.0, "epc": 64.4}], "gst": [{"class": "GST", "device": "/dev/ttyUSB0", "time": "1970-01-01T00:00:00.000Z", "rms": 0.0, "major": 0.0, "minor": 0.0, "orient": 0.0, "lat": 0.0, "lon": 0.0, "alt": 0.0}], "sky": [{"class": "SKY", "device": "/dev/ttyUSB0", "time": "2020-09-12T18:46:37.000Z", "xdop": 0.6, "ydop": 0.87, "vdop": 1.4, "hdop": 1.0, "gdop": 1.96, "pdop": 1.8, "satellites": [{"PRN": 10, "el": 9, "az": 267, "ss": 29, "used": true}, {"PRN": 13, "el": 43, "az": 49, "ss": 44, "used": true}, {"PRN": 15, "el": 78, "az": 72, "ss": 43, "used": true}, {"PRN": 18, "el": 56, "az": 325, "ss": 44, "used": true}, {"PRN": 20, "el": 35, "az": 286, "ss": 41, "used": true}, {"PRN": 2, "el": 6, "az": 126, "ss": 21, "used": true}, {"PRN": 24, "el": 18, "az": 151, "ss": 24, "used": true}, {"PRN": 29, "el": 46, "az": 204, "ss": 45, "used": true}, {"PRN": 21, "el": 69, "az": 330, "ss": 0, "used": false}, {"PRN": 5, "el": 56, "az": 30, "ss": 33, "used": true}, {"PRN": 4, "el": 56, "az": 109, "ss": 0, "used": false}, {"PRN": 138, "el": 43, "az": 217, "ss": 43, "used": true}]}], "_extra_data": {"message": "1 CPS | 19 CPM", "data": {"time": 1599936393.9362574, "cps": 1, "cpsl": 1, "cpsh": 0, "cpm": 19, "cpml": 18, "cpmh": 1, "maxcps": 2, "calibration": {"CalibCPM_0": 100, "CalibuSv_0": 0.6499999761581421, "CalibCPM_1": 30000, "CalibuSv_1": 195.0, "CalibCPM_2": 25, "CalibuSv_2": 4.849999904632568}}}}
{"class": "POLL", "time": "2020-09-12T18:46:45.895Z", "active": 1, "tpv": [{"class": "TPV", "device": "/dev/ttyUSB0", "mode": 3, "time": "2020-09-12T18:46:44.000Z", "ept": 0.005, "lat": 33.753124398, "lon": -84.248705525, "alt": 308.634, "epx": 8.932, "epy": 12.998, "epv": 32.2, "track": 183.1866, "speed": 1.352, "climb": -0.005, "eps": 26.0, "epc": 64.4}], "gst": [{"class": "GST", "device": "/dev/ttyUSB0", "time": "1970-01-01T00:00:00.000Z", "rms": 0.0, "major": 0.0, "minor": 0.0, "orient": 0.0, "lat": 0.0, "lon": 0.0, "alt": 0.0}], "sky": [{"class": "SKY", "device": "/dev/ttyUSB0", "time": "2020-09-12T18:46:43.000Z", "xdop": 0.6, "ydop": 0.87, "vdop": 1.4, "hdop": 1.0, "gdop": 1.96, "pdop": 1.8, "satellites": [{"PRN": 10, "el": 9, "az": 267, "ss": 25, "used": true}, {"PRN": 13, "el": 43, "az": 49, "ss": 37, "used": true}, {"PRN": 15, "el": 78, "az": 72, "ss": 35, "used": true}, {"PRN": 18, "el": 56, "az": 325, "ss": 38, "used": true}, {"PRN": 20, "el": 35, "az": 286, "ss": 44, "used": true}, {"PRN": 2, "el": 6, "az": 126, "ss": 21, "used": true}, {"PRN": 24, "el": 18, "az": 151, "ss": 33, "used": true}, {"PRN": 29, "el": 46, "az": 204, "ss": 45, "used": true}, {"PRN": 21, "el": 69, "az": 330, "ss": 10, "used": false}, {"PRN": 5, "el": 56, "az": 30, "ss": 28, "used": true}, {"PRN": 4, "el": 56, "az": 109, "ss": 0, "used": false}, {"PRN": 138, "el": 43, "az": 217, "ss": 42, "used": true}]}], "_extra_data": {"message": "1 CPS | 20 CPM", "data": {"time": 1599936401.4635434, "cps": 1, "cpsl": 1, "cpsh": 0, "cpm": 20, "cpml": 19, "cpmh": 1, "maxcps": 2, "calibration": {"CalibCPM_0": 100, "CalibuSv_0": 0.6499999761581421, "CalibCPM_1": 30000, "CalibuSv_1": 195.0, "CalibCPM_2": 25, "CalibuSv_2": 4.849999904632568}}}}
{"class": "POLL", "time": "2020-09-12T18:46:50.946Z", "active": 1, "tpv": [{"class": "TPV", "device": "/dev/ttyUSB0", "mode": 3, "time": "2020-09-12T18:46:49.000Z", "ept": 0.005, "lat": 33.753087462, "lon": -84.248719508, "alt": 309.366, "epx": 8.932, "epy": 12.998, "epv": 32.2, "track": 0.0, "speed": 0.0, "climb": 0.0, "eps": 26.0, "epc": 64.4}], "gst": [{"class": "GST", "device": "/dev/ttyUSB0", "time": "1970-01-01T00:00:00.000Z", "rms": 0.0, "major": 0.0, "minor": 0.0, "orient": 0.0, "lat": 0.0, "lon": 0.0, "alt": 0.0}], "sky": [{"class": "SKY", "device": "/dev/ttyUSB0", "time": "2020-09-12T18:46:49.000Z", "xdop": 0.6, "ydop": 0.87, "vdop": 1.4, "hdop": 1.0, "gdop": 1.96, "pdop": 1.8, "satellites": [{"PRN": 10, "el": 9, "az": 267, "ss": 24, "used": true}, {"PRN": 13, "el": 43, "az": 49, "ss": 42, "used": true}, {"PRN": 15, "el": 78, "az": 72, "ss": 47, "used": true}, {"PRN": 18, "el": 56, "az": 325, "ss": 43, "used": true}, {"PRN": 20, "el": 35, "az": 286, "ss": 43, "used": true}, {"PRN": 2, "el": 6, "az": 126, "ss": 26, "used": true}, {"PRN": 24, "el": 18, "az": 151, "ss": 31, "used": true}, {"PRN": 29, "el": 46, "az": 204, "ss": 46, "used": true}, {"PRN": 21, "el": 69, "az": 330, "ss": 12, "used": false}, {"PRN": 5, "el": 56, "az": 30, "ss": 37, "used": true}, {"PRN": 4, "el": 56, "az": 109, "ss": 0, "used": false}, {"PRN": 138, "el": 43, "az": 217, "ss": 44, "used": true}]}], "_extra_data": {"message": "2 CPS | 23 CPM", "data": {"time": 1599936409.0002723, "cps": 2, "cpsl": 2, "cpsh": 0, "cpm": 23, "cpml": 22, "cpmh": 1, "maxcps": 2, "calibration": {"CalibCPM_0": 100, "CalibuSv_0": 0.6499999761581421, "CalibCPM_1": 30000, "CalibuSv_1": 195.0, "CalibCPM_2": 25, "CalibuSv_2": 4.849999904632568}}}}
{"class": "POLL", "time": "2020-09-12T18:46:56.013Z", "active": 1, "tpv": [{"class": "TPV", "device": "/dev/ttyUSB0", "mode": 3, "time": "2020-09-12T18:46:54.000Z", "ept": 0.005, "lat": 33.753087462, "lon": -84.248719508, "alt": 309.366, "epx": 8.932, "epy": 12.998, "epv": 32.2, "track": 0.0, "speed": 0.0, "climb": 0.0, "eps": 26.0, "epc": 64.4}], "gst": [{"class": "GST", "device": "/dev/ttyUSB0", "time": "1970-01-01T00:00:00.000Z", "rms": 0.0, "major": 0.0, "minor": 0.0, "orient": 0.0, "lat": 0.0, "lon": 0.0, "alt": 0.0}], "sky": [{"class": "SKY", "device": "/dev/ttyUSB0", "time": "2020-09-12T18:46:52.000Z", "xdop": 0.6, "ydop": 0.87, "vdop": 1.4, "hdop": 1.0, "gdop": 1.96, "pdop": 1.8, "satellites": [{"PRN": 10, "el": 9, "az": 267, "ss": 20, "used": true}, {"PRN": 13, "el": 43, "az": 49, "ss": 44, "used": true}, {"PRN": 15, "el": 78, "az": 72, "ss": 47, "used": true}, {"PRN": 18, "el": 56, "az": 325, "ss": 42, "used": true}, {"PRN": 20, "el": 35, "az": 286, "ss": 42, "used": true}, {"PRN": 2, "el": 6, "az": 126, "ss": 28, "used": true}, {"PRN": 24, "el": 18, "az": 151, "ss": 33, "used": true}, {"PRN": 29, "el": 46, "az": 204, "ss": 47, "used": true}, {"PRN": 5, "el": 56, "az": 30, "ss": 37, "used": true}, {"PRN": 21, "el": 69, "az": 330, "ss": 24, "used": true}, {"PRN": 138, "el": 43, "az": 217, "ss": 43, "used": true}]}], "_extra_data": {"message": "2 CPS | 23 CPM", "data": {"time": 1599936409.0002723, "cps": 2, "cpsl": 2, "cpsh": 0, "cpm": 23, "cpml": 22, "cpmh": 1, "maxcps": 2, "calibration": {"CalibCPM_0": 100, "CalibuSv_0": 0.6499999761581421, "CalibCPM_1": 30000, "CalibuSv_1": 195.0, "CalibCPM_2": 25, "CalibuSv_2": 4.849999904632568}}}}
{"class": "POLL", "time": "2020-09-12T18:47:01.083Z", "active": 1, "tpv": [{"class": "TPV", "device": "/dev/ttyUSB0", "mode": 3, "time": "2020-09-12T18:46:59.000Z", "ept": 0.005, "lat": 33.753087964, "lon": -84.248730246, "alt": 309.282, "epx": 8.932, "epy": 12.998, "epv": 32.2, "track": 0.0, "speed": 0.0, "climb": 0.0, "eps": 26.0, "epc": 64.4}], "gst": [{"class": "GST", "device": "/dev/ttyUSB0", "time": "1970-01-01T00:00:00.000Z", "rms": 0.0, "major": 0.0, "minor": 0.0, "orient": 0.0, "lat": 0.0, "lon": 0.0, "alt": 0.0}], "sky": [{"class": "SKY", "device": "/dev/ttyUSB0", "time": "2020-09-12T18:46:58.000Z", "xdop": 0.6, "ydop": 0.87, "vdop": 1.4, "hdop": 1.0, "gdop": 1.96, "pdop": 1.8, "satellites": [{"PRN": 10, "el": 10, "az": 267, "ss": 22, "used": true}, {"PRN": 13, "el": 43, "az": 49, "ss": 45, "used": true}, {"PRN": 15, "el": 78, "az": 70, "ss": 47, "used": true}, {"PRN": 18, "el": 56, "az": 325, "ss": 41, "used": true}, {"PRN": 20, "el": 35, "az": 286, "ss": 43, "used": true}, {"PRN": 2, "el": 6, "az": 126, "ss": 29, "used": true}, {"PRN": 24, "el": 18, "az": 151, "ss": 33, "used": true}, {"PRN": 29, "el": 46, "az": 204, "ss": 48, "used": true}, {"PRN": 21, "el": 70, "az": 331, "ss": 18, "used": false}, {"PRN": 5, "el": 56, "az": 31, "ss": 37, "used": true}, {"PRN": 4, "el": 56, "az": 109, "ss": 0, "used": false}, {"PRN": 138, "el": 43, "az": 217, "ss": 43, "used": true}]}], "_extra_data": {"message": "0 CPS | 26 CPM", "data": {"time": 1599936416.5704384, "cps": 0, "cpsl": 0, "cpsh": 0, "cpm": 26, "cpml": 25, "cpmh": 1, "maxcps": 2, "calibration": {"CalibCPM_0": 100, "CalibuSv_0": 0.6499999761581421, "CalibCPM_1": 30000, "CalibuSv_1": 195.0, "CalibCPM_2": 25, "CalibuSv_2": 4.849999904632568}}}}
{"class": "POLL", "time": "2020-09-12T18:47:06.140Z", "active": 1, "tpv": [{"class": "TPV", "device": "/dev/ttyUSB0", "mode": 3, "time": "2020-09-12T18:47:04.000Z", "ept": 0.005, "lat": 33.753087964, "lon": -84.248730246, "alt": 309.282, "epx": 8.932, "epy": 12.998, "epv": 32.2, "track": 0.0, "speed": 0.0, "climb": 0.0, "eps": 26.0, "epc": 64.4}], "gst": [{"class": "GST", "device": "/dev/ttyUSB0", "time": "1970-01-01T00:00:00.000Z", "rms": 0.0, "major": 0.0, "minor": 0.0, "orient": 0.0, "lat": 0.0, "lon": 0.0, "alt": 0.0}], "sky": [{"class": "SKY", "device": "/dev/ttyUSB0", "time": "2020-09-12T18:47:04.000Z", "xdop": 0.6, "ydop": 0.87, "vdop": 1.4, "hdop": 1.0, "gdop": 1.96, "pdop": 1.8, "satellites": [{"PRN": 10, "el": 10, "az": 267, "ss": 23, "used": true}, {"PRN": 13, "el": 43, "az": 49, "ss": 45, "used": true}, {"PRN": 15, "el": 78, "az": 70, "ss": 47, "used": true}, {"PRN": 18, "el": 56, "az": 325, "ss": 42, "used": true}, {"PRN": 20, "el": 35, "az": 286, "ss": 43, "used": true}, {"PRN": 2, "el": 6, "az": 126, "ss": 28, "used": true}, {"PRN": 24, "el": 18, "az": 151, "ss": 33, "used": true}, {"PRN": 29, "el": 46, "az": 204, "ss": 48, "used": true}, {"PRN": 21, "el": 70, "az": 331, "ss": 21, "used": true}, {"PRN": 5, "el": 56, "az": 31, "ss": 37, "used": true}, {"PRN": 4, "el": 56, "az": 109, "ss": 0, "used": false}, {"PRN": 138, "el": 43, "az": 217, "ss": 44, "used": true}]}], "_extra_data": {"message": "1 CPS | 28 CPM", "data": {"time": 1599936424.1091752, "cps": 1, "cpsl": 1, "cpsh": 0, "cpm": 28, "cpml": 27, "cpmh": 1, "maxcps": 2, "calibration": {"CalibCPM_0": 100, "CalibuSv_0": 0.6499999761581421, "CalibCPM_1": 30000, "CalibuSv_1": 195.0, "CalibCPM_2": 25, "CalibuSv_2": 4.849999904632568}}}}
{"class": "POLL", "time": "2020-09-12T18:47:11.220Z", "active": 1, "tpv": [{"class": "TPV", "device": "/dev/ttyUSB0", "mode": 3, "time": "2020-09-12T18:47:09.000Z", "ept": 0.005, "lat": 33.753087964, "lon": -84.248730246, "alt": 309.282, "epx": 8.932, "epy": 12.998, "epv": 32.2, "track": 0.0, "speed": 0.0, "climb": 0.0, "eps": 26.0, "epc": 64.4}], "gst": [{"class": "GST", "device": "/dev/ttyUSB0", "time": "1970-01-01T00:00:00.000Z", "rms": 0.0, "major": 0.0, "minor": 0.0, "orient": 0.0, "lat": 0.0, "lon": 0.0, "alt": 0.0}], "sky": [{"class": "SKY", "device": "/dev/ttyUSB0", "time": "2020-09-12T18:47:07.000Z", "xdop": 0.6, "ydop": 0.87, "vdop": 1.4, "hdop": 1.0, "gdop": 1.96, "pdop": 1.8, "satellites": [{"PRN": 10, "el": 10, "az": 267, "ss": 22, "used": true}, {"PRN": 13, "el": 43, "az": 49, "ss": 45, "used": true}, {"PRN": 15, "el": 78, "az": 70, "ss": 46, "used": true}, {"PRN": 18, "el": 56, "az": 325, "ss": 42, "used": true}, {"PRN": 20, "el": 35, "az": 286, "ss": 43, "used": true}, {"PRN": 2, "el": 6, "az": 126, "ss": 27, "used": true}, {"PRN": 24, "el": 18, "az": 151, "ss": 33, "used": true}, {"PRN": 29, "el": 46, "az": 204, "ss": 48, "used": true}, {"PRN": 21, "el": 70, "az": 331, "ss": 0, "used": false}, {"PRN": 5, "el": 56, "az": 31, "ss": 37, "used": true}, {"PRN": 4, "el": 56, "az": 109, "ss": 0, "used": false}, {"PRN": 138, "el": 43, "az": 217, "ss": 44, "used": true}]}], "_extra_data": {"message": "1 CPS | 28 CPM", "data": {"time": 1599936424.1091752, "cps": 1, "cpsl": 1, "cpsh": 0, "cpm": 28, "cpml": 27, "cpmh": 1, "maxcps": 2, "calibration": {"CalibCPM_0": 100, "CalibuSv_0": 0.6499999761581421, "CalibCPM_1": 30000, "CalibuSv_1": 195.0, "CalibCPM_2": 25, "CalibuSv_2": 4.849999904632568}}}}
{"class": "POLL", "time": "2020-09-12T18:47:16.313Z", "active": 1, "tpv": [{"class": "TPV", "device": "/dev/ttyUSB0", "mode": 3, "time": "2020-09-12T18:47:14.000Z", "ept": 0.005, "lat": 33.753087964, "lon": -84.248730246, "alt": 309.282, "epx": 8.932, "epy": 12.998, "epv": 32.2, "track": 0.0, "speed": 0.0, "climb": 0.0, "eps": 26.0, "epc": 64.4}], "gst": [{"class": "GST", "device": "/dev/ttyUSB0", "time": "1970-01-01T00:00:00.000Z", "rms": 0.0, "major": 0.0, "minor": 0.0, "orient": 0.0, "lat": 0.0, "lon": 0.0, "alt": 0.0}], "sky": [{"class": "SKY", "device": "/dev/ttyUSB0", "time": "2020-09-12T18:47:13.000Z", "xdop": 0.6, "ydop": 0.87, "vdop": 1.4, "hdop": 1.0, "gdop": 1.96, "pdop": 1.8, "satellites": [{"PRN": 10, "el": 10, "az": 267, "ss": 29, "used": true}, {"PRN": 13, "el": 43, "az": 49, "ss": 45, "used": true}, {"PRN": 15, "el": 78, "az": 70, "ss": 46, "used": true}, {"PRN": 18, "el": 56, "az": 325, "ss": 42, "used": true}, {"PRN": 20, "el": 35, "az": 286, "ss": 43, "used": true}, {"PRN": 2, "el": 6, "az": 126, "ss": 27, "used": true}, {"PRN": 24, "el": 18, "az": 151, "ss": 32, "used": true}, {"PRN": 29, "el": 46, "az": 204, "ss": 48, "used": true}, {"PRN": 21, "el": 70, "az": 331, "ss": 0, "used": false}, {"PRN": 5, "el": 56, "az": 31, "ss": 38, "used": true}, {"PRN": 4, "el": 56, "az": 109, "ss": 0, "used": false}, {"PRN": 138, "el": 43, "az": 217, "ss": 44, "used": true}]}], "_extra_data": {"message": "0 CPS | 25 CPM", "data": {"time": 1599936431.6627285, "cps": 0, "cpsl": 0, "cpsh": 0, "cpm": 25, "cpml": 24, "cpmh": 1, "maxcps": 2, "calibration": {"CalibCPM_0": 100, "CalibuSv_0": 0.6499999761581421, "CalibCPM_1": 30000, "CalibuSv_1": 195.0, "CalibCPM_2": 25, "CalibuSv_2": 4.849999904632568}}}}
{"class": "POLL", "time": "2020-09-12T18:47:21.362Z", "active": 1, "tpv": [{"class": "TPV", "device": "/dev/ttyUSB0", "mode": 3, "time": "2020-09-12T18:47:19.000Z", "ept": 0.005, "lat": 33.753087964, "lon": -84.248730246, "alt": 309.282, "epx": 8.932, "epy": 12.998, "epv": 32.2, "track": 0.0, "speed": 0.0, "climb": 0.0, "eps": 26.0, "epc": 64.4}], "gst": [{"class": "GST", "device": "/dev/ttyUSB0", "time": "1970-01-01T00:00:00.000Z", "rms": 0.0, "major": 0.0, "minor": 0.0, "orient": 0.0, "lat": 0.0, "lon": 0.0, "alt": 0.0}], "sky": [{"class": "SKY", "device": "/dev/ttyUSB0", "time": "2020-09-12T18:47:19.000Z", "xdop": 0.6, "ydop": 0.87, "vdop": 1.4, "hdop": 0.8, "gdop": 1.96, "pdop": 1.8, "satellites": [{"PRN": 10, "el": 10, "az": 267, "ss": 29, "used": true}, {"PRN": 13, "el": 43, "az": 49, "ss": 45, "used": true}, {"PRN": 15, "el": 78, "az": 70, "ss": 46, "used": true}, {"PRN": 18, "el": 56, "az": 325, "ss": 42, "used": true}, {"PRN": 20, "el": 36, "az": 288, "ss": 43, "used": true}, {"PRN": 2, "el": 6, "az": 126, "ss": 26, "used": true}, {"PRN": 24, "el": 18, "az": 151, "ss": 32, "used": true}, {"PRN": 29, "el": 45, "az": 204, "ss": 48, "used": true}, {"PRN": 21, "el": 70, "az": 331, "ss": 0, "used": false}, {"PRN": 5, "el": 16, "az": 67, "ss": 38, "used": true}, {"PRN": 4, "el": 56, "az": 111, "ss": 0, "used": false}, {"PRN": 138, "el": 43, "az": 217, "ss": 44, "used": true}]}], "_extra_data": {"message": "1 CPS | 25 CPM", "data": {"time": 1599936439.2189322, "cps": 1, "cpsl": 1, "cpsh": 0, "cpm": 25, "cpml": 24, "cpmh": 1, "maxcps": 2, "calibration": {"CalibCPM_0": 100, "CalibuSv_0": 0.6499999761581421, "CalibCPM_1": 30000, "CalibuSv_1": 195.0, "CalibCPM_2": 25, "CalibuSv_2": 4.849999904632568}}}}
{"class": "POLL", "time": "2020-09-12T18:47:26.445Z", "active": 1, "tpv": [{"class": "TPV", "device": "/dev/ttyUSB0", "mode": 3, "time": "2020-09-12T18:47:24.000Z", "ept": 0.005, "lat": 33.753087964, "lon": -84.248730246, "alt": 309.282, "epx": 8.932, "epy": 12.998, "epv": 32.2, "track": 0.0, "speed": 0.0, "climb": 0.0, "eps": 26.0, "epc": 64.4}], "gst": [{"class": "GST", "device": "/dev/ttyUSB0", "time": "1970-01-01T00:00:00.000Z", "rms": 0.0, "major": 0.0, "minor": 0.0, "orient": 0.0, "lat": 0.0, "lon": 0.0, "alt": 0.0}], "sky": [{"class": "SKY", "device": "/dev/ttyUSB0", "time": "2020-09-12T18:47:22.000Z", "xdop": 0.6, "ydop": 0.87, "vdop": 1.4, "hdop": 0.8, "gdop": 1.96, "pdop": 1.8, "satellites": [{"PRN": 10, "el": 10, "az": 267, "ss": 29, "used": true}, {"PRN": 13, "el": 43, "az": 49, "ss": 45, "used": true}, {"PRN": 15, "el": 78, "az": 70, "ss": 46, "used": true}, {"PRN": 18, "el": 56, "az": 325, "ss": 41, "used": true}, {"PRN": 20, "el": 36, "az": 288, "ss": 43, "used": true}, {"PRN": 2, "el": 6, "az": 126, "ss": 26, "used": true}, {"PRN": 24, "el": 18, "az": 151, "ss": 31, "used": true}, {"PRN": 29, "el": 45, "az": 204, "ss": 48, "used": true}, {"PRN": 21, "el": 70, "az": 331, "ss": 0, "used": false}, {"PRN": 5, "el": 16, "az": 67, "ss": 39, "used": true}, {"PRN": 4, "el": 56, "az": 111, "ss": 0, "used": false}, {"PRN": 138, "el": 43, "az": 217, "ss": 44, "used": true}]}], "_extra_data": {"message": "1 CPS | 25 CPM", "data": {"time": 1599936439.2189322, "cps": 1, "cpsl": 1, "cpsh": 0, "cpm": 25, "cpml": 24, "cpmh": 1, "maxcps": 2, "calibration": {"CalibCPM_0": 100, "CalibuSv_0": 0.6499999761581421, "CalibCPM_1": 30000, "CalibuSv_1": 195.0, "CalibCPM_2": 25, "CalibuSv_2": 4.849999904632568}}}}
{"class": "POLL", "time": "2020-09-12T18:47:31.518Z", "active": 1, "tpv": [{"class": "TPV", "device": "/dev/ttyUSB0", "mode": 3, "time": "2020-09-12T18:47:30.000Z", "ept": 0.005, "lat": 33.753087964, "lon": -84.248730246, "alt": 309.282, "epx": 8.932, "epy": 12.998, "epv": 32.2, "track": 0.0, "speed": 0.0, "climb": 0.0, "eps": 26.0, "epc": 64.4}], "gst": [{"class": "GST", "device": "/dev/ttyUSB0", "time": "1970-01-01T00:00:00.000Z", "rms": 0.0, "major": 0.0, "minor": 0.0, "orient": 0.0, "lat": 0.0, "lon": 0.0, "alt": 0.0}], "sky": [{"class": "SKY", "device": "/dev/ttyUSB0", "time": "2020-09-12T18:47:28.000Z", "xdop": 0.6, "ydop": 0.87, "vdop": 1.4, "hdop": 0.8, "gdop": 1.96, "pdop": 1.8, "satellites": [{"PRN": 10, "el": 10, "az": 267, "ss": 31, "used": true}, {"PRN": 13, "el": 43, "az": 49, "ss": 45, "used": true}, {"PRN": 15, "el": 78, "az": 69, "ss": 47, "used": true}, {"PRN": 18, "el": 56, "az": 325, "ss": 41, "used": true}, {"PRN": 20, "el": 36, "az": 288, "ss": 43, "used": true}, {"PRN": 2, "el": 6, "az": 126, "ss": 20, "used": true}, {"PRN": 24, "el": 19, "az": 151, "ss": 31, "used": true}, {"PRN": 29, "el": 45, "az": 204, "ss": 48, "used": true}, {"PRN": 4, "el": 56, "az": 111, "ss": 8, "used": false}, {"PRN": 5, "el": 16, "az": 67, "ss": 39, "used": true}, {"PRN": 21, "el": 70, "az": 331, "ss": 0, "used": false}, {"PRN": 138, "el": 43, "az": 217, "ss": 44, "used": true}]}], "_extra_data": {"message": "0 CPS | 24 CPM", "data": {"time": 1599936446.7840774, "cps": 0, "cpsl": 0, "cpsh": 0, "cpm": 24, "cpml": 23, "cpmh": 1, "maxcps": 2, "calibration": {"CalibCPM_0": 100, "CalibuSv_0": 0.6499999761581421, "CalibCPM_1": 30000, "CalibuSv_1": 195.0, "CalibCPM_2": 25, "CalibuSv_2": 4.849999904632568}}}}
{"class": "POLL", "time": "2020-09-12T18:47:36.585Z", "active": 1, "tpv": [{"class": "TPV", "device": "/dev/ttyUSB0", "status": 2, "mode": 3, "time": "2020-09-12T18:47:35.000Z", "ept": 0.005, "lat": 33.753087964, "lon": -84.248730246, "alt": 309.282, "epx": 2.233, "epy": 3.25, "epv": 8.05, "track": 0.0, "speed": 0.0, "climb": 0.0, "eps": 6.5, "epc": 16.1}], "gst": [{"class": "GST", "device": "/dev/ttyUSB0", "time": "1970-01-01T00:00:00.000Z", "rms": 0.0, "major": 0.0, "minor": 0.0, "orient": 0.0, "lat": 0.0, "lon": 0.0, "alt": 0.0}], "sky": [{"class": "SKY", "device": "/dev/ttyUSB0", "time": "2020-09-12T18:47:34.000Z", "xdop": 0.6, "ydop": 0.87, "vdop": 1.4, "hdop": 1.0, "gdop": 1.96, "pdop": 1.8, "satellites": [{"PRN": 10, "el": 10, "az": 267, "ss": 32, "used": true}, {"PRN": 13, "el": 43, "az": 49, "ss": 44, "used": true}, {"PRN": 15, "el": 78, "az": 69, "ss": 46, "used": true}, {"PRN": 18, "el": 56, "az": 325, "ss": 42, "used": true}, {"PRN": 20, "el": 36, "az": 288, "ss": 43, "used": true}, {"PRN": 2, "el": 6, "az": 126, "ss": 19, "used": true}, {"PRN": 24, "el": 19, "az": 151, "ss": 30, "used": true}, {"PRN": 29, "el": 45, "az": 204, "ss": 47, "used": true}, {"PRN": 21, "el": 70, "az": 331, "ss": 0, "used": false}, {"PRN": 5, "el": 16, "az": 67, "ss": 38, "used": true}, {"PRN": 4, "el": 56, "az": 111, "ss": 0, "used": false}, {"PRN": 138, "el": 43, "az": 217, "ss": 44, "used": true}]}], "_extra_data": {"message": "0 CPS | 20 CPM", "data": {"time": 1599936454.3270943, "cps": 0, "cpsl": 0, "cpsh": 0, "cpm": 20, "cpml": 20, "cpmh": 0, "maxcps": 2, "calibration": {"CalibCPM_0": 100, "CalibuSv_0": 0.6499999761581421, "CalibCPM_1": 30000, "CalibuSv_1": 195.0, "CalibCPM_2": 25, "CalibuSv_2": 4.849999904632568}}}}
{"class": "POLL", "time": "2020-09-12T18:47:41.623Z", "active": 1, "tpv": [{"class": "TPV", "device": "/dev/ttyUSB0", "status": 2, "mode": 3, "time": "2020-09-12T18:47:39.000Z", "ept": 0.005, "lat": 33.753087964, "lon": -84.248730246, "alt": 309.282, "epx": 2.233, "epy": 3.25, "epv": 8.05, "track": 0.0, "speed": 0.0, "climb": 0.0, "eps": 6.5, "epc": 16.1}], "gst": [{"class": "GST", "device": "/dev/ttyUSB0", "time": "1970-01-01T00:00:00.000Z", "rms": 0.0, "major": 0.0, "minor": 0.0, "orient": 0.0, "lat": 0.0, "lon": 0.0, "alt": 0.0}], "sky": [{"class": "SKY", "device": "/dev/ttyUSB0", "time": "2020-09-12T18:47:37.000Z", "xdop": 0.6, "ydop": 0.87, "vdop": 1.4, "hdop": 1.0, "gdop": 1.96, "pdop": 1.8, "satellites": [{"PRN": 10, "el": 10, "az": 267, "ss": 31, "used": true}, {"PRN": 13, "el": 43, "az": 49, "ss": 44, "used": true}, {"PRN": 15, "el": 78, "az": 69, "ss": 46, "used": true}, {"PRN": 18, "el": 56, "az": 325, "ss": 42, "used": true}, {"PRN": 20, "el": 36, "az": 288, "ss": 43, "used": true}, {"PRN": 2, "el": 6, "az": 126, "ss": 20, "used": true}, {"PRN": 24, "el": 19, "az": 151, "ss": 25, "used": true}, {"PRN": 29, "el": 45, "az": 204, "ss": 47, "used": true}, {"PRN": 21, "el": 70, "az": 331, "ss": 0, "used": false}, {"PRN": 5, "el": 16, "az": 67, "ss": 38, "used": true}, {"PRN": 4, "el": 56, "az": 111, "ss": 0, "used": false}, {"PRN": 138, "el": 43, "az": 217, "ss": 44, "used": true}]}], "_extra_data": {"message": "0 CPS | 20 CPM", "data": {"time": 1599936454.3270943, "cps": 0, "cpsl": 0, "cpsh": 0, "cpm": 20, "cpml": 20, "cpmh": 0, "maxcps": 2, "calibration": {"CalibCPM_0": 100, "CalibuSv_0": 0.6499999761581421, "CalibCPM_1": 30000, "CalibuSv_1": 195.0, "CalibCPM_2": 25, "CalibuSv_2": 4.849999904632568}}}}
{"class": "POLL", "time": "2020-09-12T18:47:46.663Z", "active": 1, "tpv": [{"class": "TPV", "device": "/dev/ttyUSB0", "status": 2, "mode": 3, "time": "2020-09-12T18:47:45.000Z", "ept": 0.005, "lat": 33.753087964, "lon": -84.248730246, "alt": 309.282, "epx": 2.233, "epy": 3.25, "epv": 8.05, "track": 0.0, "speed": 0.0, "climb": 0.0, "eps": 6.5, "epc": 16.1}], "gst": [{"class": "GST", "device": "/dev/ttyUSB0", "time": "1970-01-01T00:00:00.000Z", "rms": 0.0, "major": 0.0, "minor": 0.0, "orient": 0.0, "lat": 0.0, "lon": 0.0, "alt": 0.0}], "sky": [{"class": "SKY", "device": "/dev/ttyUSB0", "time": "2020-09-12T18:47:43.000Z", "xdop": 0.6, "ydop": 0.87, "vdop": 1.4, "hdop": 1.0, "gdop": 1.96, "pdop": 1.8, "satellites": [{"PRN": 10, "el": 10, "az": 267, "ss": 25, "used": true}, {"PRN": 13, "el": 43, "az": 49, "ss": 43, "used": true}, {"PRN": 15, "el": 78, "az": 69, "ss": 46, "used": true}, {"PRN": 18, "el": 56, "az": 325, "ss": 43, "used": true}, {"PRN": 20, "el": 36, "az": 288, "ss": 43, "used": true}, {"PRN": 2, "el": 6, "az": 126, "ss": 21, "used": true}, {"PRN": 24, "el": 19, "az": 151, "ss": 24, "used": true}, {"PRN": 29, "el": 45, "az": 204, "ss": 46, "used": true}, {"PRN": 21, "el": 70, "az": 331, "ss": 0, "used": false}, {"PRN": 5, "el": 16, "az": 67, "ss": 36, "used": true}, {"PRN": 4, "el": 56, "az": 111, "ss": 0, "used": false}, {"PRN": 138, "el": 43, "az": 217, "ss": 43, "used": true}]}], "_extra_data": {"message": "0 CPS | 17 CPM", "data": {"time": 1599936461.7980983, "cps": 0, "cpsl": 0, "cpsh": 0, "cpm": 17, "cpml": 18, "cpmh": 0, "maxcps": 2, "calibration": {"CalibCPM_0": 100, "CalibuSv_0": 0.6499999761581421, "CalibCPM_1": 30000, "CalibuSv_1": 195.0, "CalibCPM_2": 25, "CalibuSv_2": 4.849999904632568}}}}
{"class": "POLL", "time": "2020-09-12T18:47:51.723Z", "active": 1, "tpv": [{"class": "TPV", "device": "/dev/ttyUSB0", "status": 2, "mode": 3, "time": "2020-09-12T18:47:50.000Z", "ept": 0.005, "lat": 33.753087964, "lon": -84.248730246, "alt": 309.282, "epx": 2.233, "epy": 3.25, "epv": 8.05, "track": 0.0, "speed": 0.0, "climb": 0.0, "eps": 6.5, "epc": 16.1}], "gst": [{"class": "GST", "device": "/dev/ttyUSB0", "time": "1970-01-01T00:00:00.000Z", "rms": 0.0, "major": 0.0, "minor": 0.0, "orient": 0.0, "lat": 0.0, "lon": 0.0, "alt": 0.0}], "sky": [{"class": "SKY", "device": "/dev/ttyUSB0", "time": "2020-09-12T18:47:49.000Z", "xdop": 0.6, "ydop": 0.87, "vdop": 1.4, "hdop": 1.0, "gdop": 1.96, "pdop": 1.8, "satellites": [{"PRN": 10, "el": 10, "az": 267, "ss": 25, "used": true}, {"PRN": 13, "el": 43, "az": 49, "ss": 44, "used": true}, {"PRN": 15, "el": 78, "az": 69, "ss": 47, "used": true}, {"PRN": 18, "el": 56, "az": 325, "ss": 43, "used": true}, {"PRN": 20, "el": 36, "az": 288, "ss": 44, "used": true}, {"PRN": 2, "el": 6, "az": 126, "ss": 20, "used": true}, {"PRN": 24, "el": 19, "az": 151, "ss": 24, "used": true}, {"PRN": 29, "el": 45, "az": 204, "ss": 46, "used": true}, {"PRN": 21, "el": 70, "az": 331, "ss": 0, "used": false}, {"PRN": 5, "el": 16, "az": 67, "ss": 36, "used": true}, {"PRN": 4, "el": 56, "az": 111, "ss": 0, "used": false}, {"PRN": 138, "el": 43, "az": 217, "ss": 43, "used": true}]}], "_extra_data": {"message": "1 CPS | 19 CPM", "data": {"time": 1599936469.3311362, "cps": 1, "cpsl": 1, "cpsh": 0, "cpm": 19, "cpml": 19, "cpmh": 0, "maxcps": 2, "calibration": {"CalibCPM_0": 100, "CalibuSv_0": 0.6499999761581421, "CalibCPM_1": 30000, "CalibuSv_1": 195.0, "CalibCPM_2": 25, "CalibuSv_2": 4.849999904632568}}}}
{"class": "POLL", "time": "2020-09-12T18:47:56.800Z", "active": 1, "tpv": [{"class": "TPV", "device": "/dev/ttyUSB0", "status": 2, "mode": 3, "time": "2020-09-12T18:47:54.000Z", "ept": 0.005, "lat": 33.753087964, "lon": -84.248730246, "alt": 309.282, "epx": 2.233, "epy": 3.25, "epv": 8.05, "track": 0.0, "speed": 0.0, "climb": 0.0, "eps": 6.5, "epc": 16.1}], "gst": [{"class": "GST", "device": "/dev/ttyUSB0", "time": "1970-01-01T00:00:00.000Z", "rms": 0.0, "major": 0.0, "minor": 0.0, "orient": 0.0, "lat": 0.0, "lon": 0.0, "alt": 0.0}], "sky": [{"class": "SKY", "device": "/dev/ttyUSB0", "time": "2020-09-12T18:47:55.000Z", "xdop": 0.6, "ydop": 0.87, "vdop": 1.4, "tdop": 0.76, "hdop": 1.2, "gdop": 1.96, "pdop": 1.8, "satellites": [{"PRN": 10, "el": 10, "az": 267, "ss": 29, "used": true}, {"PRN": 13, "el": 43, "az": 49, "ss": 44, "used": true}, {"PRN": 15, "el": 78, "az": 69, "ss": 46, "used": true}, {"PRN": 18, "el": 56, "az": 325, "ss": 43, "used": true}, {"PRN": 20, "el": 36, "az": 288, "ss": 44, "used": true}, {"PRN": 2, "el": 6, "az": 126, "ss": 22, "used": true}, {"PRN": 24, "el": 19, "az": 151, "ss": 4, "used": false}, {"PRN": 29, "el": 45, "az": 204, "ss": 47, "used": true}, {"PRN": 21, "el": 70, "az": 331, "ss": 0, "used": false}, {"PRN": 5, "el": 16, "az": 67, "ss": 34, "used": true}, {"PRN": 4, "el": 56, "az": 111, "ss": 0, "used": false}, {"PRN": 138, "el": 43, "az": 217, "ss": 43, "used": true}]}], "_extra_data": {"message": "1 CPS | 19 CPM", "data": {"time": 1599936469.3311362, "cps": 1, "cpsl": 1, "cpsh": 0, "cpm": 19, "cpml": 19, "cpmh": 0, "maxcps": 2, "calibration": {"CalibCPM_0": 100, "CalibuSv_0": 0.6499999761581421, "CalibCPM_1": 30000, "CalibuSv_1": 195.0, "CalibCPM_2": 25, "CalibuSv_2": 4.849999904632568}}}}
{"class": "POLL", "time": "2020-09-12T18:48:01.872Z", "active": 1, "tpv": [{"class": "TPV", "device": "/dev/ttyUSB0", "status": 2, "mode": 3, "time": "2020-09-12T18:48:00.000Z", "ept": 0.005, "lat": 33.753087964, "lon": -84.248730246, "alt": 309.282, "epx": 2.233, "epy": 3.25, "epv": 8.05, "track": 0.0, "speed": 0.0, "climb": 0.0, "eps": 6.5, "epc": 16.1}], "gst": [{"class": "GST", "device": "/dev/ttyUSB0", "time": "1970-01-01T00:00:00.000Z", "rms": 0.0, "major": 0.0, "minor": 0.0, "orient": 0.0, "lat": 0.0, "lon": 0.0, "alt": 0.0}], "sky": [{"class": "SKY", "device": "/dev/ttyUSB0", "time": "2020-09-12T18:47:58.000Z", "xdop": 0.6, "ydop": 0.87, "vdop": 1.4, "hdop": 1.0, "gdop": 1.96, "pdop": 1.8, "satellites": [{"PRN": 10, "el": 10, "az": 267, "ss": 32, "used": true}, {"PRN": 13, "el": 43, "az": 49, "ss": 45, "used": true}, {"PRN": 15, "el": 78, "az": 69, "ss": 46, "used": true}, {"PRN": 18, "el": 56, "az": 325, "ss": 43, "used": true}, {"PRN": 20, "el": 36, "az": 288, "ss": 44, "used": true}, {"PRN": 2, "el": 6, "az": 126, "ss": 22, "used": true}, {"PRN": 24, "el": 19, "az": 151, "ss": 16, "used": true}, {"PRN": 29, "el": 45, "az": 204, "ss": 47, "used": true}, {"PRN": 21, "el": 70, "az": 331, "ss": 0, "used": false}, {"PRN": 5, "el": 16, "az": 67, "ss": 35, "used": true}, {"PRN": 4, "el": 56, "az": 111, "ss": 0, "used": false}, {"PRN": 138, "el": 43, "az": 217, "ss": 44, "used": true}]}], "_extra_data": {"message": "1 CPS | 17 CPM", "data": {"time": 1599936476.8517175, "cps": 1, "cpsl": 0, "cpsh": 0, "cpm": 17, "cpml": 17, "cpmh": 0, "maxcps": 2, "calibration": {"CalibCPM_0": 100, "CalibuSv_0": 0.6499999761581421, "CalibCPM_1": 30000, "CalibuSv_1": 195.0, "CalibCPM_2": 25, "CalibuSv_2": 4.849999904632568}}}}
{"class": "POLL", "time": "2020-09-12T18:48:06.953Z", "active": 1, "tpv": [{"class": "TPV", "device": "/dev/ttyUSB0", "status": 2, "mode": 3, "time": "2020-09-12T18:48:05.000Z", "ept": 0.005, "lat": 33.753087964, "lon": -84.248730246, "alt": 309.282, "epx": 2.233, "epy": 3.25, "epv": 8.05, "track": 0.0, "speed": 0.0, "climb": 0.0, "eps": 6.5, "epc": 16.1}], "gst": [{"class": "GST", "device": "/dev/ttyUSB0", "time": "1970-01-01T00:00:00.000Z", "rms": 0.0, "major": 0.0, "minor": 0.0, "orient": 0.0, "lat": 0.0, "lon": 0.0, "alt": 0.0}], "sky": [{"class": "SKY", "device": "/dev/ttyUSB0", "time": "2020-09-12T18:48:04.000Z", "xdop": 0.6, "ydop": 0.87, "vdop": 1.4, "hdop": 1.0, "gdop": 1.96, "pdop": 1.8, "satellites": [{"PRN": 10, "el": 10, "az": 267, "ss": 33, "used": true}, {"PRN": 13, "el": 43, "az": 49, "ss": 45, "used": true}, {"PRN": 15, "el": 78, "az": 69, "ss": 46, "used": true}, {"PRN": 18, "el": 56, "az": 325, "ss": 42, "used": true}, {"PRN": 20, "el": 36, "az": 288, "ss": 43, "used": true}, {"PRN": 2, "el": 6, "az": 126, "ss": 22, "used": true}, {"PRN": 24, "el": 19, "az": 151, "ss": 25, "used": true}, {"PRN": 29, "el": 45, "az": 204, "ss": 47, "used": true}, {"PRN": 21, "el": 70, "az": 331, "ss": 0, "used": false}, {"PRN": 5, "el": 16, "az": 67, "ss": 35, "used": true}, {"PRN": 4, "el": 56, "az": 111, "ss": 0, "used": false}, {"PRN": 138, "el": 43, "az": 217, "ss": 44, "used": true}]}], "_extra_data": {"message": "0 CPS | 17 CPM", "data": {"time": 1599936484.4411843, "cps": 0, "cpsl": 0, "cpsh": 0, "cpm": 17, "cpml": 17, "cpmh": 0, "maxcps": 2, "calibration": {"CalibCPM_0": 100, "CalibuSv_0": 0.6499999761581421, "CalibCPM_1": 30000, "CalibuSv_1": 195.0, "CalibCPM_2": 25, "CalibuSv_2": 4.849999904632568}}}}
{"class": "POLL", "time": "2020-09-12T18:48:12.019Z", "active": 1, "tpv": [{"class": "TPV", "device": "/dev/ttyUSB0", "status": 2, "mode": 3, "time": "2020-09-12T18:48:10.000Z", "ept": 0.005, "lat": 33.753087964, "lon": -84.248730246, "alt": 309.282, "epx": 2.233, "epy": 3.25, "epv": 8.05, "track": 0.0, "speed": 0.0, "climb": 0.0, "eps": 6.5, "epc": 16.1}], "gst": [{"class": "GST", "device": "/dev/ttyUSB0", "time": "1970-01-01T00:00:00.000Z", "rms": 0.0, "major": 0.0, "minor": 0.0, "orient": 0.0, "lat": 0.0, "lon": 0.0, "alt": 0.0}], "sky": [{"class": "SKY", "device": "/dev/ttyUSB0", "time": "2020-09-12T18:48:10.000Z", "xdop": 0.6, "ydop": 0.87, "vdop": 1.4, "hdop": 1.0, "gdop": 1.96, "pdop": 1.8, "satellites": [{"PRN": 10, "el": 10, "az": 267, "ss": 33, "used": true}, {"PRN": 13, "el": 43, "az": 49, "ss": 45, "used": true}, {"PRN": 15, "el": 78, "az": 69, "ss": 46, "used": true}, {"PRN": 18, "el": 56, "az": 325, "ss": 42, "used": true}, {"PRN": 20, "el": 36, "az": 288, "ss": 42, "used": true}, {"PRN": 2, "el": 6, "az": 126, "ss": 21, "used": true}, {"PRN": 24, "el": 19, "az": 151, "ss": 24, "used": true}, {"PRN": 29, "el": 45, "az": 204, "ss": 47, "used": true}, {"PRN": 21, "el": 70, "az": 331, "ss": 0, "used": false}, {"PRN": 5, "el": 16, "az": 67, "ss": 35, "used": true}, {"PRN": 4, "el": 56, "az": 111, "ss": 0, "used": false}, {"PRN": 138, "el": 43, "az": 217, "ss": 44, "used": true}]}], "_extra_data": {"message": "0 CPS | 18 CPM", "data": {"time": 1599936491.9911172, "cps": 0, "cpsl": 0, "cpsh": 0, "cpm": 18, "cpml": 18, "cpmh": 0, "maxcps": 2, "calibration": {"CalibCPM_0": 100, "CalibuSv_0": 0.6499999761581421, "CalibCPM_1": 30000, "CalibuSv_1": 195.0, "CalibCPM_2": 25, "CalibuSv_2": 4.849999904632568}}}}
{"class": "POLL", "time": "2020-09-12T18:48:17.085Z", "active": 1, "tpv": [{"class": "TPV", "device": "/dev/ttyUSB0", "status": 2, "mode": 3, "time": "2020-09-12T18:48:15.000Z", "ept": 0.005, "lat": 33.753087964, "lon": -84.248730246, "alt": 309.282, "epx": 2.233, "epy": 3.25, "epv": 8.05, "track": 0.0, "speed": 0.0, "climb": 0.0, "eps": 6.5, "epc": 16.1}], "gst": [{"class": "GST", "device": "/dev/ttyUSB0", "time": "1970-01-01T00:00:00.000Z", "rms": 0.0, "major": 0.0, "minor": 0.0, "orient": 0.0, "lat": 0.0, "lon": 0.0, "alt": 0.0}], "sky": [{"class": "SKY", "device": "/dev/ttyUSB0", "time": "2020-09-12T18:48:13.000Z", "xdop": 0.6, "ydop": 0.87, "vdop": 1.4, "hdop": 1.0, "gdop": 1.96, "pdop": 1.8, "satellites": [{"PRN": 10, "el": 10, "az": 267, "ss": 33, "used": true}, {"PRN": 13, "el": 43, "az": 49, "ss": 45, "used": true}, {"PRN": 15, "el": 78, "az": 69, "ss": 46, "used": true}, {"PRN": 18, "el": 56, "az": 325, "ss": 42, "used": true}, {"PRN": 20, "el": 36, "az": 288, "ss": 42, "used": true}, {"PRN": 2, "el": 6, "az": 126, "ss": 21, "used": true}, {"PRN": 24, "el": 19, "az": 151, "ss": 24, "used": true}, {"PRN": 29, "el": 45, "az": 204, "ss": 47, "used": true}, {"PRN": 21, "el": 70, "az": 331, "ss": 22, "used": true}, {"PRN": 5, "el": 16, "az": 67, "ss": 36, "used": true}, {"PRN": 4, "el": 56, "az": 111, "ss": 0, "used": false}, {"PRN": 138, "el": 43, "az": 217, "ss": 44, "used": true}]}], "_extra_data": {"message": "0 CPS | 18 CPM", "data": {"time": 1599936491.9911172, "cps": 0, "cpsl": 0, "cpsh": 0, "cpm": 18, "cpml": 18, "cpmh": 0, "maxcps": 2, "calibration": {"CalibCPM_0": 100, "CalibuSv_0": 0.6499999761581421, "CalibCPM_1": 30000, "CalibuSv_1": 195.0, "CalibCPM_2": 25, "CalibuSv_2": 4.849999904632568}}}}
{"class": "POLL", "time": "2020-09-12T18:48:22.147Z", "active": 1, "tpv": [{"class": "TPV", "device": "/dev/ttyUSB0", "status": 2, "mode": 3, "time": "2020-09-12T18:48:20.000Z", "ept": 0.005, "lat": 33.753087964, "lon": -84.248730246, "alt": 309.282, "epx": 2.233, "epy": 3.25, "epv": 8.05, "track": 0.0, "speed": 0.0, "climb": 0.0, "eps": 6.5, "epc": 16.1}], "gst": [{"class": "GST", "device": "/dev/ttyUSB0", "time": "1970-01-01T00:00:00.000Z", "rms": 0.0, "major": 0.0, "minor": 0.0, "orient": 0.0, "lat": 0.0, "lon": 0.0, "alt": 0.0}], "sky": [{"class": "SKY", "device": "/dev/ttyUSB0", "time": "2020-09-12T18:48:19.000Z", "xdop": 0.6, "ydop": 0.87, "vdop": 1.4, "hdop": 1.0, "gdop": 1.96, "pdop": 1.8, "satellites": [{"PRN": 10, "el": 10, "az": 267, "ss": 26, "used": true}, {"PRN": 13, "el": 43, "az": 49, "ss": 45, "used": true}, {"PRN": 15, "el": 78, "az": 67, "ss": 45, "used": true}, {"PRN": 18, "el": 56, "az": 325, "ss": 43, "used": true}, {"PRN": 20, "el": 36, "az": 288, "ss": 43, "used": true}, {"PRN": 2, "el": 5, "az": 127, "ss": 6, "used": true}, {"PRN": 24, "el": 19, "az": 151, "ss": 23, "used": true}, {"PRN": 29, "el": 45, "az": 204, "ss": 47, "used": true}, {"PRN": 21, "el": 70, "az": 331, "ss": 10, "used": false}, {"PRN": 5, "el": 16, "az": 67, "ss": 37, "used": true}, {"PRN": 138, "el": 43, "az": 217, "ss": 44, "used": true}]}], "_extra_data": {"message": "0 CPS | 16 CPM", "data": {"time": 1599936499.5277574, "cps": 0, "cpsl": 0, "cpsh": 0, "cpm": 16, "cpml": 16, "cpmh": 0, "maxcps": 2, "calibration": {"CalibCPM_0": 100, "CalibuSv_0": 0.6499999761581421, "CalibCPM_1": 30000, "CalibuSv_1": 195.0, "CalibCPM_2": 25, "CalibuSv_2": 4.849999904632568}}}}
{"class": "POLL", "time": "2020-09-12T18:48:27.201Z", "active": 1, "tpv": [{"class": "TPV", "device": "/dev/ttyUSB0", "status": 2, "mode": 3, "time": "2020-09-12T18:48:25.000Z", "ept": 0.005, "lat": 33.753087964, "lon": -84.248730246, "alt": 309.282, "epx": 2.233, "epy": 3.25, "epv": 8.05, "track": 0.0, "speed": 0.0, "climb": 0.0, "eps": 6.5, "epc": 16.1}], "gst": [{"class": "GST", "device": "/dev/ttyUSB0", "time": "1970-01-01T00:00:00.000Z", "rms": 0.0, "major": 0.0, "minor": 0.0, "orient": 0.0, "lat": 0.0, "lon": 0.0, "alt": 0.0}], "sky": [{"class": "SKY", "device": "/dev/ttyUSB0", "time": "2020-09-12T18:48:25.000Z", "xdop": 0.6, "ydop": 0.87, "vdop": 1.4, "hdop": 0.8, "gdop": 1.96, "pdop": 1.8, "satellites": [{"PRN": 10, "el": 10, "az": 267, "ss": 22, "used": true}, {"PRN": 13, "el": 43, "az": 49, "ss": 46, "used": true}, {"PRN": 15, "el": 78, "az": 67, "ss": 45, "used": true}, {"PRN": 18, "el": 56, "az": 325, "ss": 44, "used": true}, {"PRN": 20, "el": 36, "az": 288, "ss": 43, "used": true}, {"PRN": 2, "el": 5, "az": 127, "ss": 13, "used": true}, {"PRN": 24, "el": 19, "az": 151, "ss": 10, "used": true}, {"PRN": 29, "el": 45, "az": 204, "ss": 47, "used": true}, {"PRN": 21, "el": 70, "az": 331, "ss": 0, "used": false}, {"PRN": 5, "el": 16, "az": 67, "ss": 38, "used": true}, {"PRN": 4, "el": 56, "az": 111, "ss": 0, "used": false}, {"PRN": 138, "el": 43, "az": 217, "ss": 43, "used": true}]}], "_extra_data": {"message": "4 CPS | 20 CPM", "data": {"time": 1599936507.0979583, "cps": 4, "cpsl": 3, "cpsh": 1, "cpm": 20, "cpml": 19, "cpmh": 1, "maxcps": 4, "calibration": {"CalibCPM_0": 100, "CalibuSv_0": 0.6499999761581421, "CalibCPM_1": 30000, "CalibuSv_1": 195.0, "CalibCPM_2": 25, "CalibuSv_2": 4.849999904632568}}}}
{"class": "POLL", "time": "2020-09-12T18:48:32.258Z", "active": 1, "tpv": [{"class": "TPV", "device": "/dev/ttyUSB0", "status": 2, "mode": 3, "time": "2020-09-12T18:48:30.000Z", "ept": 0.005, "lat": 33.753087964, "lon": -84.248730246, "alt": 309.282, "epx": 2.233, "epy": 3.25, "epv": 8.05, "track": 0.0, "speed": 0.0, "climb": 0.0, "eps": 6.5, "epc": 16.1}], "gst": [{"class": "GST", "device": "/dev/ttyUSB0", "time": "1970-01-01T00:00:00.000Z", "rms": 0.0, "major": 0.0, "minor": 0.0, "orient": 0.0, "lat": 0.0, "lon": 0.0, "alt": 0.0}], "sky": [{"class": "SKY", "device": "/dev/ttyUSB0", "time": "2020-09-12T18:48:28.000Z", "xdop": 0.6, "ydop": 0.87, "vdop": 1.4, "hdop": 0.8, "gdop": 1.96, "pdop": 1.8, "satellites": [{"PRN": 10, "el": 10, "az": 267, "ss": 12, "used": false}, {"PRN": 13, "el": 43, "az": 49, "ss": 46, "used": true}, {"PRN": 15, "el": 78, "az": 67, "ss": 45, "used": true}, {"PRN": 18, "el": 56, "az": 325, "ss": 44, "used": true}, {"PRN": 20, "el": 36, "az": 288, "ss": 44, "used": true}, {"PRN": 2, "el": 5, "az": 127, "ss": 16, "used": true}, {"PRN": 24, "el": 19, "az": 151, "ss": 8, "used": true}, {"PRN": 29, "el": 45, "az": 204, "ss": 47, "used": true}, {"PRN": 21, "el": 70, "az": 331, "ss": 0, "used": false}, {"PRN": 5, "el": 16, "az": 67, "ss": 38, "used": true}, {"PRN": 4, "el": 56, "az": 111, "ss": 0, "used": false}, {"PRN": 138, "el": 43, "az": 217, "ss": 44, "used": true}]}], "_extra_data": {"message": "4 CPS | 20 CPM", "data": {"time": 1599936507.0979583, "cps": 4, "cpsl": 3, "cpsh": 1, "cpm": 20, "cpml": 19, "cpmh": 1, "maxcps": 4, "calibration": {"CalibCPM_0": 100, "CalibuSv_0": 0.6499999761581421, "CalibCPM_1": 30000, "CalibuSv_1": 195.0, "CalibCPM_2": 25, "CalibuSv_2": 4.849999904632568}}}}
{"class": "POLL", "time": "2020-09-12T18:48:37.306Z", "active": 1, "tpv": [{"class": "TPV", "device": "/dev/ttyUSB0", "status": 2, "mode": 3, "time": "2020-09-12T18:48:35.000Z", "ept": 0.005, "lat": 33.753087964, "lon": -84.248730246, "alt": 309.282, "epx": 2.233, "epy": 3.25, "epv": 8.05, "track": 0.0, "speed": 0.0, "climb": 0.0, "eps": 6.5, "epc": 16.1}], "gst": [{"class": "GST", "device": "/dev/ttyUSB0", "time": "1970-01-01T00:00:00.000Z", "rms": 0.0, "major": 0.0, "minor": 0.0, "orient": 0.0, "lat": 0.0, "lon": 0.0, "alt": 0.0}], "sky": [{"class": "SKY", "device": "/dev/ttyUSB0", "time": "2020-09-12T18:48:34.000Z", "xdop": 0.6, "ydop": 0.87, "vdop": 1.4, "hdop": 0.8, "gdop": 1.96, "pdop": 1.8, "satellites": [{"PRN": 10, "el": 10, "az": 267, "ss": 29, "used": true}, {"PRN": 13, "el": 43, "az": 49, "ss": 46, "used": true}, {"PRN": 15, "el": 78, "az": 67, "ss": 45, "used": true}, {"PRN": 18, "el": 56, "az": 325, "ss": 43, "used": true}, {"PRN": 20, "el": 36, "az": 288, "ss": 44, "used": true}, {"PRN": 2, "el": 5, "az": 127, "ss": 17, "used": true}, {"PRN": 24, "el": 19, "az": 151, "ss": 19, "used": true}, {"PRN": 29, "el": 45, "az": 204, "ss": 47, "used": true}, {"PRN": 21, "el": 70, "az": 331, "ss": 0, "used": false}, {"PRN": 5, "el": 16, "az": 67, "ss": 38, "used": true}, {"PRN": 4, "el": 56, "az": 111, "ss": 0, "used": false}, {"PRN": 138, "el": 43, "az": 217, "ss": 44, "used": true}]}], "_extra_data": {"message": "1 CPS | 21 CPM", "data": {"time": 1599936514.6367724, "cps": 1, "cpsl": 0, "cpsh": 0, "cpm": 21, "cpml": 20, "cpmh": 1, "maxcps": 4, "calibration": {"CalibCPM_0": 100, "CalibuSv_0": 0.6499999761581421, "CalibCPM_1": 30000, "CalibuSv_1": 195.0, "CalibCPM_2": 25, "CalibuSv_2": 4.849999904632568}}}}
