{"tpv": [{"track": 311.5842, "device": "/dev/ttyUSB0", "climb": 0.06, "alt": 286.861, "lat": 33.753439135, "ept": 0.005, "mode": 3, "speed": 0.166, "time": "2018-07-28T17:15:55.000Z", "class": "TPV", "lon": -84.628372796}], "sky": [{"time": "1970-01-01T00:00:00.000Z", "device": "/dev/ttyUSB0", "class": "SKY", "hdop": 0.8}], "active": 1, "gst": [{"device": "/dev/ttyUSB0", "lat": 0.0, "rms": 0.0, "minor": 0.0, "orient": 0.0, "time": "1970-01-01T00:00:00.000Z", "major": 0.0, "class": "GST", "alt": 0.0, "lon": 0.0}], "time": "2018-04-09T02:17:28.493Z", "class": "POLL"}
{"tpv": [{"track": 352.5082, "epc": 169.63, "device": "/dev/ttyUSB0", "epx": 15.841, "epy": 20.616, "mode": 3, "time": "2018-07-28T17:16:01.000Z", "epv": 84.813, "lat": 33.75338633, "lon": -84.628306303, "eps": 41.23, "climb": 0.2, "alt": 281.227, "ept": 0.005, "class": "TPV", "speed": 0.775}], "sky": [{"tdop": 2.87, "device": "/dev/ttyUSB0", "ydop": 1.37, "hdop": 1.0, "xdop": 1.06, "pdop": 4.07, "time": "2018-07-28T17:16:00.000Z", "gdop": 4.99, "satellites": [{"az": 235, "PRN": 2, "ss": 36, "used": true, "el": 28}, {"az": 34, "PRN": 17, "ss": 32, "used": true, "el": 56}, {"az": 135, "PRN": 28, "ss": 35, "used": true, "el": 42}, {"az": 253, "PRN": 6, "ss": 28, "used": true, "el": 73}, {"az": 340, "PRN": 19, "ss": 39, "used": true, "el": 59}, {"az": 54, "PRN": 3, "ss": 21, "used": false, "el": 23}, {"az": 289, "PRN": 24, "ss": 2, "used": false, "el": 21}, {"az": 318, "PRN": 12, "ss": 0, "used": false, "el": 12}, {"az": 39, "PRN": 22, "ss": 0, "used": false, "el": 7}, {"az": 243, "PRN": 135, "ss": 12, "used": true, "el": 25}], "class": "SKY", "vdop": 3.69}], "active": 1, "gst": [{"device": "/dev/ttyUSB0", "lat": 0.0, "rms": 0.0, "minor": 0.0, "orient": 0.0, "time": "1970-01-01T00:00:00.000Z", "major": 0.0, "class": "GST", "alt": 0.0, "lon": 0.0}], "time": "2018-04-09T02:17:33.627Z", "class": "POLL"}
{"tpv": [{"track": 311.5842, "epc": 169.63, "device": "/dev/ttyUSB0", "epx": 15.841, "epy": 20.616, "mode": 3, "time": "2018-07-28T17:16:06.000Z", "epv": 84.813, "lat": 33.753381812, "lon": -84.628318059, "eps": 41.23, "climb": 0.119, "alt": 281.977, "ept": 0.005, "class": "TPV", "speed": 0.333}], "sky": [{"tdop": 2.87, "device": "/dev/ttyUSB0", "ydop": 1.37, "hdop": 1.0, "xdop": 1.06, "pdop": 4.07, "time": "2018-07-28T17:16:06.000Z", "gdop": 4.99, "satellites": [{"az": 235, "PRN": 2, "ss": 32, "used": true, "el": 28}, {"az": 34, "PRN": 17, "ss": 41, "used": true, "el": 56}, {"az": 135, "PRN": 28, "ss": 22, "used": true, "el": 42}, {"az": 253, "PRN": 6, "ss": 33, "used": true, "el": 73}, {"az": 340, "PRN": 19, "ss": 31, "used": true, "el": 59}, {"az": 54, "PRN": 3, "ss": 22, "used": true, "el": 23}, {"az": 289, "PRN": 24, "ss": 12, "used": false, "el": 21}, {"az": 318, "PRN": 12, "ss": 21, "used": true, "el": 12}, {"az": 39, "PRN": 22, "ss": 19, "used": true, "el": 7}, {"az": 243, "PRN": 135, "ss": 26, "used": true, "el": 25}], "class": "SKY", "vdop": 3.69}], "active": 1, "gst": [{"device": "/dev/ttyUSB0", "lat": 0.0, "rms": 0.0, "minor": 0.0, "orient": 0.0, "time": "1970-01-01T00:00:00.000Z", "major": 0.0, "class": "GST", "alt": 0.0, "lon": 0.0}], "time": "2018-04-09T02:17:38.654Z", "class": "POLL"}
{"tpv": [{"track": 26.7175, "epc": 169.63, "device": "/dev/ttyUSB0", "epx": 15.841, "epy": 20.616, "mode": 3, "time": "2018-07-28T17:16:11.000Z", "epv": 84.813, "lat": 33.753381812, "lon": -84.628318059, "eps": 41.23, "climb": 0.045, "alt": 281.977, "ept": 0.005, "class": "TPV", "speed": 0.303}], "sky": [{"tdop": 2.87, "device": "/dev/ttyUSB0", "ydop": 1.37, "hdop": 0.8, "xdop": 1.06, "pdop": 4.07, "time": "2018-07-28T17:16:09.000Z", "gdop": 4.99, "satellites": [{"az": 235, "PRN": 2, "ss": 32, "used": true, "el": 28}, {"az": 34, "PRN": 17, "ss": 41, "used": true, "el": 56}, {"az": 135, "PRN": 28, "ss": 29, "used": true, "el": 42}, {"az": 253, "PRN": 6, "ss": 33, "used": true, "el": 73}, {"az": 340, "PRN": 19, "ss": 31, "used": true, "el": 59}, {"az": 54, "PRN": 3, "ss": 26, "used": true, "el": 23}, {"az": 289, "PRN": 24, "ss": 19, "used": true, "el": 21}, {"az": 318, "PRN": 12, "ss": 22, "used": true, "el": 12}, {"az": 39, "PRN": 22, "ss": 20, "used": true, "el": 7}, {"az": 243, "PRN": 135, "ss": 39, "used": true, "el": 25}], "class": "SKY", "vdop": 3.69}], "active": 1, "gst": [{"device": "/dev/ttyUSB0", "lat": 0.0, "rms": 0.0, "minor": 0.0, "orient": 0.0, "time": "1970-01-01T00:00:00.000Z", "major": 0.0, "class": "GST", "alt": 0.0, "lon": 0.0}], "time": "2018-04-09T02:17:43.679Z", "class": "POLL"}
{"tpv": [{"track": 0.0, "epc": 169.63, "device": "/dev/ttyUSB0", "epx": 15.841, "epy": 20.616, "mode": 3, "time": "2018-07-28T17:16:16.000Z", "epv": 84.813, "lat": 33.753381812, "lon": -84.628318059, "eps": 41.23, "climb": 0.0, "alt": 281.977, "ept": 0.005, "class": "TPV", "speed": 0.0}], "sky": [{"tdop": 2.87, "device": "/dev/ttyUSB0", "ydop": 1.37, "hdop": 0.8, "xdop": 1.06, "pdop": 4.07, "time": "2018-07-28T17:16:15.000Z", "gdop": 4.99, "satellites": [{"az": 235, "PRN": 2, "ss": 32, "used": true, "el": 28}, {"az": 34, "PRN": 17, "ss": 42, "used": true, "el": 56}, {"az": 135, "PRN": 28, "ss": 26, "used": true, "el": 42}, {"az": 253, "PRN": 6, "ss": 32, "used": true, "el": 73}, {"az": 340, "PRN": 19, "ss": 29, "used": true, "el": 59}, {"az": 54, "PRN": 3, "ss": 27, "used": true, "el": 23}, {"az": 289, "PRN": 24, "ss": 21, "used": true, "el": 21}, {"az": 318, "PRN": 12, "ss": 25, "used": true, "el": 12}, {"az": 39, "PRN": 22, "ss": 20, "used": true, "el": 7}, {"az": 243, "PRN": 135, "ss": 23, "used": true, "el": 25}], "class": "SKY", "vdop": 3.69}], "active": 1, "gst": [{"device": "/dev/ttyUSB0", "lat": 0.0, "rms": 0.0, "minor": 0.0, "orient": 0.0, "time": "1970-01-01T00:00:00.000Z", "major": 0.0, "class": "GST", "alt": 0.0, "lon": 0.0}], "time": "2018-04-09T02:17:48.709Z", "class": "POLL"}
{"tpv": [{"track": 0.0, "epc": 169.63, "device": "/dev/ttyUSB0", "epx": 15.841, "epy": 20.616, "mode": 3, "time": "2018-07-28T17:16:21.000Z", "epv": 84.813, "lat": 33.753381812, "lon": -84.628318059, "eps": 41.23, "climb": 0.0, "alt": 281.977, "ept": 0.005, "class": "TPV", "speed": 0.0}], "sky": [{"tdop": 2.87, "device": "/dev/ttyUSB0", "ydop": 1.37, "hdop": 0.8, "xdop": 1.06, "pdop": 4.07, "time": "2018-07-28T17:16:21.000Z", "gdop": 4.99, "satellites": [{"az": 235, "PRN": 2, "ss": 32, "used": true, "el": 28}, {"az": 34, "PRN": 17, "ss": 42, "used": true, "el": 56}, {"az": 135, "PRN": 28, "ss": 36, "used": true, "el": 42}, {"az": 253, "PRN": 6, "ss": 34, "used": true, "el": 73}, {"az": 340, "PRN": 19, "ss": 37, "used": true, "el": 59}, {"az": 54, "PRN": 3, "ss": 33, "used": true, "el": 23}, {"az": 289, "PRN": 24, "ss": 30, "used": true, "el": 21}, {"az": 318, "PRN": 12, "ss": 28, "used": true, "el": 12}, {"az": 39, "PRN": 22, "ss": 24, "used": true, "el": 7}, {"az": 243, "PRN": 135, "ss": 30, "used": true, "el": 25}], "class": "SKY", "vdop": 3.69}], "active": 1, "gst": [{"device": "/dev/ttyUSB0", "lat": 0.0, "rms": 0.0, "minor": 0.0, "orient": 0.0, "time": "1970-01-01T00:00:00.000Z", "major": 0.0, "class": "GST", "alt": 0.0, "lon": 0.0}], "time": "2018-04-09T02:17:53.739Z", "class": "POLL"}
{"tpv": [{"track": 0.0, "epc": 169.63, "device": "/dev/ttyUSB0", "epx": 15.841, "epy": 20.616, "mode": 3, "time": "2018-07-28T17:16:26.000Z", "epv": 84.813, "lat": 33.753388839, "lon": -84.628307313, "eps": 41.23, "climb": 0.0, "alt": 282.611, "ept": 0.005, "class": "TPV", "speed": 0.0}], "sky": [{"tdop": 2.87, "device": "/dev/ttyUSB0", "ydop": 1.37, "hdop": 0.8, "xdop": 1.06, "pdop": 4.07, "time": "2018-07-28T17:16:24.000Z", "gdop": 4.99, "satellites": [{"az": 235, "PRN": 2, "ss": 38, "used": true, "el": 28}, {"az": 34, "PRN": 17, "ss": 42, "used": true, "el": 56}, {"az": 135, "PRN": 28, "ss": 36, "used": true, "el": 42}, {"az": 253, "PRN": 6, "ss": 32, "used": true, "el": 73}, {"az": 340, "PRN": 19, "ss": 37, "used": true, "el": 59}, {"az": 54, "PRN": 3, "ss": 20, "used": true, "el": 23}, {"az": 289, "PRN": 24, "ss": 19, "used": true, "el": 21}, {"az": 318, "PRN": 12, "ss": 27, "used": true, "el": 12}, {"az": 39, "PRN": 22, "ss": 24, "used": true, "el": 7}, {"az": 243, "PRN": 135, "ss": 34, "used": true, "el": 25}], "class": "SKY", "vdop": 3.69}], "active": 1, "gst": [{"device": "/dev/ttyUSB0", "lat": 0.0, "rms": 0.0, "minor": 0.0, "orient": 0.0, "time": "1970-01-01T00:00:00.000Z", "major": 0.0, "class": "GST", "alt": 0.0, "lon": 0.0}], "time": "2018-04-09T02:17:58.765Z", "class": "POLL"}
{"tpv": [{"track": 295.164, "epc": 106.02, "device": "/dev/ttyUSB0", "epx": 3.96, "epy": 5.154, "mode": 3, "time": "2018-07-28T17:16:31.000Z", "epv": 21.203, "lat": 33.753358946, "lon": -84.628316407, "eps": 25.77, "climb": 0.05, "alt": 291.172, "ept": 0.005, "class": "TPV", "speed": 0.275}], "sky": [{"tdop": 2.87, "device": "/dev/ttyUSB0", "ydop": 1.37, "hdop": 1.2, "xdop": 1.06, "pdop": 4.07, "time": "2018-07-28T17:16:30.000Z", "gdop": 4.99, "satellites": [{"az": 235, "PRN": 2, "ss": 36, "used": true, "el": 28}, {"az": 34, "PRN": 17, "ss": 47, "used": true, "el": 56}, {"az": 135, "PRN": 28, "ss": 44, "used": true, "el": 42}, {"az": 253, "PRN": 6, "ss": 43, "used": true, "el": 73}, {"az": 340, "PRN": 19, "ss": 42, "used": true, "el": 59}, {"az": 54, "PRN": 3, "ss": 29, "used": true, "el": 23}, {"az": 289, "PRN": 24, "ss": 0, "used": false, "el": 21}, {"az": 318, "PRN": 12, "ss": 27, "used": true, "el": 12}, {"az": 39, "PRN": 22, "ss": 19, "used": true, "el": 7}, {"az": 243, "PRN": 135, "ss": 47, "used": true, "el": 25}], "class": "SKY", "vdop": 3.69}], "active": 1, "gst": [{"device": "/dev/ttyUSB0", "lat": 0.0, "rms": 0.0, "minor": 0.0, "orient": 0.0, "time": "1970-01-01T00:00:00.000Z", "major": 0.0, "class": "GST", "alt": 0.0, "lon": 0.0}], "time": "2018-04-09T02:18:03.791Z", "class": "POLL"}
{"tpv": [{"track": 92.9906, "epc": 42.41, "device": "/dev/ttyUSB0", "epx": 3.96, "epy": 5.154, "mode": 3, "time": "2018-07-28T17:16:37.000Z", "epv": 21.203, "lat": 33.753360353, "lon": -84.628348643, "eps": 10.31, "climb": 0.01, "alt": 290.938, "ept": 0.005, "class": "TPV", "speed": 0.125}], "sky": [{"tdop": 2.87, "device": "/dev/ttyUSB0", "ydop": 1.37, "hdop": 1.0, "xdop": 1.06, "pdop": 4.07, "time": "2018-07-28T17:16:36.000Z", "gdop": 4.99, "satellites": [{"az": 235, "PRN": 2, "ss": 43, "used": true, "el": 28}, {"az": 34, "PRN": 17, "ss": 45, "used": true, "el": 56}, {"az": 135, "PRN": 28, "ss": 37, "used": true, "el": 42}, {"az": 253, "PRN": 6, "ss": 44, "used": true, "el": 73}, {"az": 340, "PRN": 19, "ss": 42, "used": true, "el": 59}, {"az": 54, "PRN": 3, "ss": 30, "used": true, "el": 23}, {"az": 289, "PRN": 24, "ss": 0, "used": false, "el": 21}, {"az": 318, "PRN": 12, "ss": 31, "used": true, "el": 12}, {"az": 39, "PRN": 22, "ss": 17, "used": true, "el": 7}, {"az": 243, "PRN": 135, "ss": 47, "used": true, "el": 25}], "class": "SKY", "vdop": 3.69}], "active": 1, "gst": [{"device": "/dev/ttyUSB0", "lat": 0.0, "rms": 0.0, "minor": 0.0, "orient": 0.0, "time": "1970-01-01T00:00:00.000Z", "major": 0.0, "class": "GST", "alt": 0.0, "lon": 0.0}], "time": "2018-04-09T02:18:09.608Z", "class": "POLL"}
{"tpv": [{"track": 0.0, "epc": 42.41, "device": "/dev/ttyUSB0", "epx": 3.96, "epy": 5.154, "mode": 3, "time": "2018-07-28T17:16:42.000Z", "epv": 21.203, "lat": 33.753371265, "lon": -84.628368113, "eps": 10.31, "climb": 0.0, "alt": 289.127, "ept": 0.005, "class": "TPV", "speed": 0.0}], "sky": [{"tdop": 2.87, "device": "/dev/ttyUSB0", "ydop": 1.37, "hdop": 0.8, "xdop": 1.06, "pdop": 4.07, "time": "2018-07-28T17:16:42.000Z", "gdop": 4.99, "satellites": [{"az": 235, "PRN": 2, "ss": 45, "used": true, "el": 28}, {"az": 34, "PRN": 17, "ss": 45, "used": true, "el": 56}, {"az": 135, "PRN": 28, "ss": 36, "used": true, "el": 42}, {"az": 253, "PRN": 6, "ss": 44, "used": true, "el": 73}, {"az": 340, "PRN": 19, "ss": 41, "used": true, "el": 59}, {"az": 54, "PRN": 3, "ss": 32, "used": true, "el": 23}, {"az": 289, "PRN": 24, "ss": 24, "used": true, "el": 21}, {"az": 318, "PRN": 12, "ss": 39, "used": true, "el": 12}, {"az": 39, "PRN": 22, "ss": 19, "used": true, "el": 7}, {"az": 243, "PRN": 135, "ss": 43, "used": true, "el": 25}], "class": "SKY", "vdop": 3.69}], "active": 1, "gst": [{"device": "/dev/ttyUSB0", "lat": 0.0, "rms": 0.0, "minor": 0.0, "orient": 0.0, "time": "1970-01-01T00:00:00.000Z", "major": 0.0, "class": "GST", "alt": 0.0, "lon": 0.0}], "time": "2018-04-09T02:18:14.632Z", "class": "POLL"}
{"tpv": [{"track": 2.9766, "epc": 42.41, "device": "/dev/ttyUSB0", "epx": 3.96, "epy": 5.154, "mode": 3, "time": "2018-07-28T17:16:47.000Z", "epv": 21.203, "lat": 33.753383748, "lon": -84.628367102, "eps": 10.31, "climb": 0.001, "alt": 288.855, "ept": 0.005, "class": "TPV", "speed": 0.451}], "sky": [{"tdop": 2.87, "device": "/dev/ttyUSB0", "ydop": 1.37, "hdop": 0.8, "xdop": 1.06, "pdop": 4.07, "time": "2018-07-28T17:16:45.000Z", "gdop": 4.99, "satellites": [{"az": 235, "PRN": 2, "ss": 45, "used": true, "el": 28}, {"az": 34, "PRN": 17, "ss": 46, "used": true, "el": 56}, {"az": 135, "PRN": 28, "ss": 35, "used": true, "el": 42}, {"az": 253, "PRN": 6, "ss": 44, "used": true, "el": 73}, {"az": 340, "PRN": 19, "ss": 41, "used": true, "el": 59}, {"az": 54, "PRN": 3, "ss": 36, "used": true, "el": 23}, {"az": 289, "PRN": 24, "ss": 0, "used": false, "el": 21}, {"az": 318, "PRN": 12, "ss": 39, "used": true, "el": 12}, {"az": 39, "PRN": 22, "ss": 20, "used": true, "el": 7}, {"az": 243, "PRN": 135, "ss": 42, "used": true, "el": 25}], "class": "SKY", "vdop": 3.69}], "active": 1, "gst": [{"device": "/dev/ttyUSB0", "lat": 0.0, "rms": 0.0, "minor": 0.0, "orient": 0.0, "time": "1970-01-01T00:00:00.000Z", "major": 0.0, "class": "GST", "alt": 0.0, "lon": 0.0}], "time": "2018-04-09T02:18:19.663Z", "class": "POLL"}
{"tpv": [{"track": 0.0, "epc": 42.41, "device": "/dev/ttyUSB0", "epx": 3.96, "epy": 5.154, "mode": 3, "time": "2018-07-28T17:16:52.000Z", "epv": 21.203, "lat": 33.753376252, "lon": -84.628367102, "eps": 10.31, "climb": 0.0, "alt": 288.299, "ept": 0.005, "class": "TPV", "speed": 0.0}], "sky": [{"tdop": 2.87, "device": "/dev/ttyUSB0", "ydop": 1.37, "hdop": 0.8, "xdop": 1.06, "pdop": 4.07, "time": "2018-07-28T17:16:51.000Z", "gdop": 4.99, "satellites": [{"az": 235, "PRN": 2, "ss": 42, "used": true, "el": 28}, {"az": 34, "PRN": 17, "ss": 44, "used": true, "el": 56}, {"az": 135, "PRN": 28, "ss": 37, "used": true, "el": 42}, {"az": 253, "PRN": 6, "ss": 44, "used": true, "el": 73}, {"az": 340, "PRN": 19, "ss": 44, "used": true, "el": 59}, {"az": 54, "PRN": 3, "ss": 35, "used": true, "el": 23}, {"az": 289, "PRN": 24, "ss": 32, "used": true, "el": 21}, {"az": 318, "PRN": 12, "ss": 38, "used": true, "el": 12}, {"az": 39, "PRN": 22, "ss": 11, "used": false, "el": 7}, {"az": 243, "PRN": 135, "ss": 43, "used": true, "el": 25}], "class": "SKY", "vdop": 3.69}], "active": 1, "gst": [{"device": "/dev/ttyUSB0", "lat": 0.0, "rms": 0.0, "minor": 0.0, "orient": 0.0, "time": "1970-01-01T00:00:00.000Z", "major": 0.0, "class": "GST", "alt": 0.0, "lon": 0.0}], "time": "2018-04-09T02:18:24.689Z", "class": "POLL"}
{"tpv": [{"track": 0.0, "epc": 42.41, "device": "/dev/ttyUSB0", "epx": 3.96, "epy": 5.154, "mode": 3, "time": "2018-07-28T17:16:57.000Z", "epv": 21.203, "lat": 33.7533633, "lon": -84.628357367, "eps": 10.31, "climb": 0.0, "alt": 288.649, "ept": 0.005, "class": "TPV", "speed": 0.0}], "sky": [{"tdop": 2.87, "device": "/dev/ttyUSB0", "ydop": 1.37, "hdop": 0.8, "xdop": 1.06, "pdop": 4.07, "time": "2018-07-28T17:16:57.000Z", "gdop": 4.99, "satellites": [{"az": 235, "PRN": 2, "ss": 43, "used": true, "el": 28}, {"az": 34, "PRN": 17, "ss": 46, "used": true, "el": 56}, {"az": 135, "PRN": 28, "ss": 39, "used": true, "el": 42}, {"az": 253, "PRN": 6, "ss": 44, "used": true, "el": 73}, {"az": 340, "PRN": 19, "ss": 45, "used": true, "el": 59}, {"az": 54, "PRN": 3, "ss": 34, "used": true, "el": 23}, {"az": 289, "PRN": 24, "ss": 21, "used": true, "el": 21}, {"az": 318, "PRN": 12, "ss": 31, "used": true, "el": 12}, {"az": 39, "PRN": 22, "ss": 23, "used": true, "el": 7}, {"az": 243, "PRN": 135, "ss": 42, "used": true, "el": 25}], "class": "SKY", "vdop": 3.69}], "active": 1, "gst": [{"device": "/dev/ttyUSB0", "lat": 0.0, "rms": 0.0, "minor": 0.0, "orient": 0.0, "time": "1970-01-01T00:00:00.000Z", "major": 0.0, "class": "GST", "alt": 0.0, "lon": 0.0}], "time": "2018-04-09T02:18:29.715Z", "class": "POLL"}
{"tpv": [{"track": 0.0, "epc": 42.41, "device": "/dev/ttyUSB0", "epx": 3.96, "epy": 5.154, "mode": 3, "time": "2018-07-28T17:17:02.000Z", "epv": 21.203, "lat": 33.7533633, "lon": -84.628357367, "eps": 10.31, "climb": 0.0, "alt": 288.649, "ept": 0.005, "class": "TPV", "speed": 0.0}], "sky": [{"tdop": 2.87, "device": "/dev/ttyUSB0", "ydop": 1.37, "hdop": 0.8, "xdop": 1.06, "pdop": 4.07, "time": "2018-07-28T17:17:00.000Z", "gdop": 4.99, "satellites": [{"az": 235, "PRN": 2, "ss": 44, "used": true, "el": 28}, {"az": 34, "PRN": 17, "ss": 46, "used": true, "el": 56}, {"az": 135, "PRN": 28, "ss": 41, "used": true, "el": 42}, {"az": 253, "PRN": 6, "ss": 44, "used": true, "el": 73}, {"az": 340, "PRN": 19, "ss": 45, "used": true, "el": 59}, {"az": 54, "PRN": 3, "ss": 34, "used": true, "el": 23}, {"az": 289, "PRN": 24, "ss": 25, "used": true, "el": 21}, {"az": 318, "PRN": 12, "ss": 33, "used": true, "el": 12}, {"az": 39, "PRN": 22, "ss": 23, "used": true, "el": 7}, {"az": 243, "PRN": 135, "ss": 42, "used": true, "el": 25}], "class": "SKY", "vdop": 3.69}], "active": 1, "gst": [{"device": "/dev/ttyUSB0", "lat": 0.0, "rms": 0.0, "minor": 0.0, "orient": 0.0, "time": "1970-01-01T00:00:00.000Z", "major": 0.0, "class": "GST", "alt": 0.0, "lon": 0.0}], "time": "2018-04-09T02:18:34.741Z", "class": "POLL"}
{"tpv": [{"track": 274.7126, "epc": 42.41, "device": "/dev/ttyUSB0", "epx": 3.96, "epy": 5.154, "mode": 3, "time": "2018-07-28T17:17:07.000Z", "epv": 21.203, "lat": 33.753372203, "lon": -84.628389603, "eps": 10.31, "climb": 0.085, "alt": 288.971, "ept": 0.005, "class": "TPV", "speed": 1.136}], "sky": [{"tdop": 2.87, "device": "/dev/ttyUSB0", "ydop": 1.37, "hdop": 0.8, "xdop": 1.06, "pdop": 4.07, "time": "2018-07-28T17:17:06.000Z", "gdop": 4.99, "satellites": [{"az": 235, "PRN": 2, "ss": 45, "used": true, "el": 28}, {"az": 34, "PRN": 17, "ss": 47, "used": true, "el": 56}, {"az": 135, "PRN": 28, "ss": 45, "used": true, "el": 42}, {"az": 253, "PRN": 6, "ss": 44, "used": true, "el": 73}, {"az": 340, "PRN": 19, "ss": 45, "used": true, "el": 59}, {"az": 54, "PRN": 3, "ss": 33, "used": true, "el": 23}, {"az": 289, "PRN": 24, "ss": 31, "used": true, "el": 21}, {"az": 318, "PRN": 12, "ss": 31, "used": true, "el": 12}, {"az": 39, "PRN": 22, "ss": 28, "used": true, "el": 7}, {"az": 243, "PRN": 135, "ss": 42, "used": true, "el": 25}], "class": "SKY", "vdop": 3.69}], "active": 1, "gst": [{"device": "/dev/ttyUSB0", "lat": 0.0, "rms": 0.0, "minor": 0.0, "orient": 0.0, "time": "1970-01-01T00:00:00.000Z", "major": 0.0, "class": "GST", "alt": 0.0, "lon": 0.0}], "time": "2018-04-09T02:18:39.768Z", "class": "POLL"}
{"tpv": [{"track": 224.3474, "epc": 42.41, "device": "/dev/ttyUSB0", "epx": 3.96, "epy": 5.154, "mode": 3, "time": "2018-07-28T17:17:12.000Z", "epv": 21.203, "lat": 33.753342086, "lon": -84.628445351, "eps": 10.31, "climb": 0.057, "alt": 288.571, "ept": 0.005, "class": "TPV", "speed": 1.525}], "sky": [{"tdop": 2.87, "device": "/dev/ttyUSB0", "ydop": 1.37, "hdop": 0.8, "xdop": 1.06, "pdop": 4.07, "time": "2018-07-28T17:17:12.000Z", "gdop": 4.99, "satellites": [{"az": 235, "PRN": 2, "ss": 39, "used": true, "el": 28}, {"az": 34, "PRN": 17, "ss": 47, "used": true, "el": 56}, {"az": 135, "PRN": 28, "ss": 39, "used": true, "el": 42}, {"az": 253, "PRN": 6, "ss": 45, "used": true, "el": 73}, {"az": 340, "PRN": 19, "ss": 44, "used": true, "el": 59}, {"az": 54, "PRN": 3, "ss": 42, "used": true, "el": 23}, {"az": 289, "PRN": 24, "ss": 28, "used": true, "el": 21}, {"az": 318, "PRN": 12, "ss": 19, "used": true, "el": 12}, {"az": 39, "PRN": 22, "ss": 22, "used": true, "el": 7}, {"az": 243, "PRN": 135, "ss": 37, "used": true, "el": 25}], "class": "SKY", "vdop": 3.69}], "active": 1, "gst": [{"device": "/dev/ttyUSB0", "lat": 0.0, "rms": 0.0, "minor": 0.0, "orient": 0.0, "time": "1970-01-01T00:00:00.000Z", "major": 0.0, "class": "GST", "alt": 0.0, "lon": 0.0}], "time": "2018-04-09T02:18:44.795Z", "class": "POLL"}
{"tpv": [{"track": 190.2903, "epc": 42.41, "device": "/dev/ttyUSB0", "epx": 3.96, "epy": 5.154, "mode": 3, "time": "2018-07-28T17:17:17.000Z", "epv": 21.203, "lat": 33.753272616, "lon": -84.628458117, "eps": 10.31, "climb": -0.198, "alt": 285.704, "ept": 0.005, "class": "TPV", "speed": 1.852}], "sky": [{"tdop": 2.87, "device": "/dev/ttyUSB0", "ydop": 1.37, "hdop": 1.0, "xdop": 1.06, "pdop": 4.07, "time": "2018-07-28T17:17:15.000Z", "gdop": 4.99, "satellites": [{"az": 235, "PRN": 2, "ss": 40, "used": true, "el": 28}, {"az": 34, "PRN": 17, "ss": 47, "used": true, "el": 56}, {"az": 135, "PRN": 28, "ss": 36, "used": true, "el": 42}, {"az": 253, "PRN": 6, "ss": 45, "used": true, "el": 73}, {"az": 340, "PRN": 19, "ss": 43, "used": true, "el": 59}, {"az": 54, "PRN": 3, "ss": 44, "used": true, "el": 23}, {"az": 289, "PRN": 24, "ss": 29, "used": true, "el": 21}, {"az": 318, "PRN": 12, "ss": 32, "used": true, "el": 12}, {"az": 39, "PRN": 22, "ss": 25, "used": true, "el": 7}, {"az": 243, "PRN": 135, "ss": 37, "used": true, "el": 25}], "class": "SKY", "vdop": 3.69}], "active": 1, "gst": [{"device": "/dev/ttyUSB0", "lat": 0.0, "rms": 0.0, "minor": 0.0, "orient": 0.0, "time": "1970-01-01T00:00:00.000Z", "major": 0.0, "class": "GST", "alt": 0.0, "lon": 0.0}], "time": "2018-04-09T02:18:49.821Z", "class": "POLL"}
{"tpv": [{"track": 175.115, "epc": 42.41, "device": "/dev/ttyUSB0", "epx": 3.96, "epy": 5.154, "mode": 3, "time": "2018-07-28T17:17:22.000Z", "epv": 21.203, "lat": 33.753210641, "lon": -84.628470883, "eps": 10.31, "climb": -0.235, "alt": 283.392, "ept": 0.005, "class": "TPV", "speed": 1.049}], "sky": [{"tdop": 2.87, "device": "/dev/ttyUSB0", "ydop": 1.37, "hdop": 0.8, "xdop": 1.06, "pdop": 4.07, "time": "2018-07-28T17:17:21.000Z", "gdop": 4.99, "satellites": [{"az": 235, "PRN": 2, "ss": 40, "used": true, "el": 28}, {"az": 34, "PRN": 17, "ss": 47, "used": true, "el": 56}, {"az": 135, "PRN": 28, "ss": 32, "used": true, "el": 42}, {"az": 253, "PRN": 6, "ss": 45, "used": true, "el": 73}, {"az": 340, "PRN": 19, "ss": 43, "used": true, "el": 59}, {"az": 54, "PRN": 3, "ss": 44, "used": true, "el": 23}, {"az": 289, "PRN": 24, "ss": 33, "used": true, "el": 21}, {"az": 318, "PRN": 12, "ss": 19, "used": true, "el": 12}, {"az": 39, "PRN": 22, "ss": 26, "used": true, "el": 7}, {"az": 243, "PRN": 135, "ss": 36, "used": true, "el": 25}], "class": "SKY", "vdop": 3.69}], "active": 1, "gst": [{"device": "/dev/ttyUSB0", "lat": 0.0, "rms": 0.0, "minor": 0.0, "orient": 0.0, "time": "1970-01-01T00:00:00.000Z", "major": 0.0, "class": "GST", "alt": 0.0, "lon": 0.0}], "time": "2018-04-09T02:18:54.852Z", "class": "POLL"}
{"tpv": [{"track": 156.773, "epc": 42.41, "device": "/dev/ttyUSB0", "epx": 3.96, "epy": 5.154, "mode": 3, "time": "2018-07-28T17:17:27.000Z", "epv": 21.203, "lat": 33.753156794, "lon": -84.628441678, "eps": 10.31, "climb": -0.059, "alt": 283.331, "ept": 0.005, "class": "TPV", "speed": 1.429}], "sky": [{"tdop": 2.87, "device": "/dev/ttyUSB0", "ydop": 1.37, "hdop": 0.8, "xdop": 1.06, "pdop": 4.07, "time": "2018-07-28T17:17:27.000Z", "gdop": 4.99, "satellites": [{"az": 235, "PRN": 2, "ss": 37, "used": true, "el": 28}, {"az": 34, "PRN": 17, "ss": 38, "used": true, "el": 56}, {"az": 135, "PRN": 28, "ss": 40, "used": true, "el": 42}, {"az": 253, "PRN": 6, "ss": 43, "used": true, "el": 73}, {"az": 340, "PRN": 19, "ss": 44, "used": true, "el": 59}, {"az": 54, "PRN": 3, "ss": 33, "used": true, "el": 23}, {"az": 289, "PRN": 24, "ss": 37, "used": true, "el": 21}, {"az": 318, "PRN": 12, "ss": 28, "used": true, "el": 12}, {"az": 39, "PRN": 22, "ss": 21, "used": true, "el": 7}, {"az": 243, "PRN": 135, "ss": 33, "used": true, "el": 25}], "class": "SKY", "vdop": 3.69}], "active": 1, "gst": [{"device": "/dev/ttyUSB0", "lat": 0.0, "rms": 0.0, "minor": 0.0, "orient": 0.0, "time": "1970-01-01T00:00:00.000Z", "major": 0.0, "class": "GST", "alt": 0.0, "lon": 0.0}], "time": "2018-04-09T02:18:59.883Z", "class": "POLL"}
{"tpv": [{"track": 92.9906, "epc": 42.41, "device": "/dev/ttyUSB0", "epx": 3.96, "epy": 5.154, "mode": 3, "time": "2018-07-28T17:17:32.000Z", "epv": 21.203, "lat": 33.753126842, "lon": -84.628444709, "eps": 10.31, "climb": 0.01, "alt": 284.703, "ept": 0.005, "class": "TPV", "speed": 0.125}], "sky": [{"tdop": 2.87, "device": "/dev/ttyUSB0", "ydop": 1.37, "hdop": 0.8, "xdop": 1.06, "pdop": 4.07, "time": "2018-07-28T17:17:30.000Z", "gdop": 4.99, "satellites": [{"az": 235, "PRN": 2, "ss": 37, "used": true, "el": 28}, {"az": 34, "PRN": 17, "ss": 37, "used": true, "el": 56}, {"az": 135, "PRN": 28, "ss": 38, "used": true, "el": 42}, {"az": 253, "PRN": 6, "ss": 43, "used": true, "el": 73}, {"az": 340, "PRN": 19, "ss": 44, "used": true, "el": 59}, {"az": 54, "PRN": 3, "ss": 33, "used": true, "el": 23}, {"az": 289, "PRN": 24, "ss": 31, "used": true, "el": 21}, {"az": 318, "PRN": 12, "ss": 34, "used": true, "el": 12}, {"az": 39, "PRN": 22, "ss": 21, "used": true, "el": 7}, {"az": 216, "PRN": 138, "ss": 0, "used": false, "el": 43}], "class": "SKY", "vdop": 3.69}], "active": 1, "gst": [{"device": "/dev/ttyUSB0", "lat": 0.0, "rms": 0.0, "minor": 0.0, "orient": 0.0, "time": "1970-01-01T00:00:00.000Z", "major": 0.0, "class": "GST", "alt": 0.0, "lon": 0.0}], "time": "2018-04-09T02:19:04.914Z", "class": "POLL"}
{"tpv": [{"track": 0.0, "epc": 42.41, "device": "/dev/ttyUSB0", "epx": 3.96, "epy": 5.154, "mode": 3, "time": "2018-07-28T17:17:37.000Z", "epv": 21.203, "lat": 33.753114359, "lon": -84.62844572, "eps": 10.31, "climb": 0.0, "alt": 284.975, "ept": 0.005, "class": "TPV", "speed": 0.0}], "sky": [{"tdop": 2.87, "device": "/dev/ttyUSB0", "ydop": 1.37, "hdop": 0.8, "xdop": 1.06, "pdop": 4.07, "time": "2018-07-28T17:17:36.000Z", "gdop": 4.99, "satellites": [{"az": 235, "PRN": 2, "ss": 40, "used": true, "el": 28}, {"az": 34, "PRN": 17, "ss": 30, "used": true, "el": 56}, {"az": 135, "PRN": 28, "ss": 32, "used": true, "el": 42}, {"az": 253, "PRN": 6, "ss": 44, "used": true, "el": 73}, {"az": 340, "PRN": 19, "ss": 41, "used": true, "el": 59}, {"az": 54, "PRN": 3, "ss": 28, "used": true, "el": 23}, {"az": 289, "PRN": 24, "ss": 30, "used": true, "el": 21}, {"az": 318, "PRN": 12, "ss": 19, "used": true, "el": 12}, {"az": 39, "PRN": 22, "ss": 6, "used": true, "el": 7}, {"az": 216, "PRN": 138, "ss": 40, "used": true, "el": 43}], "class": "SKY", "vdop": 3.69}], "active": 1, "gst": [{"device": "/dev/ttyUSB0", "lat": 0.0, "rms": 0.0, "minor": 0.0, "orient": 0.0, "time": "1970-01-01T00:00:00.000Z", "major": 0.0, "class": "GST", "alt": 0.0, "lon": 0.0}], "time": "2018-04-09T02:19:09.945Z", "class": "POLL"}
{"tpv": [{"track": 0.0, "epc": 42.41, "device": "/dev/ttyUSB0", "epx": 3.96, "epy": 5.154, "mode": 3, "time": "2018-07-28T17:17:42.000Z", "epv": 21.203, "lat": 33.753117337, "lon": -84.628457475, "eps": 10.31, "climb": 0.0, "alt": 286.281, "ept": 0.005, "class": "TPV", "speed": 0.0}], "sky": [{"tdop": 2.87, "device": "/dev/ttyUSB0", "ydop": 1.37, "hdop": 0.8, "xdop": 1.06, "pdop": 4.07, "time": "2018-07-28T17:17:42.000Z", "gdop": 4.99, "satellites": [{"az": 235, "PRN": 2, "ss": 41, "used": true, "el": 28}, {"az": 34, "PRN": 17, "ss": 37, "used": true, "el": 56}, {"az": 135, "PRN": 28, "ss": 33, "used": true, "el": 42}, {"az": 253, "PRN": 6, "ss": 43, "used": true, "el": 73}, {"az": 340, "PRN": 19, "ss": 41, "used": true, "el": 59}, {"az": 54, "PRN": 3, "ss": 28, "used": true, "el": 23}, {"az": 289, "PRN": 24, "ss": 32, "used": true, "el": 21}, {"az": 318, "PRN": 12, "ss": 32, "used": true, "el": 12}, {"az": 39, "PRN": 22, "ss": 22, "used": true, "el": 7}, {"az": 216, "PRN": 138, "ss": 39, "used": true, "el": 43}], "class": "SKY", "vdop": 3.69}], "active": 1, "gst": [{"device": "/dev/ttyUSB0", "lat": 0.0, "rms": 0.0, "minor": 0.0, "orient": 0.0, "time": "1970-01-01T00:00:00.000Z", "major": 0.0, "class": "GST", "alt": 0.0, "lon": 0.0}], "time": "2018-04-09T02:19:14.977Z", "class": "POLL"}
{"tpv": [{"track": 121.9375, "epc": 42.41, "device": "/dev/ttyUSB0", "epx": 3.96, "epy": 5.154, "mode": 3, "time": "2018-07-28T17:17:47.000Z", "epv": 21.203, "lat": 33.753124832, "lon": -84.628457475, "eps": 10.31, "climb": 0.003, "alt": 286.836, "ept": 0.005, "class": "TPV", "speed": 0.573}], "sky": [{"tdop": 2.87, "device": "/dev/ttyUSB0", "ydop": 1.37, "hdop": 0.8, "xdop": 1.06, "pdop": 4.07, "time": "2018-07-28T17:17:45.000Z", "gdop": 4.99, "satellites": [{"az": 235, "PRN": 2, "ss": 42, "used": true, "el": 28}, {"az": 34, "PRN": 17, "ss": 37, "used": true, "el": 56}, {"az": 135, "PRN": 28, "ss": 35, "used": true, "el": 42}, {"az": 253, "PRN": 6, "ss": 44, "used": true, "el": 73}, {"az": 340, "PRN": 19, "ss": 41, "used": true, "el": 59}, {"az": 54, "PRN": 3, "ss": 28, "used": true, "el": 23}, {"az": 289, "PRN": 24, "ss": 32, "used": true, "el": 21}, {"az": 318, "PRN": 12, "ss": 28, "used": true, "el": 12}, {"az": 39, "PRN": 22, "ss": 16, "used": true, "el": 7}, {"az": 216, "PRN": 138, "ss": 37, "used": true, "el": 43}], "class": "SKY", "vdop": 3.69}], "active": 1, "gst": [{"device": "/dev/ttyUSB0", "lat": 0.0, "rms": 0.0, "minor": 0.0, "orient": 0.0, "time": "1970-01-01T00:00:00.000Z", "major": 0.0, "class": "GST", "alt": 0.0, "lon": 0.0}], "time": "2018-04-09T02:19:20.004Z", "class": "POLL"}
{"tpv": [{"track": 171.9239, "epc": 42.41, "device": "/dev/ttyUSB0", "epx": 3.96, "epy": 5.154, "mode": 3, "time": "2018-07-28T17:17:52.000Z", "epv": 21.203, "lat": 33.753088955, "lon": -84.628440026, "eps": 10.31, "climb": 0.042, "alt": 289.192, "ept": 0.005, "class": "TPV", "speed": 0.636}], "sky": [{"tdop": 2.87, "device": "/dev/ttyUSB0", "ydop": 1.37, "hdop": 0.8, "xdop": 1.06, "pdop": 4.07, "time": "2018-07-28T17:17:51.000Z", "gdop": 4.99, "satellites": [{"az": 235, "PRN": 2, "ss": 40, "used": true, "el": 28}, {"az": 34, "PRN": 17, "ss": 36, "used": true, "el": 56}, {"az": 135, "PRN": 28, "ss": 35, "used": true, "el": 42}, {"az": 253, "PRN": 6, "ss": 43, "used": true, "el": 73}, {"az": 340, "PRN": 19, "ss": 38, "used": true, "el": 59}, {"az": 54, "PRN": 3, "ss": 32, "used": true, "el": 23}, {"az": 289, "PRN": 24, "ss": 32, "used": true, "el": 21}, {"az": 318, "PRN": 12, "ss": 28, "used": true, "el": 12}, {"az": 39, "PRN": 22, "ss": 18, "used": true, "el": 7}, {"az": 216, "PRN": 138, "ss": 44, "used": true, "el": 43}], "class": "SKY", "vdop": 3.69}], "active": 1, "gst": [{"device": "/dev/ttyUSB0", "lat": 0.0, "rms": 0.0, "minor": 0.0, "orient": 0.0, "time": "1970-01-01T00:00:00.000Z", "major": 0.0, "class": "GST", "alt": 0.0, "lon": 0.0}], "time": "2018-04-09T02:19:25.035Z", "class": "POLL"}
{"tpv": [{"track": 151.2554, "epc": 42.41, "device": "/dev/ttyUSB0", "epx": 3.96, "epy": 5.154, "mode": 3, "time": "2018-07-28T17:17:57.000Z", "epv": 21.203, "lat": 33.753083968, "lon": -84.628441036, "eps": 10.31, "climb": 0.106, "alt": 290.02, "ept": 0.005, "class": "TPV", "speed": 0.938}], "sky": [{"tdop": 2.87, "device": "/dev/ttyUSB0", "ydop": 1.37, "hdop": 0.8, "xdop": 1.06, "pdop": 4.07, "time": "2018-07-28T17:17:57.000Z", "gdop": 4.99, "satellites": [{"az": 235, "PRN": 2, "ss": 35, "used": true, "el": 28}, {"az": 34, "PRN": 17, "ss": 38, "used": true, "el": 56}, {"az": 135, "PRN": 28, "ss": 31, "used": true, "el": 42}, {"az": 253, "PRN": 6, "ss": 42, "used": true, "el": 73}, {"az": 340, "PRN": 19, "ss": 32, "used": true, "el": 59}, {"az": 54, "PRN": 3, "ss": 31, "used": true, "el": 23}, {"az": 289, "PRN": 24, "ss": 40, "used": true, "el": 21}, {"az": 318, "PRN": 12, "ss": 29, "used": true, "el": 12}, {"az": 39, "PRN": 22, "ss": 19, "used": true, "el": 7}, {"az": 216, "PRN": 138, "ss": 46, "used": true, "el": 43}], "class": "SKY", "vdop": 3.69}], "active": 1, "gst": [{"device": "/dev/ttyUSB0", "lat": 0.0, "rms": 0.0, "minor": 0.0, "orient": 0.0, "time": "1970-01-01T00:00:00.000Z", "major": 0.0, "class": "GST", "alt": 0.0, "lon": 0.0}], "time": "2018-04-09T02:19:30.066Z", "class": "POLL"}
{"tpv": [{"track": 159.6288, "epc": 42.41, "device": "/dev/ttyUSB0", "epx": 3.96, "epy": 5.154, "mode": 3, "time": "2018-07-28T17:18:02.000Z", "epv": 21.203, "lat": 33.753009674, "lon": -84.628402096, "eps": 10.31, "climb": -0.025, "alt": 289.753, "ept": 0.005, "class": "TPV", "speed": 1.586}], "sky": [{"tdop": 2.87, "device": "/dev/ttyUSB0", "ydop": 1.37, "hdop": 0.8, "xdop": 1.06, "pdop": 4.07, "time": "2018-07-28T17:18:00.000Z", "gdop": 4.99, "satellites": [{"az": 235, "PRN": 2, "ss": 36, "used": true, "el": 28}, {"az": 34, "PRN": 17, "ss": 37, "used": true, "el": 56}, {"az": 135, "PRN": 28, "ss": 32, "used": true, "el": 42}, {"az": 253, "PRN": 6, "ss": 39, "used": true, "el": 73}, {"az": 340, "PRN": 19, "ss": 33, "used": true, "el": 59}, {"az": 54, "PRN": 3, "ss": 31, "used": true, "el": 23}, {"az": 289, "PRN": 24, "ss": 40, "used": true, "el": 21}, {"az": 318, "PRN": 12, "ss": 29, "used": true, "el": 12}, {"az": 39, "PRN": 22, "ss": 20, "used": true, "el": 7}, {"az": 216, "PRN": 138, "ss": 46, "used": true, "el": 43}], "class": "SKY", "vdop": 3.69}], "active": 1, "gst": [{"device": "/dev/ttyUSB0", "lat": 0.0, "rms": 0.0, "minor": 0.0, "orient": 0.0, "time": "1970-01-01T00:00:00.000Z", "major": 0.0, "class": "GST", "alt": 0.0, "lon": 0.0}], "time": "2018-04-09T02:19:35.094Z", "class": "POLL"}
{"tpv": [{"track": 177.7107, "epc": 42.41, "device": "/dev/ttyUSB0", "epx": 3.96, "epy": 5.154, "mode": 3, "time": "2018-07-28T17:18:08.000Z", "epv": 21.203, "lat": 33.752914464, "lon": -84.628342676, "eps": 10.31, "climb": 0.006, "alt": 289.358, "ept": 0.005, "class": "TPV", "speed": 1.358}], "sky": [{"tdop": 2.87, "device": "/dev/ttyUSB0", "ydop": 1.37, "hdop": 0.8, "xdop": 1.06, "pdop": 4.07, "time": "2018-07-28T17:18:06.000Z", "gdop": 4.99, "satellites": [{"az": 235, "PRN": 2, "ss": 42, "used": true, "el": 28}, {"az": 34, "PRN": 17, "ss": 43, "used": true, "el": 56}, {"az": 135, "PRN": 28, "ss": 35, "used": true, "el": 42}, {"az": 253, "PRN": 6, "ss": 42, "used": true, "el": 73}, {"az": 340, "PRN": 19, "ss": 39, "used": true, "el": 59}, {"az": 54, "PRN": 3, "ss": 35, "used": true, "el": 23}, {"az": 289, "PRN": 24, "ss": 40, "used": true, "el": 21}, {"az": 318, "PRN": 12, "ss": 31, "used": true, "el": 12}, {"az": 39, "PRN": 22, "ss": 21, "used": true, "el": 7}, {"az": 216, "PRN": 138, "ss": 37, "used": true, "el": 43}], "class": "SKY", "vdop": 3.69}], "active": 1, "gst": [{"device": "/dev/ttyUSB0", "lat": 0.0, "rms": 0.0, "minor": 0.0, "orient": 0.0, "time": "1970-01-01T00:00:00.000Z", "major": 0.0, "class": "GST", "alt": 0.0, "lon": 0.0}], "time": "2018-04-09T02:19:40.125Z", "class": "POLL"}
{"tpv": [{"track": 177.0683, "epc": 42.41, "device": "/dev/ttyUSB0", "epx": 3.96, "epy": 5.154, "mode": 3, "time": "2018-07-28T17:18:13.000Z", "epv": 21.203, "lat": 33.752853122, "lon": -84.628313472, "eps": 10.31, "climb": -0.098, "alt": 288.741, "ept": 0.005, "class": "TPV", "speed": 1.289}], "sky": [{"tdop": 2.87, "device": "/dev/ttyUSB0", "ydop": 1.37, "hdop": 0.8, "xdop": 1.06, "pdop": 4.07, "time": "2018-07-28T17:18:12.000Z", "gdop": 4.99, "satellites": [{"az": 235, "PRN": 2, "ss": 36, "used": true, "el": 28}, {"az": 34, "PRN": 17, "ss": 41, "used": true, "el": 56}, {"az": 135, "PRN": 28, "ss": 36, "used": true, "el": 42}, {"az": 253, "PRN": 6, "ss": 41, "used": true, "el": 73}, {"az": 340, "PRN": 19, "ss": 41, "used": true, "el": 59}, {"az": 54, "PRN": 3, "ss": 36, "used": true, "el": 23}, {"az": 289, "PRN": 24, "ss": 32, "used": true, "el": 21}, {"az": 318, "PRN": 12, "ss": 36, "used": true, "el": 12}, {"az": 39, "PRN": 22, "ss": 21, "used": true, "el": 7}, {"az": 216, "PRN": 138, "ss": 40, "used": true, "el": 43}], "class": "SKY", "vdop": 3.69}], "active": 1, "gst": [{"device": "/dev/ttyUSB0", "lat": 0.0, "rms": 0.0, "minor": 0.0, "orient": 0.0, "time": "1970-01-01T00:00:00.000Z", "major": 0.0, "class": "GST", "alt": 0.0, "lon": 0.0}], "time": "2018-04-09T02:19:45.156Z", "class": "POLL"}
{"tpv": [{"track": 182.615, "epc": 42.41, "device": "/dev/ttyUSB0", "epx": 3.96, "epy": 5.154, "mode": 3, "time": "2018-07-28T17:18:17.000Z", "epv": 21.203, "lat": 33.752793187, "lon": -84.628316503, "eps": 10.31, "climb": -0.108, "alt": 287.891, "ept": 0.005, "class": "TPV", "speed": 1.282}], "sky": [{"tdop": 2.87, "device": "/dev/ttyUSB0", "ydop": 1.37, "hdop": 0.8, "xdop": 1.06, "pdop": 4.07, "time": "2018-07-28T17:18:15.000Z", "gdop": 4.99, "satellites": [{"az": 235, "PRN": 2, "ss": 37, "used": true, "el": 28}, {"az": 34, "PRN": 17, "ss": 42, "used": true, "el": 56}, {"az": 135, "PRN": 28, "ss": 35, "used": true, "el": 42}, {"az": 253, "PRN": 6, "ss": 42, "used": true, "el": 73}, {"az": 340, "PRN": 19, "ss": 37, "used": true, "el": 59}, {"az": 54, "PRN": 3, "ss": 35, "used": true, "el": 23}, {"az": 289, "PRN": 24, "ss": 31, "used": true, "el": 21}, {"az": 318, "PRN": 12, "ss": 36, "used": true, "el": 12}, {"az": 39, "PRN": 22, "ss": 21, "used": true, "el": 7}, {"az": 216, "PRN": 138, "ss": 34, "used": true, "el": 43}], "class": "SKY", "vdop": 3.69}], "active": 1, "gst": [{"device": "/dev/ttyUSB0", "lat": 0.0, "rms": 0.0, "minor": 0.0, "orient": 0.0, "time": "1970-01-01T00:00:00.000Z", "major": 0.0, "class": "GST", "alt": 0.0, "lon": 0.0}], "time": "2018-04-09T02:19:50.184Z", "class": "POLL"}
{"tpv": [{"track": 190.8485, "epc": 42.41, "device": "/dev/ttyUSB0", "epx": 3.96, "epy": 5.154, "mode": 3, "time": "2018-07-28T17:18:23.000Z", "epv": 21.203, "lat": 33.752727796, "lon": -84.628309799, "eps": 10.31, "climb": -0.013, "alt": 287.946, "ept": 0.005, "class": "TPV", "speed": 0.91}], "sky": [{"tdop": 2.87, "device": "/dev/ttyUSB0", "ydop": 1.37, "hdop": 0.8, "xdop": 1.06, "pdop": 4.07, "time": "2018-07-28T17:18:21.000Z", "gdop": 4.99, "satellites": [{"az": 235, "PRN": 2, "ss": 40, "used": true, "el": 28}, {"az": 34, "PRN": 17, "ss": 42, "used": true, "el": 56}, {"az": 135, "PRN": 28, "ss": 36, "used": true, "el": 42}, {"az": 253, "PRN": 6, "ss": 40, "used": true, "el": 73}, {"az": 340, "PRN": 19, "ss": 38, "used": true, "el": 59}, {"az": 54, "PRN": 3, "ss": 34, "used": true, "el": 23}, {"az": 289, "PRN": 24, "ss": 31, "used": true, "el": 21}, {"az": 318, "PRN": 12, "ss": 36, "used": true, "el": 12}, {"az": 39, "PRN": 22, "ss": 21, "used": true, "el": 7}, {"az": 216, "PRN": 138, "ss": 36, "used": true, "el": 43}], "class": "SKY", "vdop": 3.69}], "active": 1, "gst": [{"device": "/dev/ttyUSB0", "lat": 0.0, "rms": 0.0, "minor": 0.0, "orient": 0.0, "time": "1970-01-01T00:00:00.000Z", "major": 0.0, "class": "GST", "alt": 0.0, "lon": 0.0}], "time": "2018-04-09T02:19:55.214Z", "class": "POLL"}
{"tpv": [{"track": 193.4218, "epc": 42.41, "device": "/dev/ttyUSB0", "epx": 3.96, "epy": 5.154, "mode": 3, "time": "2018-07-28T17:18:28.000Z", "epv": 21.203, "lat": 33.752678334, "lon": -84.628324586, "eps": 10.31, "climb": -0.024, "alt": 288.957, "ept": 0.005, "class": "TPV", "speed": 1.375}], "sky": [{"tdop": 2.87, "device": "/dev/ttyUSB0", "ydop": 1.37, "hdop": 0.8, "xdop": 1.06, "pdop": 4.07, "time": "2018-07-28T17:18:27.000Z", "gdop": 4.99, "satellites": [{"az": 237, "PRN": 2, "ss": 39, "used": true, "el": 29}, {"az": 36, "PRN": 17, "ss": 42, "used": true, "el": 56}, {"az": 135, "PRN": 28, "ss": 36, "used": true, "el": 41}, {"az": 258, "PRN": 6, "ss": 35, "used": true, "el": 74}, {"az": 343, "PRN": 19, "ss": 37, "used": true, "el": 59}, {"az": 52, "PRN": 3, "ss": 34, "used": true, "el": 23}, {"az": 289, "PRN": 24, "ss": 30, "used": true, "el": 21}, {"az": 318, "PRN": 12, "ss": 31, "used": true, "el": 13}, {"az": 39, "PRN": 22, "ss": 21, "used": true, "el": 6}, {"az": 216, "PRN": 138, "ss": 41, "used": true, "el": 43}], "class": "SKY", "vdop": 3.69}], "active": 1, "gst": [{"device": "/dev/ttyUSB0", "lat": 0.0, "rms": 0.0, "minor": 0.0, "orient": 0.0, "time": "1970-01-01T00:00:00.000Z", "major": 0.0, "class": "GST", "alt": 0.0, "lon": 0.0}], "time": "2018-04-09T02:20:00.244Z", "class": "POLL"}
{"tpv": [{"track": 136.3541, "epc": 42.41, "device": "/dev/ttyUSB0", "epx": 3.96, "epy": 5.154, "mode": 3, "time": "2018-07-28T17:18:32.000Z", "epv": 21.203, "lat": 33.752598889, "lon": -84.628339372, "eps": 10.31, "climb": -0.038, "alt": 287.746, "ept": 0.005, "class": "TPV", "speed": 1.211}], "sky": [{"tdop": 2.87, "device": "/dev/ttyUSB0", "ydop": 1.37, "hdop": 0.8, "xdop": 1.06, "pdop": 4.07, "time": "2018-07-28T17:18:30.000Z", "gdop": 4.99, "satellites": [{"az": 237, "PRN": 2, "ss": 40, "used": true, "el": 29}, {"az": 36, "PRN": 17, "ss": 42, "used": true, "el": 56}, {"az": 135, "PRN": 28, "ss": 36, "used": true, "el": 41}, {"az": 258, "PRN": 6, "ss": 43, "used": true, "el": 74}, {"az": 343, "PRN": 19, "ss": 39, "used": true, "el": 59}, {"az": 52, "PRN": 3, "ss": 34, "used": true, "el": 23}, {"az": 289, "PRN": 24, "ss": 30, "used": true, "el": 21}, {"az": 318, "PRN": 12, "ss": 31, "used": true, "el": 13}, {"az": 39, "PRN": 22, "ss": 21, "used": true, "el": 6}, {"az": 216, "PRN": 138, "ss": 42, "used": true, "el": 43}], "class": "SKY", "vdop": 3.69}], "active": 1, "gst": [{"device": "/dev/ttyUSB0", "lat": 0.0, "rms": 0.0, "minor": 0.0, "orient": 0.0, "time": "1970-01-01T00:00:00.000Z", "major": 0.0, "class": "GST", "alt": 0.0, "lon": 0.0}], "time": "2018-04-09T02:20:05.275Z", "class": "POLL"}
{"tpv": [{"track": 92.9906, "epc": 42.41, "device": "/dev/ttyUSB0", "epx": 3.96, "epy": 5.154, "mode": 3, "time": "2018-07-28T17:18:38.000Z", "epv": 21.203, "lat": 33.752574995, "lon": -84.628307137, "eps": 10.31, "climb": 0.019, "alt": 286.312, "ept": 0.005, "class": "TPV", "speed": 0.249}], "sky": [{"tdop": 2.87, "device": "/dev/ttyUSB0", "ydop": 1.37, "hdop": 0.8, "xdop": 1.06, "pdop": 4.07, "time": "2018-07-28T17:18:36.000Z", "gdop": 4.99, "satellites": [{"az": 237, "PRN": 2, "ss": 42, "used": true, "el": 29}, {"az": 36, "PRN": 17, "ss": 36, "used": true, "el": 56}, {"az": 135, "PRN": 28, "ss": 38, "used": true, "el": 41}, {"az": 258, "PRN": 6, "ss": 42, "used": true, "el": 74}, {"az": 343, "PRN": 19, "ss": 38, "used": true, "el": 59}, {"az": 52, "PRN": 3, "ss": 31, "used": true, "el": 23}, {"az": 289, "PRN": 24, "ss": 39, "used": true, "el": 21}, {"az": 318, "PRN": 12, "ss": 32, "used": true, "el": 13}, {"az": 39, "PRN": 22, "ss": 21, "used": true, "el": 6}, {"az": 216, "PRN": 138, "ss": 44, "used": true, "el": 43}], "class": "SKY", "vdop": 3.69}], "active": 1, "gst": [{"device": "/dev/ttyUSB0", "lat": 0.0, "rms": 0.0, "minor": 0.0, "orient": 0.0, "time": "1970-01-01T00:00:00.000Z", "major": 0.0, "class": "GST", "alt": 0.0, "lon": 0.0}], "time": "2018-04-09T02:20:10.305Z", "class": "POLL"}
{"tpv": [{"track": 23.5242, "epc": 42.41, "device": "/dev/ttyUSB0", "epx": 3.96, "epy": 5.154, "mode": 3, "time": "2018-07-28T17:18:43.000Z", "epv": 21.203, "lat": 33.752562981, "lon": -84.628318892, "eps": 10.31, "climb": -0.058, "alt": 286.507, "ept": 0.005, "class": "TPV", "speed": 0.37}], "sky": [{"tdop": 2.87, "device": "/dev/ttyUSB0", "ydop": 1.37, "hdop": 0.8, "xdop": 1.06, "pdop": 4.07, "time": "2018-07-28T17:18:42.000Z", "gdop": 4.99, "satellites": [{"az": 237, "PRN": 2, "ss": 42, "used": true, "el": 29}, {"az": 36, "PRN": 17, "ss": 39, "used": true, "el": 56}, {"az": 135, "PRN": 28, "ss": 34, "used": true, "el": 41}, {"az": 258, "PRN": 6, "ss": 46, "used": true, "el": 74}, {"az": 343, "PRN": 19, "ss": 40, "used": true, "el": 59}, {"az": 52, "PRN": 3, "ss": 29, "used": true, "el": 23}, {"az": 289, "PRN": 24, "ss": 37, "used": true, "el": 21}, {"az": 318, "PRN": 12, "ss": 30, "used": true, "el": 13}, {"az": 39, "PRN": 22, "ss": 19, "used": true, "el": 6}, {"az": 216, "PRN": 138, "ss": 42, "used": true, "el": 43}], "class": "SKY", "vdop": 3.69}], "active": 1, "gst": [{"device": "/dev/ttyUSB0", "lat": 0.0, "rms": 0.0, "minor": 0.0, "orient": 0.0, "time": "1970-01-01T00:00:00.000Z", "major": 0.0, "class": "GST", "alt": 0.0, "lon": 0.0}], "time": "2018-04-09T02:20:15.332Z", "class": "POLL"}
{"tpv": [{"track": 0.0, "epc": 42.41, "device": "/dev/ttyUSB0", "epx": 3.96, "epy": 5.154, "mode": 3, "time": "2018-07-28T17:18:47.000Z", "epv": 21.203, "lat": 33.752574995, "lon": -84.628307137, "eps": 10.31, "climb": 0.0, "alt": 286.312, "ept": 0.005, "class": "TPV", "speed": 0.0}], "sky": [{"tdop": 2.87, "device": "/dev/ttyUSB0", "ydop": 1.37, "hdop": 0.8, "xdop": 1.06, "pdop": 4.07, "time": "2018-07-28T17:18:45.000Z", "gdop": 4.99, "satellites": [{"az": 237, "PRN": 2, "ss": 42, "used": true, "el": 29}, {"az": 36, "PRN": 17, "ss": 40, "used": true, "el": 56}, {"az": 135, "PRN": 28, "ss": 39, "used": true, "el": 41}, {"az": 258, "PRN": 6, "ss": 45, "used": true, "el": 74}, {"az": 343, "PRN": 19, "ss": 41, "used": true, "el": 59}, {"az": 52, "PRN": 3, "ss": 31, "used": true, "el": 23}, {"az": 289, "PRN": 24, "ss": 37, "used": true, "el": 21}, {"az": 318, "PRN": 12, "ss": 31, "used": true, "el": 13}, {"az": 39, "PRN": 22, "ss": 20, "used": true, "el": 6}, {"az": 216, "PRN": 138, "ss": 37, "used": true, "el": 43}], "class": "SKY", "vdop": 3.69}], "active": 1, "gst": [{"device": "/dev/ttyUSB0", "lat": 0.0, "rms": 0.0, "minor": 0.0, "orient": 0.0, "time": "1970-01-01T00:00:00.000Z", "major": 0.0, "class": "GST", "alt": 0.0, "lon": 0.0}], "time": "2018-04-09T02:20:20.357Z", "class": "POLL"}
{"tpv": [{"track": 292.8715, "epc": 42.41, "device": "/dev/ttyUSB0", "epx": 3.96, "epy": 5.154, "mode": 3, "time": "2018-07-28T17:18:53.000Z", "epv": 21.203, "lat": 33.752571884, "lon": -84.628351128, "eps": 10.31, "climb": -0.096, "alt": 286.829, "ept": 0.005, "class": "TPV", "speed": 1.325}], "sky": [{"tdop": 2.87, "device": "/dev/ttyUSB0", "ydop": 1.37, "hdop": 0.8, "xdop": 1.06, "pdop": 4.07, "time": "2018-07-28T17:18:51.000Z", "gdop": 4.99, "satellites": [{"az": 237, "PRN": 2, "ss": 46, "used": true, "el": 29}, {"az": 36, "PRN": 17, "ss": 34, "used": true, "el": 56}, {"az": 135, "PRN": 28, "ss": 40, "used": true, "el": 41}, {"az": 258, "PRN": 6, "ss": 45, "used": true, "el": 74}, {"az": 343, "PRN": 19, "ss": 39, "used": true, "el": 59}, {"az": 52, "PRN": 3, "ss": 31, "used": true, "el": 23}, {"az": 289, "PRN": 24, "ss": 30, "used": true, "el": 21}, {"az": 318, "PRN": 12, "ss": 28, "used": true, "el": 13}, {"az": 39, "PRN": 22, "ss": 20, "used": true, "el": 6}, {"az": 216, "PRN": 138, "ss": 40, "used": true, "el": 43}], "class": "SKY", "vdop": 3.69}], "active": 1, "gst": [{"device": "/dev/ttyUSB0", "lat": 0.0, "rms": 0.0, "minor": 0.0, "orient": 0.0, "time": "1970-01-01T00:00:00.000Z", "major": 0.0, "class": "GST", "alt": 0.0, "lon": 0.0}], "time": "2018-04-09T02:20:25.389Z", "class": "POLL"}
{"tpv": [{"track": 256.242, "epc": 42.41, "device": "/dev/ttyUSB0", "epx": 3.96, "epy": 5.154, "mode": 3, "time": "2018-07-28T17:18:58.000Z", "epv": 21.203, "lat": 33.752552241, "lon": -84.628418631, "eps": 10.31, "climb": 0.064, "alt": 288.29, "ept": 0.005, "class": "TPV", "speed": 1.446}], "sky": [{"tdop": 2.87, "device": "/dev/ttyUSB0", "ydop": 1.37, "hdop": 0.8, "xdop": 1.06, "pdop": 4.07, "time": "2018-07-28T17:18:57.000Z", "gdop": 4.99, "satellites": [{"az": 237, "PRN": 2, "ss": 36, "used": true, "el": 29}, {"az": 36, "PRN": 17, "ss": 42, "used": true, "el": 56}, {"az": 136, "PRN": 28, "ss": 44, "used": true, "el": 41}, {"az": 258, "PRN": 6, "ss": 44, "used": true, "el": 74}, {"az": 343, "PRN": 19, "ss": 38, "used": true, "el": 59}, {"az": 52, "PRN": 3, "ss": 32, "used": true, "el": 23}, {"az": 288, "PRN": 24, "ss": 28, "used": true, "el": 21}, {"az": 318, "PRN": 12, "ss": 29, "used": true, "el": 14}, {"az": 39, "PRN": 22, "ss": 20, "used": true, "el": 6}, {"az": 216, "PRN": 138, "ss": 40, "used": true, "el": 43}], "class": "SKY", "vdop": 3.69}], "active": 1, "gst": [{"device": "/dev/ttyUSB0", "lat": 0.0, "rms": 0.0, "minor": 0.0, "orient": 0.0, "time": "1970-01-01T00:00:00.000Z", "major": 0.0, "class": "GST", "alt": 0.0, "lon": 0.0}], "time": "2018-04-09T02:20:30.414Z", "class": "POLL"}
{"tpv": [{"track": 260.6954, "epc": 42.41, "device": "/dev/ttyUSB0", "epx": 3.96, "epy": 5.154, "mode": 3, "time": "2018-07-28T17:19:02.000Z", "epv": 21.203, "lat": 33.752555687, "lon": -84.628441132, "eps": 10.31, "climb": 0.158, "alt": 289.517, "ept": 0.005, "class": "TPV", "speed": 0.654}], "sky": [{"tdop": 2.87, "device": "/dev/ttyUSB0", "ydop": 1.37, "hdop": 0.8, "xdop": 1.06, "pdop": 4.07, "time": "2018-07-28T17:19:00.000Z", "gdop": 4.99, "satellites": [{"az": 237, "PRN": 2, "ss": 28, "used": true, "el": 29}, {"az": 36, "PRN": 17, "ss": 41, "used": true, "el": 56}, {"az": 136, "PRN": 28, "ss": 45, "used": true, "el": 41}, {"az": 258, "PRN": 6, "ss": 44, "used": true, "el": 74}, {"az": 343, "PRN": 19, "ss": 44, "used": true, "el": 59}, {"az": 52, "PRN": 3, "ss": 32, "used": true, "el": 23}, {"az": 288, "PRN": 24, "ss": 28, "used": true, "el": 21}, {"az": 318, "PRN": 12, "ss": 28, "used": true, "el": 14}, {"az": 39, "PRN": 22, "ss": 20, "used": true, "el": 6}, {"az": 216, "PRN": 138, "ss": 32, "used": true, "el": 43}], "class": "SKY", "vdop": 3.69}], "active": 1, "gst": [{"device": "/dev/ttyUSB0", "lat": 0.0, "rms": 0.0, "minor": 0.0, "orient": 0.0, "time": "1970-01-01T00:00:00.000Z", "major": 0.0, "class": "GST", "alt": 0.0, "lon": 0.0}], "time": "2018-04-09T02:20:35.440Z", "class": "POLL"}
{"tpv": [{"track": 167.5209, "epc": 42.41, "device": "/dev/ttyUSB0", "epx": 3.96, "epy": 5.154, "mode": 3, "time": "2018-07-28T17:19:08.000Z", "epv": 21.203, "lat": 33.752549762, "lon": -84.628420651, "eps": 10.31, "climb": 0.008, "alt": 290.501, "ept": 0.005, "class": "TPV", "speed": 0.468}], "sky": [{"tdop": 2.87, "device": "/dev/ttyUSB0", "ydop": 1.37, "hdop": 0.8, "xdop": 1.06, "pdop": 4.07, "time": "2018-07-28T17:19:06.000Z", "gdop": 4.99, "satellites": [{"az": 237, "PRN": 2, "ss": 24, "used": true, "el": 29}, {"az": 36, "PRN": 17, "ss": 35, "used": true, "el": 56}, {"az": 136, "PRN": 28, "ss": 31, "used": true, "el": 41}, {"az": 258, "PRN": 6, "ss": 28, "used": true, "el": 74}, {"az": 343, "PRN": 19, "ss": 26, "used": true, "el": 59}, {"az": 52, "PRN": 3, "ss": 29, "used": true, "el": 23}, {"az": 288, "PRN": 24, "ss": 23, "used": true, "el": 21}, {"az": 318, "PRN": 12, "ss": 22, "used": true, "el": 14}, {"az": 39, "PRN": 22, "ss": 19, "used": true, "el": 6}, {"az": 216, "PRN": 138, "ss": 24, "used": true, "el": 43}], "class": "SKY", "vdop": 3.69}], "active": 1, "gst": [{"device": "/dev/ttyUSB0", "lat": 0.0, "rms": 0.0, "minor": 0.0, "orient": 0.0, "time": "1970-01-01T00:00:00.000Z", "major": 0.0, "class": "GST", "alt": 0.0, "lon": 0.0}], "time": "2018-04-09T02:20:40.470Z", "class": "POLL"}
{"tpv": [{"track": 39.2614, "epc": 42.41, "device": "/dev/ttyUSB0", "epx": 3.96, "epy": 5.154, "mode": 3, "time": "2018-07-28T17:19:13.000Z", "epv": 21.203, "lat": 33.752549293, "lon": -84.628409906, "eps": 10.31, "climb": -0.024, "alt": 290.579, "ept": 0.005, "class": "TPV", "speed": 0.215}], "sky": [{"tdop": 2.87, "device": "/dev/ttyUSB0", "ydop": 1.37, "hdop": 1.0, "xdop": 1.06, "pdop": 4.07, "time": "2018-07-28T17:19:12.000Z", "gdop": 4.99, "satellites": [{"az": 237, "PRN": 2, "ss": 20, "used": true, "el": 29}, {"az": 36, "PRN": 17, "ss": 27, "used": true, "el": 56}, {"az": 136, "PRN": 28, "ss": 24, "used": true, "el": 41}, {"az": 258, "PRN": 6, "ss": 21, "used": true, "el": 74}, {"az": 343, "PRN": 19, "ss": 16, "used": true, "el": 59}, {"az": 52, "PRN": 3, "ss": 22, "used": true, "el": 23}, {"az": 288, "PRN": 24, "ss": 7, "used": true, "el": 21}, {"az": 318, "PRN": 12, "ss": 4, "used": false, "el": 14}, {"az": 39, "PRN": 22, "ss": 4, "used": false, "el": 6}, {"az": 216, "PRN": 138, "ss": 22, "used": true, "el": 43}], "class": "SKY", "vdop": 3.69}], "active": 1, "gst": [{"device": "/dev/ttyUSB0", "lat": 0.0, "rms": 0.0, "minor": 0.0, "orient": 0.0, "time": "1970-01-01T00:00:00.000Z", "major": 0.0, "class": "GST", "alt": 0.0, "lon": 0.0}], "time": "2018-04-09T02:20:45.544Z", "class": "POLL"}
{"tpv": [{"track": 73.8991, "epc": 106.02, "device": "/dev/ttyUSB0", "epx": 15.841, "epy": 20.616, "mode": 3, "time": "2018-07-28T17:19:17.000Z", "epv": 84.813, "lat": 33.752560838, "lon": -84.628387405, "eps": 25.77, "climb": 0.005, "alt": 290.462, "ept": 0.005, "class": "TPV", "speed": 0.53}], "sky": [{"tdop": 2.87, "device": "/dev/ttyUSB0", "ydop": 1.37, "hdop": 1.0, "xdop": 1.06, "pdop": 4.07, "time": "2018-07-28T17:19:15.000Z", "gdop": 4.99, "satellites": [{"az": 237, "PRN": 2, "ss": 20, "used": true, "el": 29}, {"az": 36, "PRN": 17, "ss": 26, "used": true, "el": 56}, {"az": 136, "PRN": 28, "ss": 23, "used": true, "el": 41}, {"az": 258, "PRN": 6, "ss": 6, "used": false, "el": 74}, {"az": 343, "PRN": 19, "ss": 16, "used": true, "el": 59}, {"az": 52, "PRN": 3, "ss": 21, "used": true, "el": 23}, {"az": 288, "PRN": 24, "ss": 13, "used": true, "el": 21}, {"az": 318, "PRN": 12, "ss": 4, "used": false, "el": 14}, {"az": 39, "PRN": 22, "ss": 4, "used": false, "el": 6}, {"az": 216, "PRN": 138, "ss": 0, "used": false, "el": 43}], "class": "SKY", "vdop": 3.69}], "active": 1, "gst": [{"device": "/dev/ttyUSB0", "lat": 0.0, "rms": 0.0, "minor": 0.0, "orient": 0.0, "time": "1970-01-01T00:00:00.000Z", "major": 0.0, "class": "GST", "alt": 0.0, "lon": 0.0}], "time": "2018-04-09T02:20:50.569Z", "class": "POLL"}
{"tpv": [{"track": 92.9906, "epc": 169.63, "device": "/dev/ttyUSB0", "epx": 15.841, "epy": 20.616, "mode": 3, "time": "2018-07-28T17:19:23.000Z", "epv": 84.813, "lat": 33.752551936, "lon": -84.628355169, "eps": 41.23, "climb": 0.019, "alt": 290.14, "ept": 0.005, "class": "TPV", "speed": 0.249}], "sky": [{"tdop": 2.87, "device": "/dev/ttyUSB0", "ydop": 1.37, "hdop": 1.0, "xdop": 1.06, "pdop": 4.07, "time": "2018-07-28T17:19:21.000Z", "gdop": 4.99, "satellites": [{"az": 237, "PRN": 2, "ss": 12, "used": true, "el": 29}, {"az": 36, "PRN": 17, "ss": 20, "used": true, "el": 56}, {"az": 136, "PRN": 28, "ss": 18, "used": true, "el": 41}, {"az": 259, "PRN": 6, "ss": 11, "used": true, "el": 74}, {"az": 343, "PRN": 19, "ss": 4, "used": false, "el": 59}, {"az": 52, "PRN": 3, "ss": 9, "used": false, "el": 23}, {"az": 288, "PRN": 24, "ss": 12, "used": true, "el": 21}, {"az": 318, "PRN": 12, "ss": 4, "used": false, "el": 14}, {"az": 37, "PRN": 22, "ss": 11, "used": false, "el": 6}, {"az": 216, "PRN": 138, "ss": 0, "used": false, "el": 43}], "class": "SKY", "vdop": 3.69}], "active": 1, "gst": [{"device": "/dev/ttyUSB0", "lat": 0.0, "rms": 0.0, "minor": 0.0, "orient": 0.0, "time": "1970-01-01T00:00:00.000Z", "major": 0.0, "class": "GST", "alt": 0.0, "lon": 0.0}], "time": "2018-04-09T02:20:55.600Z", "class": "POLL"}
{"tpv": [{"track": 124.1046, "epc": 169.63, "device": "/dev/ttyUSB0", "epx": 15.841, "epy": 20.616, "mode": 3, "time": "2018-07-28T17:19:28.000Z", "epv": 84.813, "lat": 33.752543033, "lon": -84.628322934, "eps": 41.23, "climb": -0.056, "alt": 289.818, "ept": 0.005, "class": "TPV", "speed": 0.737}], "sky": [{"tdop": 2.87, "device": "/dev/ttyUSB0", "ydop": 1.37, "hdop": 1.0, "xdop": 1.06, "pdop": 4.07, "time": "2018-07-28T17:19:27.000Z", "gdop": 4.99, "satellites": [{"az": 237, "PRN": 2, "ss": 10, "used": true, "el": 29}, {"az": 36, "PRN": 17, "ss": 19, "used": true, "el": 56}, {"az": 136, "PRN": 28, "ss": 17, "used": true, "el": 41}, {"az": 259, "PRN": 6, "ss": 10, "used": true, "el": 74}, {"az": 343, "PRN": 19, "ss": 12, "used": true, "el": 59}, {"az": 52, "PRN": 3, "ss": 12, "used": true, "el": 23}, {"az": 288, "PRN": 24, "ss": 12, "used": true, "el": 21}, {"az": 318, "PRN": 12, "ss": 4, "used": false, "el": 14}, {"az": 37, "PRN": 22, "ss": 4, "used": false, "el": 6}, {"az": 216, "PRN": 138, "ss": 0, "used": false, "el": 43}], "class": "SKY", "vdop": 3.69}], "active": 1, "gst": [{"device": "/dev/ttyUSB0", "lat": 0.0, "rms": 0.0, "minor": 0.0, "orient": 0.0, "time": "1970-01-01T00:00:00.000Z", "major": 0.0, "class": "GST", "alt": 0.0, "lon": 0.0}], "time": "2018-04-09T02:21:00.625Z", "class": "POLL"}
{"tpv": [{"track": 77.8425, "epc": 169.63, "device": "/dev/ttyUSB0", "epx": 15.841, "epy": 20.616, "mode": 3, "time": "2018-07-28T17:19:33.000Z", "epv": 84.813, "lat": 33.7525346, "lon": -84.628301443, "eps": 41.23, "climb": -0.084, "alt": 289.418, "ept": 0.005, "class": "TPV", "speed": 0.267}], "sky": [{"tdop": 2.87, "device": "/dev/ttyUSB0", "ydop": 1.37, "hdop": 1.0, "xdop": 1.06, "pdop": 4.07, "time": "2018-07-28T17:19:33.000Z", "gdop": 4.99, "satellites": [{"az": 237, "PRN": 2, "ss": 20, "used": true, "el": 29}, {"az": 36, "PRN": 17, "ss": 32, "used": true, "el": 56}, {"az": 136, "PRN": 28, "ss": 27, "used": true, "el": 41}, {"az": 259, "PRN": 6, "ss": 24, "used": true, "el": 74}, {"az": 343, "PRN": 19, "ss": 22, "used": true, "el": 59}, {"az": 52, "PRN": 3, "ss": 25, "used": true, "el": 23}, {"az": 288, "PRN": 24, "ss": 18, "used": true, "el": 21}, {"az": 318, "PRN": 12, "ss": 22, "used": true, "el": 14}, {"az": 37, "PRN": 22, "ss": 0, "used": false, "el": 6}, {"az": 216, "PRN": 138, "ss": 0, "used": false, "el": 43}], "class": "SKY", "vdop": 3.69}], "active": 1, "gst": [{"device": "/dev/ttyUSB0", "lat": 0.0, "rms": 0.0, "minor": 0.0, "orient": 0.0, "time": "1970-01-01T00:00:00.000Z", "major": 0.0, "class": "GST", "alt": 0.0, "lon": 0.0}], "time": "2018-04-09T02:21:05.652Z", "class": "POLL"}
{"tpv": [{"track": 140.7203, "epc": 169.63, "device": "/dev/ttyUSB0", "epx": 15.841, "epy": 20.616, "mode": 3, "time": "2018-07-28T17:19:38.000Z", "epv": 84.813, "lat": 33.752524759, "lon": -84.628247717, "eps": 41.23, "climb": -0.016, "alt": 289.252, "ept": 0.005, "class": "TPV", "speed": 0.375}], "sky": [{"tdop": 2.87, "device": "/dev/ttyUSB0", "ydop": 1.37, "hdop": 1.0, "xdop": 1.06, "pdop": 4.07, "time": "2018-07-28T17:19:36.000Z", "gdop": 4.99, "satellites": [{"az": 237, "PRN": 2, "ss": 23, "used": true, "el": 29}, {"az": 36, "PRN": 17, "ss": 34, "used": true, "el": 56}, {"az": 136, "PRN": 28, "ss": 37, "used": true, "el": 41}, {"az": 259, "PRN": 6, "ss": 25, "used": true, "el": 74}, {"az": 343, "PRN": 19, "ss": 24, "used": true, "el": 59}, {"az": 52, "PRN": 3, "ss": 34, "used": true, "el": 23}, {"az": 288, "PRN": 24, "ss": 24, "used": true, "el": 21}, {"az": 318, "PRN": 12, "ss": 24, "used": true, "el": 14}, {"az": 37, "PRN": 22, "ss": 0, "used": false, "el": 6}, {"az": 216, "PRN": 138, "ss": 0, "used": false, "el": 43}], "class": "SKY", "vdop": 3.69}], "active": 1, "gst": [{"device": "/dev/ttyUSB0", "lat": 0.0, "rms": 0.0, "minor": 0.0, "orient": 0.0, "time": "1970-01-01T00:00:00.000Z", "major": 0.0, "class": "GST", "alt": 0.0, "lon": 0.0}], "time": "2018-04-09T02:21:10.682Z", "class": "POLL"}
{"tpv": [{"track": 0.0, "epc": 169.63, "device": "/dev/ttyUSB0", "epx": 15.841, "epy": 20.616, "mode": 3, "time": "2018-07-28T17:19:43.000Z", "epv": 84.813, "lat": 33.752536304, "lon": -84.628225216, "eps": 41.23, "climb": 0.0, "alt": 289.135, "ept": 0.005, "class": "TPV", "speed": 0.0}], "sky": [{"tdop": 2.87, "device": "/dev/ttyUSB0", "ydop": 1.37, "hdop": 0.8, "xdop": 1.06, "pdop": 4.07, "time": "2018-07-28T17:19:42.000Z", "gdop": 4.99, "satellites": [{"az": 237, "PRN": 2, "ss": 22, "used": true, "el": 29}, {"az": 36, "PRN": 17, "ss": 35, "used": true, "el": 56}, {"az": 136, "PRN": 28, "ss": 46, "used": true, "el": 41}, {"az": 259, "PRN": 6, "ss": 26, "used": true, "el": 74}, {"az": 343, "PRN": 19, "ss": 29, "used": true, "el": 59}, {"az": 52, "PRN": 3, "ss": 25, "used": true, "el": 23}, {"az": 288, "PRN": 24, "ss": 7, "used": true, "el": 21}, {"az": 318, "PRN": 12, "ss": 24, "used": true, "el": 14}, {"az": 37, "PRN": 22, "ss": 14, "used": true, "el": 6}, {"az": 216, "PRN": 138, "ss": 25, "used": true, "el": 43}], "class": "SKY", "vdop": 3.69}], "active": 1, "gst": [{"device": "/dev/ttyUSB0", "lat": 0.0, "rms": 0.0, "minor": 0.0, "orient": 0.0, "time": "1970-01-01T00:00:00.000Z", "major": 0.0, "class": "GST", "alt": 0.0, "lon": 0.0}], "time": "2018-04-09T02:21:15.708Z", "class": "POLL"}
