{"tpv": [{"alt": 324.723, "epx": 7.399, "eps": 21.05, "speed": 0.0, "mode": 3, "epv": 25.145, "epc": 50.29, "ept": 0.005, "device": "/dev/ttyUSB0", "class": "TPV", "time": "2018-10-07T14:26:28.000Z", "climb": 0.0, "track": 0.0, "lon": -84.434272753, "epy": 10.523, "lat": 33.887280063}], "sky": [{"device": "/dev/ttyUSB0", "gdop": 1.52, "vdop": 1.09, "class": "SKY", "time": "2018-10-07T14:26:26.000Z", "satellites": [{"el": 49, "used": true, "az": 37, "PRN": 6, "ss": 40}, {"el": 54, "used": true, "az": 285, "PRN": 12, "ss": 46}, {"el": 26, "used": true, "az": 105, "PRN": 17, "ss": 34}, {"el": 49, "used": true, "az": 88, "PRN": 19, "ss": 28}, {"el": 60, "used": true, "az": 306, "PRN": 2, "ss": 30}, {"el": 35, "used": true, "az": 199, "PRN": 5, "ss": 38}, {"el": 13, "used": true, "az": 72, "PRN": 9, "ss": 18}, {"el": 5, "used": true, "az": 49, "PRN": 23, "ss": 18}, {"el": 2, "used": true, "az": 238, "PRN": 24, "ss": 12}, {"el": 21, "used": true, "az": 315, "PRN": 25, "ss": 29}, {"el": 36, "used": false, "az": 270, "PRN": 4, "ss": 10}, {"el": 43, "used": true, "az": 216, "PRN": 138, "ss": 32}], "tdop": 0.63, "hdop": 1.0, "xdop": 0.49, "ydop": 0.7, "pdop": 1.39}], "class": "POLL", "time": "2018-04-09T04:17:28.312Z", "active": 1, "gst": [{"device": "/dev/ttyUSB0", "alt": 0.0, "class": "GST", "time": "1970-01-01T00:00:00.000Z", "minor": 0.0, "lat": 0.0, "orient": 0.0, "major": 0.0, "lon": 0.0, "rms": 0.0}]}
{"tpv": [{"alt": 340.696, "epx": 7.399, "eps": 21.05, "speed": 0.109, "mode": 3, "epv": 25.145, "epc": 50.29, "ept": 0.005, "device": "/dev/ttyUSB0", "class": "TPV", "time": "2018-10-07T14:26:34.000Z", "climb": 0.286, "track": 112.6151, "lon": -84.434218411, "epy": 10.523, "lat": 33.887161628}], "sky": [{"device": "/dev/ttyUSB0", "gdop": 1.52, "vdop": 1.09, "class": "SKY", "time": "2018-10-07T14:26:35.000Z", "satellites": [{"el": 60, "used": true, "az": 306, "PRN": 2, "ss": 36}, {"el": 36, "used": true, "az": 199, "PRN": 5, "ss": 40}, {"el": 49, "used": true, "az": 37, "PRN": 6, "ss": 42}, {"el": 13, "used": true, "az": 72, "PRN": 9, "ss": 31}, {"el": 55, "used": true, "az": 285, "PRN": 12, "ss": 48}, {"el": 49, "used": true, "az": 88, "PRN": 19, "ss": 30}, {"el": 26, "used": true, "az": 105, "PRN": 17, "ss": 28}, {"el": 21, "used": true, "az": 315, "PRN": 25, "ss": 31}, {"el": 5, "used": false, "az": 49, "PRN": 23, "ss": 0}, {"el": 36, "used": false, "az": 270, "PRN": 4, "ss": 0}, {"el": 2, "used": false, "az": 238, "PRN": 24, "ss": 0}, {"el": 43, "used": true, "az": 216, "PRN": 138, "ss": 24}], "tdop": 0.63, "hdop": 1.0, "xdop": 0.49, "ydop": 0.7, "pdop": 1.39}], "class": "POLL", "time": "2018-04-09T04:17:33.433Z", "active": 1, "gst": [{"device": "/dev/ttyUSB0", "alt": 0.0, "class": "GST", "time": "1970-01-01T00:00:00.000Z", "minor": 0.0, "lat": 0.0, "orient": 0.0, "major": 0.0, "lon": 0.0, "rms": 0.0}]}
{"tpv": [{"alt": 348.125, "epx": 7.399, "eps": 21.05, "speed": 0.11, "mode": 3, "epv": 25.145, "epc": 50.29, "ept": 0.005, "device": "/dev/ttyUSB0", "class": "TPV", "time": "2018-10-07T14:26:40.000Z", "climb": 0.38, "track": 199.219, "lon": -84.434192426, "epy": 10.523, "lat": 33.887160084}], "sky": [{"device": "/dev/ttyUSB0", "gdop": 1.52, "vdop": 1.09, "class": "SKY", "time": "2018-10-07T14:26:38.000Z", "satellites": [{"el": 60, "used": true, "az": 306, "PRN": 2, "ss": 25}, {"el": 36, "used": true, "az": 199, "PRN": 5, "ss": 26}, {"el": 49, "used": true, "az": 37, "PRN": 6, "ss": 29}, {"el": 13, "used": true, "az": 72, "PRN": 9, "ss": 17}, {"el": 55, "used": true, "az": 285, "PRN": 12, "ss": 33}, {"el": 49, "used": true, "az": 88, "PRN": 19, "ss": 21}, {"el": 26, "used": true, "az": 105, "PRN": 17, "ss": 19}, {"el": 21, "used": true, "az": 315, "PRN": 25, "ss": 8}, {"el": 2, "used": false, "az": 238, "PRN": 24, "ss": 9}, {"el": 5, "used": false, "az": 49, "PRN": 23, "ss": 0}, {"el": 36, "used": false, "az": 270, "PRN": 4, "ss": 0}, {"el": 43, "used": false, "az": 216, "PRN": 138, "ss": 0}], "tdop": 0.63, "hdop": 1.0, "xdop": 0.49, "ydop": 0.7, "pdop": 1.39}], "class": "POLL", "time": "2018-04-09T04:17:38.467Z", "active": 1, "gst": [{"device": "/dev/ttyUSB0", "alt": 0.0, "class": "GST", "time": "1970-01-01T00:00:00.000Z", "minor": 0.0, "lat": 0.0, "orient": 0.0, "major": 0.0, "lon": 0.0, "rms": 0.0}]}
{"tpv": [{"alt": 350.973, "epx": 7.399, "eps": 21.05, "speed": 0.0, "mode": 3, "epv": 25.145, "epc": 50.29, "ept": 0.005, "device": "/dev/ttyUSB0", "class": "TPV", "time": "2018-10-07T14:26:45.000Z", "climb": 0.0, "track": 0.0, "lon": -84.434183764, "epy": 10.523, "lat": 33.887164559}], "sky": [{"device": "/dev/ttyUSB0", "gdop": 1.52, "vdop": 1.09, "class": "SKY", "time": "2018-10-07T14:26:44.000Z", "satellites": [{"el": 60, "used": true, "az": 306, "PRN": 2, "ss": 31}, {"el": 36, "used": true, "az": 199, "PRN": 5, "ss": 35}, {"el": 49, "used": true, "az": 37, "PRN": 6, "ss": 28}, {"el": 13, "used": true, "az": 72, "PRN": 9, "ss": 16}, {"el": 55, "used": true, "az": 285, "PRN": 12, "ss": 37}, {"el": 49, "used": true, "az": 88, "PRN": 19, "ss": 24}, {"el": 26, "used": true, "az": 105, "PRN": 17, "ss": 21}, {"el": 21, "used": true, "az": 315, "PRN": 25, "ss": 18}, {"el": 5, "used": false, "az": 49, "PRN": 23, "ss": 0}, {"el": 36, "used": false, "az": 270, "PRN": 4, "ss": 0}, {"el": 2, "used": false, "az": 238, "PRN": 24, "ss": 0}, {"el": 43, "used": false, "az": 216, "PRN": 138, "ss": 0}], "tdop": 0.63, "hdop": 1.0, "xdop": 0.49, "ydop": 0.7, "pdop": 1.39}], "class": "POLL", "time": "2018-04-09T04:17:43.493Z", "active": 1, "gst": [{"device": "/dev/ttyUSB0", "alt": 0.0, "class": "GST", "time": "1970-01-01T00:00:00.000Z", "minor": 0.0, "lat": 0.0, "orient": 0.0, "major": 0.0, "lon": 0.0, "rms": 0.0}]}
{"tpv": [{"alt": 352.088, "epx": 7.399, "eps": 21.05, "speed": 0.212, "mode": 3, "epv": 25.145, "epc": 50.29, "ept": 0.005, "device": "/dev/ttyUSB0", "class": "TPV", "time": "2018-10-07T14:26:50.000Z", "climb": -0.044, "track": 328.0281, "lon": -84.434183764, "epy": 10.523, "lat": 33.887179526}], "sky": [{"device": "/dev/ttyUSB0", "gdop": 1.52, "vdop": 1.09, "class": "SKY", "time": "2018-10-07T14:26:50.000Z", "satellites": [{"el": 60, "used": true, "az": 306, "PRN": 2, "ss": 32}, {"el": 36, "used": true, "az": 199, "PRN": 5, "ss": 35}, {"el": 49, "used": true, "az": 37, "PRN": 6, "ss": 33}, {"el": 13, "used": true, "az": 72, "PRN": 9, "ss": 16}, {"el": 55, "used": true, "az": 285, "PRN": 12, "ss": 36}, {"el": 49, "used": true, "az": 88, "PRN": 19, "ss": 23}, {"el": 26, "used": true, "az": 105, "PRN": 17, "ss": 20}, {"el": 21, "used": true, "az": 315, "PRN": 25, "ss": 18}, {"el": 5, "used": false, "az": 49, "PRN": 23, "ss": 0}, {"el": 36, "used": false, "az": 270, "PRN": 4, "ss": 0}, {"el": 2, "used": false, "az": 238, "PRN": 24, "ss": 0}, {"el": 43, "used": false, "az": 216, "PRN": 138, "ss": 0}], "tdop": 0.63, "hdop": 1.0, "xdop": 0.49, "ydop": 0.7, "pdop": 1.39}], "class": "POLL", "time": "2018-04-09T04:17:48.522Z", "active": 1, "gst": [{"device": "/dev/ttyUSB0", "alt": 0.0, "class": "GST", "time": "1970-01-01T00:00:00.000Z", "minor": 0.0, "lat": 0.0, "orient": 0.0, "major": 0.0, "lon": 0.0, "rms": 0.0}]}
{"tpv": [{"alt": 351.262, "epx": 7.399, "eps": 21.05, "speed": 0.305, "mode": 3, "epv": 25.145, "epc": 50.29, "ept": 0.005, "device": "/dev/ttyUSB0", "class": "TPV", "time": "2018-10-07T14:26:55.000Z", "climb": 0.026, "track": 338.4038, "lon": -84.434182716, "epy": 10.523, "lat": 33.887184529}], "sky": [{"device": "/dev/ttyUSB0", "gdop": 1.52, "vdop": 1.09, "class": "SKY", "time": "2018-10-07T14:26:53.000Z", "satellites": [{"el": 60, "used": true, "az": 306, "PRN": 2, "ss": 38}, {"el": 36, "used": true, "az": 199, "PRN": 5, "ss": 35}, {"el": 49, "used": true, "az": 37, "PRN": 6, "ss": 34}, {"el": 13, "used": true, "az": 72, "PRN": 9, "ss": 15}, {"el": 55, "used": true, "az": 285, "PRN": 12, "ss": 33}, {"el": 49, "used": true, "az": 88, "PRN": 19, "ss": 28}, {"el": 26, "used": true, "az": 105, "PRN": 17, "ss": 28}, {"el": 21, "used": true, "az": 315, "PRN": 25, "ss": 20}, {"el": 5, "used": false, "az": 49, "PRN": 23, "ss": 0}, {"el": 36, "used": false, "az": 270, "PRN": 4, "ss": 0}, {"el": 2, "used": false, "az": 238, "PRN": 24, "ss": 0}, {"el": 43, "used": false, "az": 216, "PRN": 138, "ss": 0}], "tdop": 0.63, "hdop": 1.0, "xdop": 0.49, "ydop": 0.7, "pdop": 1.39}], "class": "POLL", "time": "2018-04-09T04:17:53.553Z", "active": 1, "gst": [{"device": "/dev/ttyUSB0", "alt": 0.0, "class": "GST", "time": "1970-01-01T00:00:00.000Z", "minor": 0.0, "lat": 0.0, "orient": 0.0, "major": 0.0, "lon": 0.0, "rms": 0.0}]}
{"tpv": [{"alt": 350.356, "epx": 7.399, "eps": 21.05, "speed": 0.0, "mode": 3, "epv": 25.145, "epc": 50.29, "ept": 0.005, "device": "/dev/ttyUSB0", "class": "TPV", "time": "2018-10-07T14:27:00.000Z", "climb": 0.0, "track": 0.0, "lon": -84.434192426, "epy": 10.523, "lat": 33.887190019}], "sky": [{"device": "/dev/ttyUSB0", "gdop": 1.52, "vdop": 1.09, "class": "SKY", "time": "2018-10-07T14:26:59.000Z", "satellites": [{"el": 60, "used": true, "az": 306, "PRN": 2, "ss": 27}, {"el": 36, "used": true, "az": 199, "PRN": 5, "ss": 36}, {"el": 49, "used": true, "az": 37, "PRN": 6, "ss": 42}, {"el": 13, "used": true, "az": 72, "PRN": 9, "ss": 25}, {"el": 55, "used": true, "az": 285, "PRN": 12, "ss": 37}, {"el": 49, "used": true, "az": 88, "PRN": 19, "ss": 34}, {"el": 26, "used": true, "az": 105, "PRN": 17, "ss": 35}, {"el": 21, "used": true, "az": 315, "PRN": 25, "ss": 27}, {"el": 5, "used": true, "az": 49, "PRN": 23, "ss": 16}, {"el": 36, "used": false, "az": 270, "PRN": 4, "ss": 0}, {"el": 2, "used": false, "az": 238, "PRN": 24, "ss": 0}, {"el": 43, "used": false, "az": 216, "PRN": 138, "ss": 0}], "tdop": 0.63, "hdop": 1.0, "xdop": 0.49, "ydop": 0.7, "pdop": 1.39}], "class": "POLL", "time": "2018-04-09T04:17:58.579Z", "active": 1, "gst": [{"device": "/dev/ttyUSB0", "alt": 0.0, "class": "GST", "time": "1970-01-01T00:00:00.000Z", "minor": 0.0, "lat": 0.0, "orient": 0.0, "major": 0.0, "lon": 0.0, "rms": 0.0}]}
{"tpv": [{"alt": 349.529, "epx": 7.399, "eps": 21.05, "speed": 0.0, "mode": 3, "epv": 25.145, "epc": 50.29, "ept": 0.005, "device": "/dev/ttyUSB0", "class": "TPV", "time": "2018-10-07T14:27:05.000Z", "climb": 0.0, "track": 0.0, "lon": -84.434191378, "epy": 10.523, "lat": 33.887195022}], "sky": [{"device": "/dev/ttyUSB0", "gdop": 1.52, "vdop": 1.09, "class": "SKY", "time": "2018-10-07T14:27:05.000Z", "satellites": [{"el": 60, "used": true, "az": 306, "PRN": 2, "ss": 31}, {"el": 36, "used": true, "az": 199, "PRN": 5, "ss": 37}, {"el": 49, "used": true, "az": 37, "PRN": 6, "ss": 43}, {"el": 13, "used": true, "az": 72, "PRN": 9, "ss": 25}, {"el": 55, "used": true, "az": 285, "PRN": 12, "ss": 38}, {"el": 49, "used": true, "az": 88, "PRN": 19, "ss": 33}, {"el": 26, "used": true, "az": 105, "PRN": 17, "ss": 36}, {"el": 21, "used": true, "az": 315, "PRN": 25, "ss": 27}, {"el": 5, "used": true, "az": 49, "PRN": 23, "ss": 15}, {"el": 36, "used": false, "az": 270, "PRN": 4, "ss": 0}, {"el": 2, "used": false, "az": 238, "PRN": 24, "ss": 0}, {"el": 43, "used": false, "az": 216, "PRN": 138, "ss": 0}], "tdop": 0.63, "hdop": 1.0, "xdop": 0.49, "ydop": 0.7, "pdop": 1.39}], "class": "POLL", "time": "2018-04-09T04:18:03.603Z", "active": 1, "gst": [{"device": "/dev/ttyUSB0", "alt": 0.0, "class": "GST", "time": "1970-01-01T00:00:00.000Z", "minor": 0.0, "lat": 0.0, "orient": 0.0, "major": 0.0, "lon": 0.0, "rms": 0.0}]}
{"tpv": [{"alt": 348.623, "epx": 7.399, "eps": 21.05, "speed": 0.0, "mode": 3, "epv": 25.145, "epc": 50.29, "ept": 0.005, "device": "/dev/ttyUSB0", "class": "TPV", "time": "2018-10-07T14:27:10.000Z", "climb": 0.0, "track": 0.0, "lon": -84.434201088, "epy": 10.523, "lat": 33.887200512}], "sky": [{"device": "/dev/ttyUSB0", "gdop": 1.52, "vdop": 1.09, "class": "SKY", "time": "2018-10-07T14:27:08.000Z", "satellites": [{"el": 60, "used": true, "az": 306, "PRN": 2, "ss": 33}, {"el": 36, "used": true, "az": 199, "PRN": 5, "ss": 37}, {"el": 49, "used": true, "az": 37, "PRN": 6, "ss": 43}, {"el": 13, "used": true, "az": 72, "PRN": 9, "ss": 24}, {"el": 55, "used": true, "az": 285, "PRN": 12, "ss": 38}, {"el": 49, "used": true, "az": 88, "PRN": 19, "ss": 32}, {"el": 26, "used": true, "az": 105, "PRN": 17, "ss": 36}, {"el": 21, "used": true, "az": 315, "PRN": 25, "ss": 22}, {"el": 5, "used": true, "az": 49, "PRN": 23, "ss": 15}, {"el": 36, "used": false, "az": 270, "PRN": 4, "ss": 0}, {"el": 2, "used": false, "az": 238, "PRN": 24, "ss": 0}, {"el": 43, "used": false, "az": 216, "PRN": 138, "ss": 0}], "tdop": 0.63, "hdop": 1.0, "xdop": 0.49, "ydop": 0.7, "pdop": 1.39}], "class": "POLL", "time": "2018-04-09T04:18:08.631Z", "active": 1, "gst": [{"device": "/dev/ttyUSB0", "alt": 0.0, "class": "GST", "time": "1970-01-01T00:00:00.000Z", "minor": 0.0, "lat": 0.0, "orient": 0.0, "major": 0.0, "lon": 0.0, "rms": 0.0}]}
{"tpv": [{"alt": 347.239, "epx": 7.399, "eps": 21.05, "speed": 0.0, "mode": 3, "epv": 25.145, "epc": 50.29, "ept": 0.005, "device": "/dev/ttyUSB0", "class": "TPV", "time": "2018-10-07T14:27:15.000Z", "climb": 0.0, "track": 0.0, "lon": -84.434200039, "epy": 10.523, "lat": 33.887198031}], "sky": [{"device": "/dev/ttyUSB0", "gdop": 1.52, "vdop": 1.09, "class": "SKY", "time": "2018-10-07T14:27:14.000Z", "satellites": [{"el": 60, "used": true, "az": 306, "PRN": 2, "ss": 33}, {"el": 36, "used": true, "az": 199, "PRN": 5, "ss": 38}, {"el": 49, "used": true, "az": 37, "PRN": 6, "ss": 37}, {"el": 13, "used": true, "az": 72, "PRN": 9, "ss": 26}, {"el": 55, "used": true, "az": 285, "PRN": 12, "ss": 35}, {"el": 49, "used": true, "az": 88, "PRN": 19, "ss": 32}, {"el": 26, "used": true, "az": 105, "PRN": 17, "ss": 30}, {"el": 21, "used": true, "az": 315, "PRN": 25, "ss": 29}, {"el": 5, "used": true, "az": 49, "PRN": 23, "ss": 18}, {"el": 2, "used": false, "az": 238, "PRN": 24, "ss": 1}, {"el": 36, "used": false, "az": 270, "PRN": 4, "ss": 0}, {"el": 43, "used": false, "az": 216, "PRN": 138, "ss": 0}], "tdop": 0.63, "hdop": 1.0, "xdop": 0.49, "ydop": 0.7, "pdop": 1.39}], "class": "POLL", "time": "2018-04-09T04:18:13.657Z", "active": 1, "gst": [{"device": "/dev/ttyUSB0", "alt": 0.0, "class": "GST", "time": "1970-01-01T00:00:00.000Z", "minor": 0.0, "lat": 0.0, "orient": 0.0, "major": 0.0, "lon": 0.0, "rms": 0.0}]}
{"tpv": [{"alt": 345.217, "epx": 7.399, "eps": 21.05, "speed": 0.277, "mode": 3, "epv": 25.145, "epc": 50.29, "ept": 0.005, "device": "/dev/ttyUSB0", "class": "TPV", "time": "2018-10-07T14:27:20.000Z", "climb": -0.036, "track": 182.507, "lon": -84.434209749, "epy": 10.523, "lat": 33.887188554}], "sky": [{"device": "/dev/ttyUSB0", "gdop": 1.52, "vdop": 1.09, "class": "SKY", "time": "2018-10-07T14:27:20.000Z", "satellites": [{"el": 60, "used": true, "az": 306, "PRN": 2, "ss": 40}, {"el": 36, "used": true, "az": 199, "PRN": 5, "ss": 41}, {"el": 49, "used": true, "az": 37, "PRN": 6, "ss": 39}, {"el": 13, "used": true, "az": 72, "PRN": 9, "ss": 29}, {"el": 55, "used": true, "az": 285, "PRN": 12, "ss": 40}, {"el": 49, "used": true, "az": 88, "PRN": 19, "ss": 30}, {"el": 26, "used": true, "az": 105, "PRN": 17, "ss": 29}, {"el": 21, "used": true, "az": 315, "PRN": 25, "ss": 24}, {"el": 5, "used": true, "az": 49, "PRN": 23, "ss": 18}, {"el": 2, "used": true, "az": 238, "PRN": 24, "ss": 15}, {"el": 36, "used": false, "az": 270, "PRN": 4, "ss": 0}, {"el": 43, "used": true, "az": 216, "PRN": 138, "ss": 32}], "tdop": 0.63, "hdop": 1.0, "xdop": 0.49, "ydop": 0.7, "pdop": 1.39}], "class": "POLL", "time": "2018-04-09T04:18:18.684Z", "active": 1, "gst": [{"device": "/dev/ttyUSB0", "alt": 0.0, "class": "GST", "time": "1970-01-01T00:00:00.000Z", "minor": 0.0, "lat": 0.0, "orient": 0.0, "major": 0.0, "lon": 0.0, "rms": 0.0}]}
{"tpv": [{"alt": 342.926, "epx": 7.399, "eps": 21.05, "speed": 0.174, "mode": 3, "epv": 25.145, "epc": 50.29, "ept": 0.005, "device": "/dev/ttyUSB0", "class": "TPV", "time": "2018-10-07T14:27:25.000Z", "climb": 0.034, "track": 184.0056, "lon": -84.434218411, "epy": 10.523, "lat": 33.887191563}], "sky": [{"device": "/dev/ttyUSB0", "gdop": 1.52, "vdop": 1.09, "class": "SKY", "time": "2018-10-07T14:27:23.000Z", "satellites": [{"el": 60, "used": true, "az": 306, "PRN": 2, "ss": 35}, {"el": 36, "used": true, "az": 199, "PRN": 5, "ss": 34}, {"el": 49, "used": true, "az": 37, "PRN": 6, "ss": 35}, {"el": 13, "used": true, "az": 72, "PRN": 9, "ss": 31}, {"el": 55, "used": true, "az": 285, "PRN": 12, "ss": 30}, {"el": 49, "used": true, "az": 88, "PRN": 19, "ss": 22}, {"el": 26, "used": true, "az": 105, "PRN": 17, "ss": 26}, {"el": 21, "used": true, "az": 315, "PRN": 25, "ss": 26}, {"el": 5, "used": true, "az": 49, "PRN": 23, "ss": 23}, {"el": 2, "used": true, "az": 238, "PRN": 24, "ss": 14}, {"el": 36, "used": false, "az": 270, "PRN": 4, "ss": 0}, {"el": 43, "used": true, "az": 216, "PRN": 138, "ss": 29}], "tdop": 0.63, "hdop": 1.0, "xdop": 0.49, "ydop": 0.7, "pdop": 1.39}], "class": "POLL", "time": "2018-04-09T04:18:23.709Z", "active": 1, "gst": [{"device": "/dev/ttyUSB0", "alt": 0.0, "class": "GST", "time": "1970-01-01T00:00:00.000Z", "minor": 0.0, "lat": 0.0, "orient": 0.0, "major": 0.0, "lon": 0.0, "rms": 0.0}]}
{"tpv": [{"alt": 338.695, "epx": 7.399, "eps": 21.05, "speed": 0.15, "mode": 3, "epv": 25.145, "epc": 50.29, "ept": 0.005, "device": "/dev/ttyUSB0", "class": "TPV", "time": "2018-10-07T14:27:30.000Z", "climb": -0.093, "track": 65.3665, "lon": -84.434226024, "epy": 10.523, "lat": 33.887184608}], "sky": [{"device": "/dev/ttyUSB0", "gdop": 1.52, "vdop": 1.09, "class": "SKY", "time": "2018-10-07T14:27:29.000Z", "satellites": [{"el": 60, "used": true, "az": 306, "PRN": 2, "ss": 39}, {"el": 36, "used": true, "az": 199, "PRN": 5, "ss": 46}, {"el": 49, "used": true, "az": 37, "PRN": 6, "ss": 38}, {"el": 13, "used": true, "az": 72, "PRN": 9, "ss": 30}, {"el": 55, "used": true, "az": 285, "PRN": 12, "ss": 41}, {"el": 49, "used": true, "az": 88, "PRN": 19, "ss": 43}, {"el": 26, "used": true, "az": 105, "PRN": 17, "ss": 34}, {"el": 21, "used": true, "az": 315, "PRN": 25, "ss": 28}, {"el": 5, "used": true, "az": 49, "PRN": 23, "ss": 31}, {"el": 2, "used": true, "az": 238, "PRN": 24, "ss": 23}, {"el": 36, "used": false, "az": 270, "PRN": 4, "ss": 0}, {"el": 43, "used": true, "az": 216, "PRN": 138, "ss": 39}], "tdop": 0.63, "hdop": 1.0, "xdop": 0.49, "ydop": 0.7, "pdop": 1.39}], "class": "POLL", "time": "2018-04-09T04:18:28.735Z", "active": 1, "gst": [{"device": "/dev/ttyUSB0", "alt": 0.0, "class": "GST", "time": "1970-01-01T00:00:00.000Z", "minor": 0.0, "lat": 0.0, "orient": 0.0, "major": 0.0, "lon": 0.0, "rms": 0.0}]}
{"tpv": [{"alt": 335.369, "epx": 7.399, "eps": 21.05, "speed": 0.468, "mode": 3, "epv": 25.145, "epc": 50.29, "ept": 0.005, "device": "/dev/ttyUSB0", "class": "TPV", "time": "2018-10-07T14:27:35.000Z", "climb": 0.008, "track": 167.6322, "lon": -84.434223928, "epy": 10.523, "lat": 33.887172162}], "sky": [{"device": "/dev/ttyUSB0", "gdop": 1.52, "vdop": 1.09, "class": "SKY", "time": "2018-10-07T14:27:35.000Z", "satellites": [{"el": 60, "used": true, "az": 306, "PRN": 2, "ss": 40}, {"el": 36, "used": true, "az": 199, "PRN": 5, "ss": 45}, {"el": 49, "used": true, "az": 37, "PRN": 6, "ss": 39}, {"el": 13, "used": true, "az": 72, "PRN": 9, "ss": 31}, {"el": 55, "used": true, "az": 285, "PRN": 12, "ss": 41}, {"el": 49, "used": true, "az": 88, "PRN": 19, "ss": 37}, {"el": 26, "used": true, "az": 105, "PRN": 17, "ss": 38}, {"el": 21, "used": true, "az": 315, "PRN": 25, "ss": 35}, {"el": 5, "used": true, "az": 49, "PRN": 23, "ss": 21}, {"el": 2, "used": true, "az": 238, "PRN": 24, "ss": 22}, {"el": 36, "used": false, "az": 270, "PRN": 4, "ss": 0}, {"el": 25, "used": true, "az": 243, "PRN": 135, "ss": 38}], "tdop": 0.63, "hdop": 1.0, "xdop": 0.49, "ydop": 0.7, "pdop": 1.39}], "class": "POLL", "time": "2018-04-09T04:18:33.761Z", "active": 1, "gst": [{"device": "/dev/ttyUSB0", "alt": 0.0, "class": "GST", "time": "1970-01-01T00:00:00.000Z", "minor": 0.0, "lat": 0.0, "orient": 0.0, "major": 0.0, "lon": 0.0, "rms": 0.0}]}
{"tpv": [{"alt": 322.164, "epx": 1.85, "eps": 13.15, "speed": 0.174, "mode": 3, "epv": 6.286, "epc": 31.43, "ept": 0.005, "epd": 78.0724, "device": "/dev/ttyUSB0", "class": "TPV", "time": "2018-10-07T14:27:40.000Z", "climb": 0.034, "track": 184.0055, "lon": -84.434277995, "epy": 2.631, "lat": 33.887165244}], "sky": [{"device": "/dev/ttyUSB0", "gdop": 1.52, "vdop": 1.09, "class": "SKY", "time": "2018-10-07T14:27:38.000Z", "satellites": [{"el": 60, "used": true, "az": 306, "PRN": 2, "ss": 42}, {"el": 36, "used": true, "az": 199, "PRN": 5, "ss": 43}, {"el": 49, "used": true, "az": 37, "PRN": 6, "ss": 39}, {"el": 13, "used": true, "az": 72, "PRN": 9, "ss": 31}, {"el": 55, "used": true, "az": 285, "PRN": 12, "ss": 43}, {"el": 49, "used": true, "az": 88, "PRN": 19, "ss": 26}, {"el": 26, "used": true, "az": 105, "PRN": 17, "ss": 37}, {"el": 21, "used": true, "az": 315, "PRN": 25, "ss": 35}, {"el": 5, "used": true, "az": 49, "PRN": 23, "ss": 23}, {"el": 2, "used": true, "az": 238, "PRN": 24, "ss": 22}, {"el": 36, "used": false, "az": 270, "PRN": 4, "ss": 0}, {"el": 25, "used": true, "az": 243, "PRN": 135, "ss": 37}], "tdop": 0.63, "hdop": 1.0, "xdop": 0.49, "ydop": 0.7, "pdop": 1.39}], "class": "POLL", "time": "2018-04-09T04:18:38.787Z", "active": 1, "gst": [{"device": "/dev/ttyUSB0", "alt": 0.0, "class": "GST", "time": "1970-01-01T00:00:00.000Z", "minor": 0.0, "lat": 0.0, "orient": 0.0, "major": 0.0, "lon": 0.0, "rms": 0.0}]}
{"tpv": [{"alt": 321.814, "epx": 1.85, "eps": 5.26, "speed": 0.0, "mode": 3, "epv": 6.286, "epc": 12.57, "ept": 0.005, "device": "/dev/ttyUSB0", "class": "TPV", "time": "2018-10-07T14:27:45.000Z", "climb": 0.0, "track": 0.0, "lon": -84.434287705, "epy": 2.631, "lat": 33.887178218}], "sky": [{"device": "/dev/ttyUSB0", "gdop": 1.52, "vdop": 1.09, "class": "SKY", "time": "2018-10-07T14:27:44.000Z", "satellites": [{"el": 60, "used": true, "az": 306, "PRN": 2, "ss": 43}, {"el": 36, "used": true, "az": 199, "PRN": 5, "ss": 48}, {"el": 49, "used": true, "az": 37, "PRN": 6, "ss": 15}, {"el": 13, "used": true, "az": 72, "PRN": 9, "ss": 27}, {"el": 55, "used": true, "az": 285, "PRN": 12, "ss": 43}, {"el": 49, "used": true, "az": 88, "PRN": 19, "ss": 34}, {"el": 26, "used": true, "az": 105, "PRN": 17, "ss": 34}, {"el": 21, "used": true, "az": 315, "PRN": 25, "ss": 38}, {"el": 5, "used": true, "az": 49, "PRN": 23, "ss": 21}, {"el": 2, "used": true, "az": 238, "PRN": 24, "ss": 10}, {"el": 36, "used": false, "az": 270, "PRN": 4, "ss": 0}, {"el": 25, "used": true, "az": 243, "PRN": 135, "ss": 41}], "tdop": 0.63, "hdop": 1.0, "xdop": 0.49, "ydop": 0.7, "pdop": 1.39}], "class": "POLL", "time": "2018-04-09T04:18:43.814Z", "active": 1, "gst": [{"device": "/dev/ttyUSB0", "alt": 0.0, "class": "GST", "time": "1970-01-01T00:00:00.000Z", "minor": 0.0, "lat": 0.0, "orient": 0.0, "major": 0.0, "lon": 0.0, "rms": 0.0}]}
{"tpv": [{"alt": 321.149, "epx": 1.85, "eps": 5.26, "speed": 0.215, "mode": 3, "epv": 6.286, "epc": 12.57, "ept": 0.005, "device": "/dev/ttyUSB0", "class": "TPV", "time": "2018-10-07T14:27:50.000Z", "climb": -0.024, "track": 39.3739, "lon": -84.43426514, "epy": 2.631, "lat": 33.887182246}], "sky": [{"device": "/dev/ttyUSB0", "gdop": 1.52, "vdop": 1.09, "class": "SKY", "time": "2018-10-07T14:27:50.000Z", "satellites": [{"el": 60, "used": true, "az": 306, "PRN": 2, "ss": 39}, {"el": 36, "used": true, "az": 199, "PRN": 5, "ss": 46}, {"el": 49, "used": true, "az": 37, "PRN": 6, "ss": 44}, {"el": 13, "used": true, "az": 72, "PRN": 9, "ss": 23}, {"el": 55, "used": true, "az": 285, "PRN": 12, "ss": 35}, {"el": 49, "used": true, "az": 88, "PRN": 19, "ss": 36}, {"el": 26, "used": true, "az": 105, "PRN": 17, "ss": 40}, {"el": 21, "used": true, "az": 315, "PRN": 25, "ss": 30}, {"el": 5, "used": true, "az": 49, "PRN": 23, "ss": 22}, {"el": 2, "used": true, "az": 238, "PRN": 24, "ss": 22}, {"el": 36, "used": false, "az": 270, "PRN": 4, "ss": 0}, {"el": 25, "used": true, "az": 243, "PRN": 135, "ss": 40}], "tdop": 0.63, "hdop": 1.0, "xdop": 0.49, "ydop": 0.7, "pdop": 1.39}], "class": "POLL", "time": "2018-04-09T04:18:48.839Z", "active": 1, "gst": [{"device": "/dev/ttyUSB0", "alt": 0.0, "class": "GST", "time": "1970-01-01T00:00:00.000Z", "minor": 0.0, "lat": 0.0, "orient": 0.0, "major": 0.0, "lon": 0.0, "rms": 0.0}]}
{"tpv": [{"alt": 320.881, "epx": 1.85, "eps": 5.26, "speed": 0.215, "mode": 3, "epv": 6.286, "epc": 12.57, "ept": 0.005, "device": "/dev/ttyUSB0", "class": "TPV", "time": "2018-10-07T14:27:55.000Z", "climb": 0.024, "track": 219.3739, "lon": -84.434264091, "epy": 2.631, "lat": 33.887194733}], "sky": [{"device": "/dev/ttyUSB0", "gdop": 1.52, "vdop": 1.09, "class": "SKY", "time": "2018-10-07T14:27:53.000Z", "satellites": [{"el": 60, "used": true, "az": 306, "PRN": 2, "ss": 38}, {"el": 36, "used": true, "az": 199, "PRN": 5, "ss": 42}, {"el": 49, "used": true, "az": 37, "PRN": 6, "ss": 44}, {"el": 13, "used": true, "az": 72, "PRN": 9, "ss": 28}, {"el": 55, "used": true, "az": 285, "PRN": 12, "ss": 43}, {"el": 49, "used": true, "az": 88, "PRN": 19, "ss": 36}, {"el": 26, "used": true, "az": 105, "PRN": 17, "ss": 40}, {"el": 21, "used": true, "az": 315, "PRN": 25, "ss": 29}, {"el": 5, "used": true, "az": 49, "PRN": 23, "ss": 24}, {"el": 2, "used": true, "az": 238, "PRN": 24, "ss": 17}, {"el": 36, "used": false, "az": 270, "PRN": 4, "ss": 0}, {"el": 25, "used": true, "az": 243, "PRN": 135, "ss": 32}], "tdop": 0.63, "hdop": 1.0, "xdop": 0.49, "ydop": 0.7, "pdop": 1.39}], "class": "POLL", "time": "2018-04-09T04:18:53.865Z", "active": 1, "gst": [{"device": "/dev/ttyUSB0", "alt": 0.0, "class": "GST", "time": "1970-01-01T00:00:00.000Z", "minor": 0.0, "lat": 0.0, "orient": 0.0, "major": 0.0, "lon": 0.0, "rms": 0.0}]}
{"tpv": [{"alt": 319.497, "epx": 7.399, "eps": 21.05, "speed": 0.0, "mode": 3, "epv": 25.145, "epc": 50.29, "ept": 0.005, "device": "/dev/ttyUSB0", "class": "TPV", "time": "2018-10-07T14:28:00.000Z", "climb": 0.0, "track": 0.0, "lon": -84.434263043, "epy": 10.523, "lat": 33.887192252}], "sky": [{"device": "/dev/ttyUSB0", "gdop": 1.52, "vdop": 1.09, "class": "SKY", "time": "2018-10-07T14:27:59.000Z", "satellites": [{"el": 60, "used": true, "az": 306, "PRN": 2, "ss": 40}, {"el": 36, "used": true, "az": 199, "PRN": 5, "ss": 42}, {"el": 49, "used": true, "az": 37, "PRN": 6, "ss": 38}, {"el": 13, "used": true, "az": 72, "PRN": 9, "ss": 34}, {"el": 55, "used": true, "az": 285, "PRN": 12, "ss": 34}, {"el": 49, "used": true, "az": 88, "PRN": 19, "ss": 44}, {"el": 26, "used": true, "az": 105, "PRN": 17, "ss": 34}, {"el": 5, "used": true, "az": 49, "PRN": 23, "ss": 33}, {"el": 21, "used": true, "az": 315, "PRN": 25, "ss": 31}, {"el": 2, "used": true, "az": 238, "PRN": 24, "ss": 19}, {"el": 36, "used": false, "az": 270, "PRN": 4, "ss": 0}, {"el": 37, "used": true, "az": 228, "PRN": 131, "ss": 45}], "tdop": 0.63, "hdop": 1.0, "xdop": 0.49, "ydop": 0.7, "pdop": 1.39}], "class": "POLL", "time": "2018-04-09T04:18:58.891Z", "active": 1, "gst": [{"device": "/dev/ttyUSB0", "alt": 0.0, "class": "GST", "time": "1970-01-01T00:00:00.000Z", "minor": 0.0, "lat": 0.0, "orient": 0.0, "major": 0.0, "lon": 0.0, "rms": 0.0}]}
{"tpv": [{"alt": 319.497, "epx": 7.399, "eps": 21.05, "speed": 0.306, "mode": 3, "epv": 25.145, "epc": 50.29, "ept": 0.005, "device": "/dev/ttyUSB0", "class": "TPV", "time": "2018-10-07T14:28:05.000Z", "climb": -0.013, "track": 58.5468, "lon": -84.434263043, "epy": 10.523, "lat": 33.887192252}], "sky": [{"device": "/dev/ttyUSB0", "gdop": 1.52, "vdop": 1.09, "class": "SKY", "time": "2018-10-07T14:28:05.000Z", "satellites": [{"el": 60, "used": true, "az": 306, "PRN": 2, "ss": 40}, {"el": 36, "used": true, "az": 199, "PRN": 5, "ss": 41}, {"el": 49, "used": true, "az": 37, "PRN": 6, "ss": 39}, {"el": 13, "used": true, "az": 72, "PRN": 9, "ss": 33}, {"el": 55, "used": true, "az": 285, "PRN": 12, "ss": 44}, {"el": 49, "used": true, "az": 88, "PRN": 19, "ss": 37}, {"el": 26, "used": true, "az": 105, "PRN": 17, "ss": 35}, {"el": 5, "used": true, "az": 49, "PRN": 23, "ss": 13}, {"el": 21, "used": true, "az": 315, "PRN": 25, "ss": 30}, {"el": 2, "used": true, "az": 238, "PRN": 24, "ss": 19}, {"el": 36, "used": false, "az": 270, "PRN": 4, "ss": 0}, {"el": 37, "used": true, "az": 228, "PRN": 131, "ss": 34}], "tdop": 0.63, "hdop": 1.0, "xdop": 0.49, "ydop": 0.7, "pdop": 1.39}], "class": "POLL", "time": "2018-04-09T04:19:03.921Z", "active": 1, "gst": [{"device": "/dev/ttyUSB0", "alt": 0.0, "class": "GST", "time": "1970-01-01T00:00:00.000Z", "minor": 0.0, "lat": 0.0, "orient": 0.0, "major": 0.0, "lon": 0.0, "rms": 0.0}]}
{"tpv": [{"alt": 318.328, "epx": 7.399, "eps": 21.05, "speed": 1.328, "mode": 3, "epv": 25.145, "epc": 50.29, "ept": 0.005, "device": "/dev/ttyUSB0", "class": "TPV", "time": "2018-10-07T14:28:10.000Z", "climb": 0.044, "track": 241.5977, "lon": -84.434307126, "epy": 10.523, "lat": 33.887166748}], "sky": [{"device": "/dev/ttyUSB0", "gdop": 1.52, "vdop": 1.09, "class": "SKY", "time": "2018-10-07T14:28:08.000Z", "satellites": [{"el": 60, "used": true, "az": 306, "PRN": 2, "ss": 39}, {"el": 36, "used": true, "az": 199, "PRN": 5, "ss": 42}, {"el": 49, "used": true, "az": 37, "PRN": 6, "ss": 40}, {"el": 13, "used": true, "az": 72, "PRN": 9, "ss": 34}, {"el": 55, "used": true, "az": 285, "PRN": 12, "ss": 40}, {"el": 49, "used": true, "az": 88, "PRN": 19, "ss": 36}, {"el": 26, "used": true, "az": 105, "PRN": 17, "ss": 36}, {"el": 5, "used": true, "az": 49, "PRN": 23, "ss": 26}, {"el": 21, "used": true, "az": 315, "PRN": 25, "ss": 30}, {"el": 2, "used": true, "az": 238, "PRN": 24, "ss": 19}, {"el": 36, "used": false, "az": 270, "PRN": 4, "ss": 0}, {"el": 37, "used": true, "az": 228, "PRN": 131, "ss": 33}], "tdop": 0.63, "hdop": 1.0, "xdop": 0.49, "ydop": 0.7, "pdop": 1.39}], "class": "POLL", "time": "2018-04-09T04:19:08.952Z", "active": 1, "gst": [{"device": "/dev/ttyUSB0", "alt": 0.0, "class": "GST", "time": "1970-01-01T00:00:00.000Z", "minor": 0.0, "lat": 0.0, "orient": 0.0, "major": 0.0, "lon": 0.0, "rms": 0.0}]}
{"tpv": [{"alt": 318.013, "epx": 7.399, "eps": 21.05, "speed": 1.419, "mode": 3, "epv": 25.145, "epc": 50.29, "ept": 0.005, "device": "/dev/ttyUSB0", "class": "TPV", "time": "2018-10-07T14:28:15.000Z", "climb": -0.044, "track": 258.9529, "lon": -84.434385581, "epy": 10.523, "lat": 33.887125217}], "sky": [{"device": "/dev/ttyUSB0", "gdop": 1.52, "vdop": 1.09, "class": "SKY", "time": "2018-10-07T14:28:14.000Z", "satellites": [{"el": 60, "used": true, "az": 306, "PRN": 2, "ss": 39}, {"el": 36, "used": true, "az": 199, "PRN": 5, "ss": 43}, {"el": 49, "used": true, "az": 37, "PRN": 6, "ss": 43}, {"el": 13, "used": true, "az": 72, "PRN": 9, "ss": 31}, {"el": 55, "used": true, "az": 285, "PRN": 12, "ss": 44}, {"el": 49, "used": true, "az": 88, "PRN": 19, "ss": 37}, {"el": 26, "used": true, "az": 105, "PRN": 17, "ss": 42}, {"el": 5, "used": true, "az": 49, "PRN": 23, "ss": 27}, {"el": 21, "used": true, "az": 315, "PRN": 25, "ss": 30}, {"el": 2, "used": true, "az": 238, "PRN": 24, "ss": 19}, {"el": 36, "used": false, "az": 270, "PRN": 4, "ss": 0}, {"el": 37, "used": true, "az": 228, "PRN": 131, "ss": 31}], "tdop": 0.63, "hdop": 1.0, "xdop": 0.49, "ydop": 0.7, "pdop": 1.39}], "class": "POLL", "time": "2018-04-09T04:19:13.983Z", "active": 1, "gst": [{"device": "/dev/ttyUSB0", "alt": 0.0, "class": "GST", "time": "1970-01-01T00:00:00.000Z", "minor": 0.0, "lat": 0.0, "orient": 0.0, "major": 0.0, "lon": 0.0, "rms": 0.0}]}
{"tpv": [{"alt": 316.872, "epx": 7.399, "eps": 21.05, "speed": 1.429, "mode": 3, "epv": 25.145, "epc": 50.29, "ept": 0.005, "device": "/dev/ttyUSB0", "class": "TPV", "time": "2018-10-07T14:28:20.000Z", "climb": 0.077, "track": 235.7106, "lon": -84.434462988, "epy": 10.523, "lat": 33.887088689}], "sky": [{"device": "/dev/ttyUSB0", "gdop": 1.52, "vdop": 1.09, "class": "SKY", "time": "2018-10-07T14:28:20.000Z", "satellites": [{"el": 60, "used": true, "az": 306, "PRN": 2, "ss": 40}, {"el": 36, "used": true, "az": 199, "PRN": 5, "ss": 38}, {"el": 49, "used": true, "az": 37, "PRN": 6, "ss": 43}, {"el": 13, "used": true, "az": 72, "PRN": 9, "ss": 31}, {"el": 55, "used": true, "az": 285, "PRN": 12, "ss": 42}, {"el": 49, "used": true, "az": 88, "PRN": 19, "ss": 38}, {"el": 26, "used": true, "az": 105, "PRN": 17, "ss": 40}, {"el": 5, "used": true, "az": 49, "PRN": 23, "ss": 27}, {"el": 21, "used": true, "az": 315, "PRN": 25, "ss": 30}, {"el": 2, "used": true, "az": 238, "PRN": 24, "ss": 19}, {"el": 36, "used": false, "az": 270, "PRN": 4, "ss": 0}, {"el": 37, "used": true, "az": 228, "PRN": 131, "ss": 33}], "tdop": 0.63, "hdop": 1.0, "xdop": 0.49, "ydop": 0.7, "pdop": 1.39}], "class": "POLL", "time": "2018-04-09T04:19:19.014Z", "active": 1, "gst": [{"device": "/dev/ttyUSB0", "alt": 0.0, "class": "GST", "time": "1970-01-01T00:00:00.000Z", "minor": 0.0, "lat": 0.0, "orient": 0.0, "major": 0.0, "lon": 0.0, "rms": 0.0}]}
{"tpv": [{"alt": 316.637, "epx": 7.399, "eps": 21.05, "speed": 1.358, "mode": 3, "epv": 25.145, "epc": 50.29, "ept": 0.005, "device": "/dev/ttyUSB0", "class": "TPV", "time": "2018-10-07T14:28:25.000Z", "climb": 0.0, "track": 250.5649, "lon": -84.434530684, "epy": 10.523, "lat": 33.887046671}], "sky": [{"device": "/dev/ttyUSB0", "gdop": 1.52, "vdop": 1.09, "class": "SKY", "time": "2018-10-07T14:28:23.000Z", "satellites": [{"el": 60, "used": true, "az": 306, "PRN": 2, "ss": 39}, {"el": 36, "used": true, "az": 199, "PRN": 5, "ss": 39}, {"el": 49, "used": true, "az": 37, "PRN": 6, "ss": 44}, {"el": 13, "used": true, "az": 72, "PRN": 9, "ss": 30}, {"el": 55, "used": true, "az": 285, "PRN": 12, "ss": 41}, {"el": 49, "used": true, "az": 88, "PRN": 19, "ss": 43}, {"el": 26, "used": true, "az": 105, "PRN": 17, "ss": 41}, {"el": 5, "used": true, "az": 49, "PRN": 23, "ss": 26}, {"el": 21, "used": true, "az": 315, "PRN": 25, "ss": 30}, {"el": 2, "used": true, "az": 238, "PRN": 24, "ss": 18}, {"el": 36, "used": false, "az": 270, "PRN": 4, "ss": 0}, {"el": 37, "used": true, "az": 228, "PRN": 131, "ss": 39}], "tdop": 0.63, "hdop": 1.0, "xdop": 0.49, "ydop": 0.7, "pdop": 1.39}], "class": "POLL", "time": "2018-04-09T04:19:24.045Z", "active": 1, "gst": [{"device": "/dev/ttyUSB0", "alt": 0.0, "class": "GST", "time": "1970-01-01T00:00:00.000Z", "minor": 0.0, "lat": 0.0, "orient": 0.0, "major": 0.0, "lon": 0.0, "rms": 0.0}]}
{"tpv": [{"alt": 316.026, "epx": 7.399, "eps": 21.05, "speed": 0.918, "mode": 3, "epv": 25.145, "epc": 50.29, "ept": 0.005, "device": "/dev/ttyUSB0", "class": "TPV", "time": "2018-10-07T14:28:30.000Z", "climb": 0.04, "track": 238.5466, "lon": -84.434574767, "epy": 10.523, "lat": 33.88702865}], "sky": [{"device": "/dev/ttyUSB0", "gdop": 1.52, "vdop": 1.09, "class": "SKY", "time": "2018-10-07T14:28:29.000Z", "satellites": [{"el": 60, "used": true, "az": 306, "PRN": 2, "ss": 37}, {"el": 36, "used": true, "az": 199, "PRN": 5, "ss": 46}, {"el": 49, "used": true, "az": 37, "PRN": 6, "ss": 43}, {"el": 13, "used": true, "az": 72, "PRN": 9, "ss": 31}, {"el": 55, "used": true, "az": 285, "PRN": 12, "ss": 39}, {"el": 49, "used": true, "az": 88, "PRN": 19, "ss": 35}, {"el": 26, "used": true, "az": 105, "PRN": 17, "ss": 34}, {"el": 5, "used": true, "az": 49, "PRN": 23, "ss": 25}, {"el": 21, "used": true, "az": 315, "PRN": 25, "ss": 31}, {"el": 2, "used": true, "az": 238, "PRN": 24, "ss": 17}, {"el": 36, "used": false, "az": 270, "PRN": 4, "ss": 0}, {"el": 37, "used": true, "az": 228, "PRN": 131, "ss": 30}], "tdop": 0.63, "hdop": 1.0, "xdop": 0.49, "ydop": 0.7, "pdop": 1.39}], "class": "POLL", "time": "2018-04-09T04:19:29.074Z", "active": 1, "gst": [{"device": "/dev/ttyUSB0", "alt": 0.0, "class": "GST", "time": "1970-01-01T00:00:00.000Z", "minor": 0.0, "lat": 0.0, "orient": 0.0, "major": 0.0, "lon": 0.0, "rms": 0.0}]}
{"tpv": [{"alt": 315.307, "epx": 7.399, "eps": 21.05, "speed": 0.166, "mode": 3, "epv": 25.145, "epc": 50.29, "ept": 0.005, "device": "/dev/ttyUSB0", "class": "TPV", "time": "2018-10-07T14:28:34.000Z", "climb": 0.06, "track": 311.6179, "lon": -84.434596284, "epy": 10.523, "lat": 33.887022141}], "sky": [{"device": "/dev/ttyUSB0", "gdop": 1.52, "vdop": 1.09, "class": "SKY", "time": "2018-10-07T14:28:35.000Z", "satellites": [{"el": 61, "used": true, "az": 307, "PRN": 2, "ss": 38}, {"el": 36, "used": true, "az": 199, "PRN": 5, "ss": 39}, {"el": 48, "used": true, "az": 37, "PRN": 6, "ss": 44}, {"el": 14, "used": true, "az": 70, "PRN": 9, "ss": 35}, {"el": 55, "used": true, "az": 283, "PRN": 12, "ss": 39}, {"el": 48, "used": true, "az": 90, "PRN": 19, "ss": 36}, {"el": 25, "used": true, "az": 106, "PRN": 17, "ss": 32}, {"el": 5, "used": true, "az": 48, "PRN": 23, "ss": 18}, {"el": 22, "used": true, "az": 315, "PRN": 25, "ss": 32}, {"el": 1, "used": true, "az": 238, "PRN": 24, "ss": 17}, {"el": 36, "used": false, "az": 270, "PRN": 4, "ss": 0}, {"el": 25, "used": true, "az": 243, "PRN": 135, "ss": 28}], "tdop": 0.63, "hdop": 1.0, "xdop": 0.49, "ydop": 0.7, "pdop": 1.39}], "class": "POLL", "time": "2018-04-09T04:19:34.106Z", "active": 1, "gst": [{"device": "/dev/ttyUSB0", "alt": 0.0, "class": "GST", "time": "1970-01-01T00:00:00.000Z", "minor": 0.0, "lat": 0.0, "orient": 0.0, "major": 0.0, "lon": 0.0, "rms": 0.0}]}
{"tpv": [{"alt": 315.281, "epx": 7.399, "eps": 21.05, "speed": 1.179, "mode": 3, "epv": 25.145, "epc": 50.29, "ept": 0.005, "device": "/dev/ttyUSB0", "class": "TPV", "time": "2018-10-07T14:28:40.000Z", "climb": -0.023, "track": 255.9897, "lon": -84.43467369, "epy": 10.523, "lat": 33.887000581}], "sky": [{"device": "/dev/ttyUSB0", "gdop": 1.52, "vdop": 1.09, "class": "SKY", "time": "2018-10-07T14:28:38.000Z", "satellites": [{"el": 61, "used": true, "az": 307, "PRN": 2, "ss": 37}, {"el": 36, "used": true, "az": 199, "PRN": 5, "ss": 39}, {"el": 48, "used": true, "az": 37, "PRN": 6, "ss": 43}, {"el": 14, "used": true, "az": 70, "PRN": 9, "ss": 35}, {"el": 55, "used": true, "az": 283, "PRN": 12, "ss": 39}, {"el": 48, "used": true, "az": 90, "PRN": 19, "ss": 36}, {"el": 25, "used": true, "az": 106, "PRN": 17, "ss": 35}, {"el": 5, "used": true, "az": 48, "PRN": 23, "ss": 20}, {"el": 22, "used": true, "az": 315, "PRN": 25, "ss": 32}, {"el": 1, "used": true, "az": 238, "PRN": 24, "ss": 17}, {"el": 36, "used": false, "az": 270, "PRN": 4, "ss": 0}, {"el": 25, "used": true, "az": 243, "PRN": 135, "ss": 32}], "tdop": 0.63, "hdop": 1.0, "xdop": 0.49, "ydop": 0.7, "pdop": 1.39}], "class": "POLL", "time": "2018-04-09T04:19:39.135Z", "active": 1, "gst": [{"device": "/dev/ttyUSB0", "alt": 0.0, "class": "GST", "time": "1970-01-01T00:00:00.000Z", "minor": 0.0, "lat": 0.0, "orient": 0.0, "major": 0.0, "lon": 0.0, "rms": 0.0}]}
{"tpv": [{"alt": 314.509, "epx": 7.399, "eps": 21.05, "speed": 1.286, "mode": 3, "epv": 25.145, "epc": 50.29, "ept": 0.005, "device": "/dev/ttyUSB0", "class": "TPV", "time": "2018-10-07T14:28:45.000Z", "climb": -0.06, "track": 244.0606, "lon": -84.43473929, "epy": 10.523, "lat": 33.886983535}], "sky": [{"device": "/dev/ttyUSB0", "gdop": 1.52, "vdop": 1.09, "class": "SKY", "time": "2018-10-07T14:28:44.000Z", "satellites": [{"el": 61, "used": true, "az": 307, "PRN": 2, "ss": 36}, {"el": 36, "used": true, "az": 199, "PRN": 5, "ss": 40}, {"el": 48, "used": true, "az": 37, "PRN": 6, "ss": 43}, {"el": 14, "used": true, "az": 70, "PRN": 9, "ss": 31}, {"el": 55, "used": true, "az": 283, "PRN": 12, "ss": 39}, {"el": 48, "used": true, "az": 90, "PRN": 19, "ss": 38}, {"el": 25, "used": true, "az": 106, "PRN": 17, "ss": 40}, {"el": 5, "used": true, "az": 48, "PRN": 23, "ss": 25}, {"el": 22, "used": true, "az": 315, "PRN": 25, "ss": 32}, {"el": 1, "used": true, "az": 238, "PRN": 24, "ss": 17}, {"el": 36, "used": false, "az": 270, "PRN": 4, "ss": 0}, {"el": 25, "used": true, "az": 243, "PRN": 135, "ss": 31}], "tdop": 0.63, "hdop": 1.0, "xdop": 0.49, "ydop": 0.7, "pdop": 1.39}], "class": "POLL", "time": "2018-04-09T04:19:44.166Z", "active": 1, "gst": [{"device": "/dev/ttyUSB0", "alt": 0.0, "class": "GST", "time": "1970-01-01T00:00:00.000Z", "minor": 0.0, "lat": 0.0, "orient": 0.0, "major": 0.0, "lon": 0.0, "rms": 0.0}]}
{"tpv": [{"alt": 313.717, "epx": 7.399, "eps": 21.05, "speed": 1.254, "mode": 3, "epv": 25.145, "epc": 50.29, "ept": 0.005, "device": "/dev/ttyUSB0", "class": "TPV", "time": "2018-10-07T14:28:50.000Z", "climb": -0.075, "track": 227.1525, "lon": -84.434806986, "epy": 10.523, "lat": 33.886934033}], "sky": [{"device": "/dev/ttyUSB0", "gdop": 1.52, "vdop": 1.09, "class": "SKY", "time": "2018-10-07T14:28:50.000Z", "satellites": [{"el": 61, "used": true, "az": 307, "PRN": 2, "ss": 37}, {"el": 37, "used": true, "az": 199, "PRN": 5, "ss": 39}, {"el": 48, "used": true, "az": 37, "PRN": 6, "ss": 42}, {"el": 14, "used": true, "az": 70, "PRN": 9, "ss": 30}, {"el": 55, "used": true, "az": 283, "PRN": 12, "ss": 40}, {"el": 48, "used": true, "az": 90, "PRN": 19, "ss": 39}, {"el": 25, "used": true, "az": 106, "PRN": 17, "ss": 41}, {"el": 5, "used": true, "az": 48, "PRN": 23, "ss": 23}, {"el": 22, "used": true, "az": 315, "PRN": 25, "ss": 32}, {"el": 1, "used": true, "az": 238, "PRN": 24, "ss": 19}, {"el": 36, "used": false, "az": 270, "PRN": 4, "ss": 0}, {"el": 25, "used": true, "az": 243, "PRN": 135, "ss": 34}], "tdop": 0.63, "hdop": 1.0, "xdop": 0.49, "ydop": 0.7, "pdop": 1.39}], "class": "POLL", "time": "2018-04-09T04:19:49.200Z", "active": 1, "gst": [{"device": "/dev/ttyUSB0", "alt": 0.0, "class": "GST", "time": "1970-01-01T00:00:00.000Z", "minor": 0.0, "lat": 0.0, "orient": 0.0, "major": 0.0, "lon": 0.0, "rms": 0.0}]}
{"tpv": [{"alt": 312.367, "epx": 7.399, "eps": 21.05, "speed": 1.541, "mode": 3, "epv": 25.145, "epc": 50.29, "ept": 0.005, "device": "/dev/ttyUSB0", "class": "TPV", "time": "2018-10-07T14:28:55.000Z", "climb": -0.122, "track": 223.2386, "lon": -84.434874682, "epy": 10.523, "lat": 33.886877047}], "sky": [{"device": "/dev/ttyUSB0", "gdop": 1.52, "vdop": 1.09, "class": "SKY", "time": "2018-10-07T14:28:53.000Z", "satellites": [{"el": 61, "used": true, "az": 307, "PRN": 2, "ss": 38}, {"el": 37, "used": true, "az": 199, "PRN": 5, "ss": 38}, {"el": 48, "used": true, "az": 37, "PRN": 6, "ss": 42}, {"el": 14, "used": true, "az": 70, "PRN": 9, "ss": 30}, {"el": 55, "used": true, "az": 283, "PRN": 12, "ss": 41}, {"el": 48, "used": true, "az": 90, "PRN": 19, "ss": 40}, {"el": 25, "used": true, "az": 106, "PRN": 17, "ss": 41}, {"el": 5, "used": true, "az": 48, "PRN": 23, "ss": 23}, {"el": 22, "used": true, "az": 315, "PRN": 25, "ss": 31}, {"el": 1, "used": true, "az": 238, "PRN": 24, "ss": 20}, {"el": 36, "used": false, "az": 270, "PRN": 4, "ss": 0}, {"el": 25, "used": true, "az": 243, "PRN": 135, "ss": 32}], "tdop": 0.63, "hdop": 1.0, "xdop": 0.49, "ydop": 0.7, "pdop": 1.39}], "class": "POLL", "time": "2018-04-09T04:19:54.232Z", "active": 1, "gst": [{"device": "/dev/ttyUSB0", "alt": 0.0, "class": "GST", "time": "1970-01-01T00:00:00.000Z", "minor": 0.0, "lat": 0.0, "orient": 0.0, "major": 0.0, "lon": 0.0, "rms": 0.0}]}
{"tpv": [{"alt": 310.937, "epx": 7.399, "eps": 21.05, "speed": 1.132, "mode": 3, "epv": 25.145, "epc": 50.29, "ept": 0.005, "device": "/dev/ttyUSB0", "class": "TPV", "time": "2018-10-07T14:29:00.000Z", "climb": 0.02, "track": 245.7221, "lon": -84.434953137, "epy": 10.523, "lat": 33.886820548}], "sky": [{"device": "/dev/ttyUSB0", "gdop": 1.52, "vdop": 1.09, "class": "SKY", "time": "2018-10-07T14:28:59.000Z", "satellites": [{"el": 61, "used": true, "az": 307, "PRN": 2, "ss": 39}, {"el": 37, "used": true, "az": 199, "PRN": 5, "ss": 39}, {"el": 48, "used": true, "az": 37, "PRN": 6, "ss": 42}, {"el": 14, "used": true, "az": 70, "PRN": 9, "ss": 30}, {"el": 55, "used": true, "az": 283, "PRN": 12, "ss": 40}, {"el": 48, "used": true, "az": 90, "PRN": 19, "ss": 40}, {"el": 25, "used": true, "az": 106, "PRN": 17, "ss": 41}, {"el": 5, "used": true, "az": 48, "PRN": 23, "ss": 23}, {"el": 22, "used": true, "az": 315, "PRN": 25, "ss": 32}, {"el": 1, "used": true, "az": 238, "PRN": 24, "ss": 19}, {"el": 36, "used": false, "az": 270, "PRN": 4, "ss": 0}, {"el": 8, "used": false, "az": 102, "PRN": 120, "ss": 0}], "tdop": 0.63, "hdop": 1.0, "xdop": 0.49, "ydop": 0.7, "pdop": 1.39}], "class": "POLL", "time": "2018-04-09T04:19:59.266Z", "active": 1, "gst": [{"device": "/dev/ttyUSB0", "alt": 0.0, "class": "GST", "time": "1970-01-01T00:00:00.000Z", "minor": 0.0, "lat": 0.0, "orient": 0.0, "major": 0.0, "lon": 0.0, "rms": 0.0}]}
{"tpv": [{"alt": 309.319, "epx": 7.399, "eps": 21.05, "speed": 1.311, "mode": 3, "epv": 25.145, "epc": 50.29, "ept": 0.005, "device": "/dev/ttyUSB0", "class": "TPV", "time": "2018-10-07T14:29:06.000Z", "climb": 0.028, "track": 225.2893, "lon": -84.435019785, "epy": 10.523, "lat": 33.886776048}], "sky": [{"device": "/dev/ttyUSB0", "gdop": 1.52, "vdop": 1.09, "class": "SKY", "time": "2018-10-07T14:29:05.000Z", "satellites": [{"el": 61, "used": true, "az": 307, "PRN": 2, "ss": 37}, {"el": 37, "used": true, "az": 199, "PRN": 5, "ss": 38}, {"el": 48, "used": true, "az": 37, "PRN": 6, "ss": 38}, {"el": 14, "used": true, "az": 70, "PRN": 9, "ss": 30}, {"el": 55, "used": true, "az": 283, "PRN": 12, "ss": 39}, {"el": 48, "used": true, "az": 90, "PRN": 19, "ss": 40}, {"el": 25, "used": true, "az": 106, "PRN": 17, "ss": 42}, {"el": 5, "used": true, "az": 48, "PRN": 23, "ss": 20}, {"el": 22, "used": true, "az": 315, "PRN": 25, "ss": 35}, {"el": 1, "used": true, "az": 238, "PRN": 24, "ss": 18}, {"el": 36, "used": false, "az": 270, "PRN": 4, "ss": 0}, {"el": 8, "used": false, "az": 102, "PRN": 120, "ss": 0}], "tdop": 0.63, "hdop": 1.0, "xdop": 0.49, "ydop": 0.7, "pdop": 1.39}], "class": "POLL", "time": "2018-04-09T04:20:04.298Z", "active": 1, "gst": [{"device": "/dev/ttyUSB0", "alt": 0.0, "class": "GST", "time": "1970-01-01T00:00:00.000Z", "minor": 0.0, "lat": 0.0, "orient": 0.0, "major": 0.0, "lon": 0.0, "rms": 0.0}]}
{"tpv": [{"alt": 309.245, "epx": 7.399, "eps": 21.05, "speed": 1.458, "mode": 3, "epv": 25.145, "epc": 50.29, "ept": 0.005, "device": "/dev/ttyUSB0", "class": "TPV", "time": "2018-10-07T14:29:10.000Z", "climb": 0.002, "track": 214.1917, "lon": -84.435065964, "epy": 10.523, "lat": 33.886733055}], "sky": [{"device": "/dev/ttyUSB0", "gdop": 1.52, "vdop": 1.09, "class": "SKY", "time": "2018-10-07T14:29:08.000Z", "satellites": [{"el": 61, "used": true, "az": 307, "PRN": 2, "ss": 37}, {"el": 37, "used": true, "az": 199, "PRN": 5, "ss": 38}, {"el": 48, "used": true, "az": 37, "PRN": 6, "ss": 38}, {"el": 14, "used": true, "az": 70, "PRN": 9, "ss": 30}, {"el": 55, "used": true, "az": 283, "PRN": 12, "ss": 41}, {"el": 48, "used": true, "az": 90, "PRN": 19, "ss": 39}, {"el": 25, "used": true, "az": 106, "PRN": 17, "ss": 42}, {"el": 5, "used": true, "az": 48, "PRN": 23, "ss": 19}, {"el": 22, "used": true, "az": 315, "PRN": 25, "ss": 35}, {"el": 1, "used": true, "az": 238, "PRN": 24, "ss": 18}, {"el": 36, "used": false, "az": 270, "PRN": 4, "ss": 0}, {"el": 8, "used": false, "az": 102, "PRN": 120, "ss": 0}], "tdop": 0.63, "hdop": 1.0, "xdop": 0.49, "ydop": 0.7, "pdop": 1.39}], "class": "POLL", "time": "2018-04-09T04:20:09.326Z", "active": 1, "gst": [{"device": "/dev/ttyUSB0", "alt": 0.0, "class": "GST", "time": "1970-01-01T00:00:00.000Z", "minor": 0.0, "lat": 0.0, "orient": 0.0, "major": 0.0, "lon": 0.0, "rms": 0.0}]}
{"tpv": [{"alt": 308.433, "epx": 7.399, "eps": 21.05, "speed": 1.537, "mode": 3, "epv": 25.145, "epc": 50.29, "ept": 0.005, "device": "/dev/ttyUSB0", "class": "TPV", "time": "2018-10-07T14:29:16.000Z", "climb": -0.118, "track": 201.7889, "lon": -84.435135756, "epy": 10.523, "lat": 33.886651096}], "sky": [{"device": "/dev/ttyUSB0", "gdop": 1.52, "vdop": 1.09, "class": "SKY", "time": "2018-10-07T14:29:14.000Z", "satellites": [{"el": 61, "used": true, "az": 307, "PRN": 2, "ss": 43}, {"el": 37, "used": true, "az": 199, "PRN": 5, "ss": 39}, {"el": 48, "used": true, "az": 37, "PRN": 6, "ss": 44}, {"el": 14, "used": true, "az": 70, "PRN": 9, "ss": 30}, {"el": 55, "used": true, "az": 283, "PRN": 12, "ss": 42}, {"el": 48, "used": true, "az": 90, "PRN": 19, "ss": 37}, {"el": 25, "used": true, "az": 106, "PRN": 17, "ss": 40}, {"el": 5, "used": true, "az": 48, "PRN": 23, "ss": 20}, {"el": 22, "used": true, "az": 315, "PRN": 25, "ss": 34}, {"el": 1, "used": true, "az": 238, "PRN": 24, "ss": 18}, {"el": 36, "used": false, "az": 270, "PRN": 4, "ss": 0}, {"el": 8, "used": false, "az": 102, "PRN": 120, "ss": 0}], "tdop": 0.63, "hdop": 1.0, "xdop": 0.49, "ydop": 0.7, "pdop": 1.39}], "class": "POLL", "time": "2018-04-09T04:20:14.358Z", "active": 1, "gst": [{"device": "/dev/ttyUSB0", "alt": 0.0, "class": "GST", "time": "1970-01-01T00:00:00.000Z", "minor": 0.0, "lat": 0.0, "orient": 0.0, "major": 0.0, "lon": 0.0, "rms": 0.0}]}
{"tpv": [{"alt": 307.271, "epx": 7.399, "eps": 21.05, "speed": 1.912, "mode": 3, "epv": 25.145, "epc": 50.29, "ept": 0.005, "device": "/dev/ttyUSB0", "class": "TPV", "time": "2018-10-07T14:29:21.000Z", "climb": -0.178, "track": 223.5282, "lon": -84.435215259, "epy": 10.523, "lat": 33.88658211}], "sky": [{"device": "/dev/ttyUSB0", "gdop": 1.52, "vdop": 1.09, "class": "SKY", "time": "2018-10-07T14:29:20.000Z", "satellites": [{"el": 61, "used": true, "az": 307, "PRN": 2, "ss": 42}, {"el": 37, "used": true, "az": 199, "PRN": 5, "ss": 42}, {"el": 48, "used": true, "az": 37, "PRN": 6, "ss": 37}, {"el": 14, "used": true, "az": 70, "PRN": 9, "ss": 30}, {"el": 55, "used": true, "az": 283, "PRN": 12, "ss": 38}, {"el": 48, "used": true, "az": 90, "PRN": 19, "ss": 42}, {"el": 25, "used": true, "az": 106, "PRN": 17, "ss": 39}, {"el": 5, "used": true, "az": 48, "PRN": 23, "ss": 20}, {"el": 22, "used": true, "az": 315, "PRN": 25, "ss": 36}, {"el": 1, "used": true, "az": 238, "PRN": 24, "ss": 18}, {"el": 36, "used": false, "az": 270, "PRN": 4, "ss": 0}, {"el": 8, "used": false, "az": 102, "PRN": 120, "ss": 0}], "tdop": 0.63, "hdop": 1.0, "xdop": 0.49, "ydop": 0.7, "pdop": 1.39}], "class": "POLL", "time": "2018-04-09T04:20:19.383Z", "active": 1, "gst": [{"device": "/dev/ttyUSB0", "alt": 0.0, "class": "GST", "time": "1970-01-01T00:00:00.000Z", "minor": 0.0, "lat": 0.0, "orient": 0.0, "major": 0.0, "lon": 0.0, "rms": 0.0}]}
{"tpv": [{"alt": 305.734, "epx": 7.399, "eps": 21.05, "speed": 1.541, "mode": 3, "epv": 25.145, "epc": 50.29, "ept": 0.005, "device": "/dev/ttyUSB0", "class": "TPV", "time": "2018-10-07T14:29:25.000Z", "climb": -0.122, "track": 223.2384, "lon": -84.435271148, "epy": 10.523, "lat": 33.886537123}], "sky": [{"device": "/dev/ttyUSB0", "gdop": 1.52, "vdop": 1.09, "class": "SKY", "time": "2018-10-07T14:29:23.000Z", "satellites": [{"el": 61, "used": true, "az": 307, "PRN": 2, "ss": 41}, {"el": 37, "used": true, "az": 199, "PRN": 5, "ss": 42}, {"el": 48, "used": true, "az": 37, "PRN": 6, "ss": 38}, {"el": 14, "used": true, "az": 70, "PRN": 9, "ss": 38}, {"el": 55, "used": true, "az": 283, "PRN": 12, "ss": 39}, {"el": 48, "used": true, "az": 90, "PRN": 19, "ss": 43}, {"el": 25, "used": true, "az": 106, "PRN": 17, "ss": 41}, {"el": 5, "used": true, "az": 48, "PRN": 23, "ss": 20}, {"el": 22, "used": true, "az": 315, "PRN": 25, "ss": 35}, {"el": 1, "used": true, "az": 238, "PRN": 24, "ss": 18}, {"el": 36, "used": false, "az": 270, "PRN": 4, "ss": 0}, {"el": 8, "used": false, "az": 102, "PRN": 120, "ss": 0}], "tdop": 0.63, "hdop": 1.0, "xdop": 0.49, "ydop": 0.7, "pdop": 1.39}], "class": "POLL", "time": "2018-04-09T04:20:24.410Z", "active": 1, "gst": [{"device": "/dev/ttyUSB0", "alt": 0.0, "class": "GST", "time": "1970-01-01T00:00:00.000Z", "minor": 0.0, "lat": 0.0, "orient": 0.0, "major": 0.0, "lon": 0.0, "rms": 0.0}]}
{"tpv": [{"alt": 303.665, "epx": 7.399, "eps": 21.05, "speed": 1.952, "mode": 3, "epv": 25.145, "epc": 50.29, "ept": 0.005, "device": "/dev/ttyUSB0", "class": "TPV", "time": "2018-10-07T14:29:31.000Z", "climb": -0.059, "track": 233.3416, "lon": -84.435360361, "epy": 10.523, "lat": 33.886473627}], "sky": [{"device": "/dev/ttyUSB0", "gdop": 1.52, "vdop": 1.09, "class": "SKY", "time": "2018-10-07T14:29:29.000Z", "satellites": [{"el": 61, "used": true, "az": 307, "PRN": 2, "ss": 40}, {"el": 37, "used": true, "az": 199, "PRN": 5, "ss": 40}, {"el": 48, "used": true, "az": 37, "PRN": 6, "ss": 41}, {"el": 14, "used": true, "az": 70, "PRN": 9, "ss": 38}, {"el": 55, "used": true, "az": 283, "PRN": 12, "ss": 40}, {"el": 48, "used": true, "az": 90, "PRN": 19, "ss": 40}, {"el": 25, "used": true, "az": 106, "PRN": 17, "ss": 41}, {"el": 5, "used": true, "az": 48, "PRN": 23, "ss": 20}, {"el": 22, "used": true, "az": 315, "PRN": 25, "ss": 31}, {"el": 1, "used": true, "az": 238, "PRN": 24, "ss": 17}, {"el": 36, "used": false, "az": 270, "PRN": 4, "ss": 0}, {"el": 43, "used": false, "az": 216, "PRN": 138, "ss": 0}], "tdop": 0.63, "hdop": 1.0, "xdop": 0.49, "ydop": 0.7, "pdop": 1.39}], "class": "POLL", "time": "2018-04-09T04:20:29.441Z", "active": 1, "gst": [{"device": "/dev/ttyUSB0", "alt": 0.0, "class": "GST", "time": "1970-01-01T00:00:00.000Z", "minor": 0.0, "lat": 0.0, "orient": 0.0, "major": 0.0, "lon": 0.0, "rms": 0.0}]}
{"tpv": [{"alt": 302.497, "epx": 7.399, "eps": 21.05, "speed": 0.0, "mode": 3, "epv": 25.145, "epc": 50.29, "ept": 0.005, "device": "/dev/ttyUSB0", "class": "TPV", "time": "2018-10-07T14:29:36.000Z", "climb": 0.0, "track": 0.0, "lon": -84.435404443, "epy": 10.523, "lat": 33.886448123}], "sky": [{"device": "/dev/ttyUSB0", "gdop": 1.52, "vdop": 1.09, "class": "SKY", "time": "2018-10-07T14:29:35.000Z", "satellites": [{"el": 61, "used": true, "az": 307, "PRN": 2, "ss": 44}, {"el": 37, "used": true, "az": 199, "PRN": 5, "ss": 39}, {"el": 48, "used": true, "az": 37, "PRN": 6, "ss": 40}, {"el": 14, "used": true, "az": 70, "PRN": 9, "ss": 30}, {"el": 55, "used": true, "az": 283, "PRN": 12, "ss": 48}, {"el": 48, "used": true, "az": 90, "PRN": 19, "ss": 35}, {"el": 25, "used": true, "az": 106, "PRN": 17, "ss": 40}, {"el": 5, "used": true, "az": 48, "PRN": 23, "ss": 11}, {"el": 22, "used": true, "az": 315, "PRN": 25, "ss": 39}, {"el": 1, "used": true, "az": 238, "PRN": 24, "ss": 17}, {"el": 36, "used": false, "az": 270, "PRN": 4, "ss": 0}, {"el": 43, "used": true, "az": 216, "PRN": 138, "ss": 34}], "tdop": 0.63, "hdop": 1.0, "xdop": 0.49, "ydop": 0.7, "pdop": 1.39}], "class": "POLL", "time": "2018-04-09T04:20:34.467Z", "active": 1, "gst": [{"device": "/dev/ttyUSB0", "alt": 0.0, "class": "GST", "time": "1970-01-01T00:00:00.000Z", "minor": 0.0, "lat": 0.0, "orient": 0.0, "major": 0.0, "lon": 0.0, "rms": 0.0}]}
{"tpv": [{"alt": 301.859, "epx": 7.399, "eps": 21.05, "speed": 0.463, "mode": 3, "epv": 25.145, "epc": 50.29, "ept": 0.005, "device": "/dev/ttyUSB0", "class": "TPV", "time": "2018-10-07T14:29:40.000Z", "climb": -0.066, "track": 236.3383, "lon": -84.435415202, "epy": 10.523, "lat": 33.886441126}], "sky": [{"device": "/dev/ttyUSB0", "gdop": 1.52, "vdop": 1.09, "class": "SKY", "time": "2018-10-07T14:29:38.000Z", "satellites": [{"el": 61, "used": true, "az": 307, "PRN": 2, "ss": 42}, {"el": 37, "used": true, "az": 199, "PRN": 5, "ss": 28}, {"el": 48, "used": true, "az": 37, "PRN": 6, "ss": 46}, {"el": 14, "used": true, "az": 70, "PRN": 9, "ss": 35}, {"el": 55, "used": true, "az": 283, "PRN": 12, "ss": 39}, {"el": 48, "used": true, "az": 90, "PRN": 19, "ss": 39}, {"el": 25, "used": true, "az": 106, "PRN": 17, "ss": 41}, {"el": 5, "used": true, "az": 48, "PRN": 23, "ss": 18}, {"el": 22, "used": true, "az": 315, "PRN": 25, "ss": 30}, {"el": 1, "used": true, "az": 238, "PRN": 24, "ss": 18}, {"el": 36, "used": false, "az": 270, "PRN": 4, "ss": 0}, {"el": 43, "used": true, "az": 216, "PRN": 138, "ss": 35}], "tdop": 0.63, "hdop": 1.0, "xdop": 0.49, "ydop": 0.7, "pdop": 1.39}], "class": "POLL", "time": "2018-04-09T04:20:39.493Z", "active": 1, "gst": [{"device": "/dev/ttyUSB0", "alt": 0.0, "class": "GST", "time": "1970-01-01T00:00:00.000Z", "minor": 0.0, "lat": 0.0, "orient": 0.0, "major": 0.0, "lon": 0.0, "rms": 0.0}]}
{"tpv": [{"alt": 302.074, "epx": 7.399, "eps": 21.05, "speed": 1.311, "mode": 3, "epv": 25.145, "epc": 50.29, "ept": 0.005, "device": "/dev/ttyUSB0", "class": "TPV", "time": "2018-10-07T14:29:46.000Z", "climb": 0.028, "track": 225.2891, "lon": -84.435460332, "epy": 10.523, "lat": 33.886418103}], "sky": [{"device": "/dev/ttyUSB0", "gdop": 1.52, "vdop": 1.09, "class": "SKY", "time": "2018-10-07T14:29:44.000Z", "satellites": [{"el": 61, "used": true, "az": 307, "PRN": 2, "ss": 43}, {"el": 37, "used": true, "az": 199, "PRN": 5, "ss": 39}, {"el": 48, "used": true, "az": 37, "PRN": 6, "ss": 41}, {"el": 14, "used": true, "az": 70, "PRN": 9, "ss": 33}, {"el": 55, "used": true, "az": 283, "PRN": 12, "ss": 38}, {"el": 48, "used": true, "az": 90, "PRN": 19, "ss": 39}, {"el": 25, "used": true, "az": 106, "PRN": 17, "ss": 40}, {"el": 5, "used": true, "az": 48, "PRN": 23, "ss": 19}, {"el": 22, "used": true, "az": 315, "PRN": 25, "ss": 37}, {"el": 1, "used": true, "az": 238, "PRN": 24, "ss": 18}, {"el": 36, "used": false, "az": 270, "PRN": 4, "ss": 0}, {"el": 43, "used": true, "az": 216, "PRN": 138, "ss": 34}], "tdop": 0.63, "hdop": 1.0, "xdop": 0.49, "ydop": 0.7, "pdop": 1.39}], "class": "POLL", "time": "2018-04-09T04:20:44.524Z", "active": 1, "gst": [{"device": "/dev/ttyUSB0", "alt": 0.0, "class": "GST", "time": "1970-01-01T00:00:00.000Z", "minor": 0.0, "lat": 0.0, "orient": 0.0, "major": 0.0, "lon": 0.0, "rms": 0.0}]}
{"tpv": [{"alt": 302.189, "epx": 7.399, "eps": 21.05, "speed": 1.7, "mode": 3, "epv": 25.145, "epc": 50.29, "ept": 0.005, "device": "/dev/ttyUSB0", "class": "TPV", "time": "2018-10-07T14:29:51.000Z", "climb": 0.031, "track": 230.7738, "lon": -84.435518317, "epy": 10.523, "lat": 33.88636311}], "sky": [{"device": "/dev/ttyUSB0", "gdop": 1.52, "vdop": 1.09, "class": "SKY", "time": "2018-10-07T14:29:50.000Z", "satellites": [{"el": 61, "used": true, "az": 307, "PRN": 2, "ss": 39}, {"el": 37, "used": true, "az": 199, "PRN": 5, "ss": 43}, {"el": 48, "used": true, "az": 37, "PRN": 6, "ss": 39}, {"el": 14, "used": true, "az": 70, "PRN": 9, "ss": 36}, {"el": 55, "used": true, "az": 283, "PRN": 12, "ss": 44}, {"el": 48, "used": true, "az": 90, "PRN": 19, "ss": 41}, {"el": 25, "used": true, "az": 106, "PRN": 17, "ss": 41}, {"el": 5, "used": true, "az": 48, "PRN": 23, "ss": 19}, {"el": 22, "used": true, "az": 315, "PRN": 25, "ss": 32}, {"el": 1, "used": true, "az": 238, "PRN": 24, "ss": 18}, {"el": 36, "used": false, "az": 270, "PRN": 4, "ss": 0}, {"el": 37, "used": false, "az": 228, "PRN": 131, "ss": 0}], "tdop": 0.63, "hdop": 1.0, "xdop": 0.49, "ydop": 0.7, "pdop": 1.39}], "class": "POLL", "time": "2018-04-09T04:20:49.549Z", "active": 1, "gst": [{"device": "/dev/ttyUSB0", "alt": 0.0, "class": "GST", "time": "1970-01-01T00:00:00.000Z", "minor": 0.0, "lat": 0.0, "orient": 0.0, "major": 0.0, "lon": 0.0, "rms": 0.0}]}
{"tpv": [{"alt": 302.035, "epx": 7.399, "eps": 21.05, "speed": 1.311, "mode": 3, "epv": 25.145, "epc": 50.29, "ept": 0.005, "device": "/dev/ttyUSB0", "class": "TPV", "time": "2018-10-07T14:29:55.000Z", "climb": -0.032, "track": 218.0093, "lon": -84.435575255, "epy": 10.523, "lat": 33.886320603}], "sky": [{"device": "/dev/ttyUSB0", "gdop": 1.52, "vdop": 1.09, "class": "SKY", "time": "2018-10-07T14:29:56.000Z", "satellites": [{"el": 61, "used": true, "az": 307, "PRN": 2, "ss": 40}, {"el": 37, "used": true, "az": 199, "PRN": 5, "ss": 37}, {"el": 48, "used": true, "az": 37, "PRN": 6, "ss": 41}, {"el": 14, "used": true, "az": 70, "PRN": 9, "ss": 37}, {"el": 55, "used": true, "az": 283, "PRN": 12, "ss": 42}, {"el": 48, "used": true, "az": 90, "PRN": 19, "ss": 41}, {"el": 25, "used": true, "az": 106, "PRN": 17, "ss": 40}, {"el": 5, "used": true, "az": 48, "PRN": 23, "ss": 20}, {"el": 22, "used": true, "az": 315, "PRN": 25, "ss": 32}, {"el": 1, "used": true, "az": 238, "PRN": 24, "ss": 18}, {"el": 36, "used": false, "az": 270, "PRN": 4, "ss": 0}, {"el": 37, "used": true, "az": 228, "PRN": 131, "ss": 33}], "tdop": 0.63, "hdop": 1.0, "xdop": 0.49, "ydop": 0.7, "pdop": 1.39}], "class": "POLL", "time": "2018-04-09T04:20:54.573Z", "active": 1, "gst": [{"device": "/dev/ttyUSB0", "alt": 0.0, "class": "GST", "time": "1970-01-01T00:00:00.000Z", "minor": 0.0, "lat": 0.0, "orient": 0.0, "major": 0.0, "lon": 0.0, "rms": 0.0}]}
