{"active": 1, "sky": [{"vdop": 2.95, "tdop": 1.84, "satellites": [{"el": 52, "PRN": 12, "used": true, "az": 292, "ss": 32}, {"el": 60, "PRN": 2, "used": true, "az": 301, "ss": 32}, {"el": 50, "PRN": 6, "used": true, "az": 34, "ss": 29}, {"el": 32, "PRN": 17, "used": true, "az": 100, "ss": 28}, {"el": 15, "PRN": 5, "used": true, "az": 205, "ss": 16}, {"el": 45, "PRN": 19, "used": true, "az": 88, "ss": 16}, {"el": 32, "PRN": 25, "used": true, "az": 309, "ss": 17}, {"el": 15, "PRN": 9, "used": false, "az": 97, "ss": 0}, {"el": 7, "PRN": 23, "used": false, "az": 58, "ss": 0}, {"el": 25, "PRN": 4, "used": false, "az": 262, "ss": 0}, {"el": 3, "PRN": 24, "used": false, "az": 244, "ss": 0}, {"el": 43, "PRN": 138, "used": false, "az": 216, "ss": 0}], "ydop": 1.26, "hdop": 3.2, "time": "2000-01-15T15:54:01.000Z", "xdop": 0.65, "class": "SKY", "device": "/dev/ttyUSB0", "gdop": 3.76, "pdop": 3.28}], "gst": [{"lon": 0.0, "orient": 0.0, "minor": 0.0, "major": 0.0, "time": "1970-01-01T00:00:00.000Z", "alt": 0.0, "class": "GST", "rms": 0.0, "lat": 0.0, "device": "/dev/ttyUSB0"}], "time": "2018-04-09T07:17:43.362Z", "tpv": [{"epv": 67.867, "time": "2000-01-15T15:54:02.000Z", "epy": 18.974, "ept": 0.005, "eps": 37.95, "track": 231.9441, "lon": -84.628543249, "alt": 252.215, "lat": 33.75371292, "epx": 9.784, "speed": 0.158, "device": "/dev/ttyUSB0", "mode": 3, "climb": -0.079, "class": "TPV", "epc": 135.73}], "class": "POLL"}
{"active": 1, "sky": [{"vdop": 2.95, "tdop": 1.84, "satellites": [{"el": 52, "PRN": 12, "used": true, "az": 292, "ss": 31}, {"el": 60, "PRN": 2, "used": true, "az": 303, "ss": 30}, {"el": 50, "PRN": 6, "used": true, "az": 34, "ss": 26}, {"el": 45, "PRN": 19, "used": true, "az": 88, "ss": 22}, {"el": 32, "PRN": 17, "used": true, "az": 100, "ss": 30}, {"el": 15, "PRN": 5, "used": true, "az": 205, "ss": 8}, {"el": 32, "PRN": 25, "used": false, "az": 309, "ss": 0}, {"el": 15, "PRN": 9, "used": false, "az": 97, "ss": 0}, {"el": 7, "PRN": 23, "used": false, "az": 58, "ss": 0}, {"el": 25, "PRN": 4, "used": false, "az": 262, "ss": 0}, {"el": 3, "PRN": 24, "used": false, "az": 244, "ss": 0}, {"el": 43, "PRN": 138, "used": false, "az": 216, "ss": 0}], "ydop": 1.26, "hdop": 3.2, "time": "2000-01-15T15:54:13.000Z", "xdop": 0.65, "class": "SKY", "device": "/dev/ttyUSB0", "gdop": 3.76, "pdop": 3.28}], "gst": [{"lon": 0.0, "orient": 0.0, "minor": 0.0, "major": 0.0, "time": "1970-01-01T00:00:00.000Z", "alt": 0.0, "class": "GST", "rms": 0.0, "lat": 0.0, "device": "/dev/ttyUSB0"}], "time": "2018-04-09T07:17:53.523Z", "tpv": [{"epv": 67.867, "time": "2000-01-15T15:54:13.000Z", "epy": 18.974, "ept": 0.005, "eps": 37.95, "track": 16.6133, "lon": -84.628481807, "alt": 262.389, "lat": 33.753792589, "epx": 9.784, "speed": 1.034, "device": "/dev/ttyUSB0", "mode": 3, "climb": 0.092, "class": "TPV", "epc": 135.73}], "class": "POLL"}
{"active": 1, "sky": [{"vdop": 2.95, "tdop": 1.84, "satellites": [{"el": 52, "PRN": 12, "used": true, "az": 292, "ss": 31}, {"el": 60, "PRN": 2, "used": true, "az": 303, "ss": 31}, {"el": 50, "PRN": 6, "used": true, "az": 34, "ss": 26}, {"el": 45, "PRN": 19, "used": true, "az": 88, "ss": 22}, {"el": 32, "PRN": 17, "used": true, "az": 100, "ss": 30}, {"el": 15, "PRN": 5, "used": true, "az": 205, "ss": 15}, {"el": 32, "PRN": 25, "used": false, "az": 309, "ss": 0}, {"el": 15, "PRN": 9, "used": false, "az": 97, "ss": 0}, {"el": 7, "PRN": 23, "used": false, "az": 58, "ss": 0}, {"el": 25, "PRN": 4, "used": false, "az": 262, "ss": 0}, {"el": 3, "PRN": 24, "used": false, "az": 244, "ss": 0}, {"el": 43, "PRN": 138, "used": false, "az": 216, "ss": 0}], "ydop": 1.26, "hdop": 3.2, "time": "2000-01-15T15:54:16.000Z", "xdop": 0.65, "class": "SKY", "device": "/dev/ttyUSB0", "gdop": 3.76, "pdop": 3.28}], "gst": [{"lon": 0.0, "orient": 0.0, "minor": 0.0, "major": 0.0, "time": "1970-01-01T00:00:00.000Z", "alt": 0.0, "class": "GST", "rms": 0.0, "lat": 0.0, "device": "/dev/ttyUSB0"}], "time": "2018-04-09T07:17:58.547Z", "tpv": [{"epv": 67.867, "time": "2000-01-15T15:54:18.000Z", "epy": 18.974, "ept": 0.005, "eps": 37.95, "track": 118.5902, "lon": -84.62847042, "alt": 270.822, "lat": 33.75374178, "epx": 9.784, "speed": 0.243, "device": "/dev/ttyUSB0", "mode": 3, "climb": 0.399, "class": "TPV", "epc": 135.73}], "class": "POLL"}
{"active": 1, "sky": [{"vdop": 2.95, "tdop": 1.84, "satellites": [{"el": 52, "PRN": 12, "used": true, "az": 292, "ss": 32}, {"el": 60, "PRN": 2, "used": true, "az": 303, "ss": 32}, {"el": 50, "PRN": 6, "used": true, "az": 34, "ss": 27}, {"el": 45, "PRN": 19, "used": true, "az": 88, "ss": 22}, {"el": 32, "PRN": 17, "used": true, "az": 100, "ss": 29}, {"el": 15, "PRN": 5, "used": true, "az": 205, "ss": 14}, {"el": 32, "PRN": 25, "used": false, "az": 309, "ss": 0}, {"el": 15, "PRN": 9, "used": false, "az": 97, "ss": 0}, {"el": 7, "PRN": 23, "used": false, "az": 58, "ss": 0}, {"el": 25, "PRN": 4, "used": false, "az": 262, "ss": 0}, {"el": 3, "PRN": 24, "used": false, "az": 244, "ss": 0}, {"el": 43, "PRN": 138, "used": false, "az": 216, "ss": 0}], "ydop": 1.26, "hdop": 3.2, "time": "2000-01-15T15:54:22.000Z", "xdop": 0.65, "class": "SKY", "device": "/dev/ttyUSB0", "gdop": 3.76, "pdop": 3.28}], "gst": [{"lon": 0.0, "orient": 0.0, "minor": 0.0, "major": 0.0, "time": "1970-01-01T00:00:00.000Z", "alt": 0.0, "class": "GST", "rms": 0.0, "lat": 0.0, "device": "/dev/ttyUSB0"}], "time": "2018-04-09T07:18:03.570Z", "tpv": [{"epv": 67.867, "time": "2000-01-15T15:54:23.000Z", "epy": 18.974, "ept": 0.005, "eps": 37.95, "track": 157.3341, "lon": -84.628474829, "alt": 284.428, "lat": 33.753681495, "epx": 9.784, "speed": 0.464, "device": "/dev/ttyUSB0", "mode": 3, "climb": 0.64, "class": "TPV", "epc": 135.73}], "class": "POLL"}
{"active": 1, "sky": [{"vdop": 2.95, "tdop": 1.84, "satellites": [{"el": 52, "PRN": 12, "used": true, "az": 292, "ss": 33}, {"el": 60, "PRN": 2, "used": true, "az": 303, "ss": 32}, {"el": 50, "PRN": 6, "used": true, "az": 34, "ss": 28}, {"el": 45, "PRN": 19, "used": true, "az": 88, "ss": 23}, {"el": 32, "PRN": 17, "used": true, "az": 100, "ss": 30}, {"el": 15, "PRN": 5, "used": true, "az": 205, "ss": 15}, {"el": 32, "PRN": 25, "used": false, "az": 309, "ss": 0}, {"el": 15, "PRN": 9, "used": false, "az": 97, "ss": 0}, {"el": 7, "PRN": 23, "used": false, "az": 58, "ss": 0}, {"el": 25, "PRN": 4, "used": false, "az": 262, "ss": 0}, {"el": 3, "PRN": 24, "used": false, "az": 244, "ss": 0}, {"el": 43, "PRN": 138, "used": false, "az": 216, "ss": 0}], "ydop": 1.26, "hdop": 3.2, "time": "2000-01-15T15:54:28.000Z", "xdop": 0.65, "class": "SKY", "device": "/dev/ttyUSB0", "gdop": 3.76, "pdop": 3.28}], "gst": [{"lon": 0.0, "orient": 0.0, "minor": 0.0, "major": 0.0, "time": "1970-01-01T00:00:00.000Z", "alt": 0.0, "class": "GST", "rms": 0.0, "lat": 0.0, "device": "/dev/ttyUSB0"}], "time": "2018-04-09T07:18:08.600Z", "tpv": [{"epv": 67.867, "time": "2000-01-15T15:54:28.000Z", "epy": 18.974, "ept": 0.005, "eps": 37.95, "track": 151.1196, "lon": -84.628482912, "alt": 291.606, "lat": 33.753649094, "epx": 9.784, "speed": 0.37, "device": "/dev/ttyUSB0", "mode": 3, "climb": 0.71, "class": "TPV", "epc": 135.73}], "class": "POLL"}
{"active": 1, "sky": [{"vdop": 2.95, "tdop": 1.84, "satellites": [{"el": 52, "PRN": 12, "used": true, "az": 292, "ss": 33}, {"el": 60, "PRN": 2, "used": true, "az": 303, "ss": 32}, {"el": 50, "PRN": 6, "used": true, "az": 34, "ss": 28}, {"el": 45, "PRN": 19, "used": true, "az": 88, "ss": 23}, {"el": 32, "PRN": 17, "used": true, "az": 100, "ss": 30}, {"el": 15, "PRN": 5, "used": true, "az": 205, "ss": 16}, {"el": 32, "PRN": 25, "used": false, "az": 309, "ss": 0}, {"el": 15, "PRN": 9, "used": false, "az": 97, "ss": 0}, {"el": 7, "PRN": 23, "used": false, "az": 58, "ss": 0}, {"el": 25, "PRN": 4, "used": false, "az": 262, "ss": 0}, {"el": 3, "PRN": 24, "used": false, "az": 244, "ss": 0}, {"el": 43, "PRN": 138, "used": false, "az": 216, "ss": 0}], "ydop": 1.26, "hdop": 3.2, "time": "2000-01-15T15:54:31.000Z", "xdop": 0.65, "class": "SKY", "device": "/dev/ttyUSB0", "gdop": 3.76, "pdop": 3.28}], "gst": [{"lon": 0.0, "orient": 0.0, "minor": 0.0, "major": 0.0, "time": "1970-01-01T00:00:00.000Z", "alt": 0.0, "class": "GST", "rms": 0.0, "lat": 0.0, "device": "/dev/ttyUSB0"}], "time": "2018-04-09T07:18:13.625Z", "tpv": [{"epv": 67.867, "time": "2000-01-15T15:54:32.000Z", "epy": 18.974, "ept": 0.005, "eps": 37.95, "track": 116.5597, "lon": -84.62848227, "alt": 299.962, "lat": 33.753598754, "epx": 9.784, "speed": 0.352, "device": "/dev/ttyUSB0", "mode": 3, "climb": 0.685, "class": "TPV", "epc": 135.73}], "class": "POLL"}
{"active": 1, "sky": [{"vdop": 2.95, "tdop": 1.84, "satellites": [{"el": 52, "PRN": 12, "used": true, "az": 292, "ss": 33}, {"el": 60, "PRN": 2, "used": true, "az": 303, "ss": 32}, {"el": 50, "PRN": 6, "used": true, "az": 34, "ss": 29}, {"el": 45, "PRN": 19, "used": true, "az": 88, "ss": 20}, {"el": 32, "PRN": 17, "used": true, "az": 100, "ss": 25}, {"el": 16, "PRN": 5, "used": true, "az": 205, "ss": 16}, {"el": 32, "PRN": 25, "used": false, "az": 309, "ss": 0}, {"el": 15, "PRN": 9, "used": false, "az": 97, "ss": 0}, {"el": 7, "PRN": 23, "used": false, "az": 58, "ss": 0}, {"el": 25, "PRN": 4, "used": false, "az": 262, "ss": 0}, {"el": 3, "PRN": 24, "used": false, "az": 244, "ss": 0}, {"el": 43, "PRN": 138, "used": false, "az": 216, "ss": 0}], "ydop": 1.26, "hdop": 3.2, "time": "2000-01-15T15:54:37.000Z", "xdop": 0.65, "class": "SKY", "device": "/dev/ttyUSB0", "gdop": 3.76, "pdop": 3.28}], "gst": [{"lon": 0.0, "orient": 0.0, "minor": 0.0, "major": 0.0, "time": "1970-01-01T00:00:00.000Z", "alt": 0.0, "class": "GST", "rms": 0.0, "lat": 0.0, "device": "/dev/ttyUSB0"}], "time": "2018-04-09T07:18:18.652Z", "tpv": [{"epv": 67.867, "time": "2000-01-15T15:54:38.000Z", "epy": 18.974, "ept": 0.005, "eps": 37.95, "track": 228.287, "lon": -84.628483281, "alt": 300.789, "lat": 33.753593767, "epx": 9.784, "speed": 0.198, "device": "/dev/ttyUSB0", "mode": 3, "climb": 0.197, "class": "TPV", "epc": 135.73}], "class": "POLL"}
{"active": 1, "sky": [{"vdop": 2.95, "tdop": 1.84, "satellites": [{"el": 52, "PRN": 12, "used": true, "az": 292, "ss": 34}, {"el": 60, "PRN": 2, "used": true, "az": 303, "ss": 34}, {"el": 50, "PRN": 6, "used": true, "az": 34, "ss": 31}, {"el": 45, "PRN": 19, "used": true, "az": 88, "ss": 20}, {"el": 32, "PRN": 17, "used": true, "az": 100, "ss": 28}, {"el": 16, "PRN": 5, "used": true, "az": 205, "ss": 18}, {"el": 15, "PRN": 9, "used": true, "az": 97, "ss": 20}, {"el": 32, "PRN": 25, "used": false, "az": 309, "ss": 0}, {"el": 7, "PRN": 23, "used": false, "az": 58, "ss": 0}, {"el": 25, "PRN": 4, "used": false, "az": 262, "ss": 0}, {"el": 3, "PRN": 24, "used": false, "az": 244, "ss": 0}, {"el": 43, "PRN": 138, "used": false, "az": 216, "ss": 0}], "ydop": 1.26, "hdop": 3.2, "time": "2000-01-15T15:54:43.000Z", "xdop": 0.65, "class": "SKY", "device": "/dev/ttyUSB0", "gdop": 3.76, "pdop": 3.28}], "gst": [{"lon": 0.0, "orient": 0.0, "minor": 0.0, "major": 0.0, "time": "1970-01-01T00:00:00.000Z", "alt": 0.0, "class": "GST", "rms": 0.0, "lat": 0.0, "device": "/dev/ttyUSB0"}], "time": "2018-04-09T07:18:23.684Z", "tpv": [{"epv": 67.867, "time": "2000-01-15T15:54:43.000Z", "epy": 18.974, "ept": 0.005, "eps": 37.95, "track": 0.0, "lon": -84.62848227, "alt": 299.962, "lat": 33.753598754, "epx": 9.784, "speed": 0.0, "device": "/dev/ttyUSB0", "mode": 3, "climb": 0.0, "class": "TPV", "epc": 135.73}], "class": "POLL"}
{"active": 1, "sky": [{"vdop": 2.95, "tdop": 1.84, "satellites": [{"el": 52, "PRN": 12, "used": true, "az": 292, "ss": 35}, {"el": 60, "PRN": 2, "used": true, "az": 303, "ss": 34}, {"el": 50, "PRN": 6, "used": true, "az": 34, "ss": 32}, {"el": 45, "PRN": 19, "used": true, "az": 88, "ss": 25}, {"el": 32, "PRN": 17, "used": true, "az": 100, "ss": 29}, {"el": 16, "PRN": 5, "used": true, "az": 205, "ss": 18}, {"el": 15, "PRN": 9, "used": false, "az": 97, "ss": 14}, {"el": 32, "PRN": 25, "used": false, "az": 309, "ss": 0}, {"el": 7, "PRN": 23, "used": false, "az": 58, "ss": 0}, {"el": 25, "PRN": 4, "used": false, "az": 262, "ss": 0}, {"el": 3, "PRN": 24, "used": false, "az": 244, "ss": 0}, {"el": 43, "PRN": 138, "used": false, "az": 216, "ss": 0}], "ydop": 1.26, "hdop": 3.2, "time": "2000-01-15T15:54:46.000Z", "xdop": 0.65, "class": "SKY", "device": "/dev/ttyUSB0", "gdop": 3.76, "pdop": 3.28}], "gst": [{"lon": 0.0, "orient": 0.0, "minor": 0.0, "major": 0.0, "time": "1970-01-01T00:00:00.000Z", "alt": 0.0, "class": "GST", "rms": 0.0, "lat": 0.0, "device": "/dev/ttyUSB0"}], "time": "2018-04-09T07:18:28.715Z", "tpv": [{"epv": 67.867, "time": "2000-01-15T15:54:48.000Z", "epy": 18.974, "ept": 0.005, "eps": 37.95, "track": 0.0, "lon": -84.62848126, "alt": 299.134, "lat": 33.753603741, "epx": 9.784, "speed": 0.0, "device": "/dev/ttyUSB0", "mode": 3, "climb": 0.0, "class": "TPV", "epc": 135.73}], "class": "POLL"}
{"active": 1, "sky": [{"vdop": 2.95, "tdop": 1.84, "satellites": [{"el": 52, "PRN": 12, "used": true, "az": 292, "ss": 36}, {"el": 60, "PRN": 2, "used": true, "az": 303, "ss": 35}, {"el": 50, "PRN": 6, "used": true, "az": 34, "ss": 32}, {"el": 45, "PRN": 19, "used": true, "az": 88, "ss": 24}, {"el": 32, "PRN": 17, "used": true, "az": 100, "ss": 29}, {"el": 16, "PRN": 5, "used": true, "az": 205, "ss": 21}, {"el": 15, "PRN": 9, "used": true, "az": 97, "ss": 13}, {"el": 32, "PRN": 25, "used": false, "az": 309, "ss": 0}, {"el": 7, "PRN": 23, "used": false, "az": 58, "ss": 0}, {"el": 25, "PRN": 4, "used": false, "az": 262, "ss": 0}, {"el": 3, "PRN": 24, "used": false, "az": 244, "ss": 0}, {"el": 43, "PRN": 138, "used": false, "az": 216, "ss": 0}], "ydop": 1.26, "hdop": 3.2, "time": "2000-01-15T15:54:52.000Z", "xdop": 0.65, "class": "SKY", "device": "/dev/ttyUSB0", "gdop": 3.76, "pdop": 3.28}], "gst": [{"lon": 0.0, "orient": 0.0, "minor": 0.0, "major": 0.0, "time": "1970-01-01T00:00:00.000Z", "alt": 0.0, "class": "GST", "rms": 0.0, "lat": 0.0, "device": "/dev/ttyUSB0"}], "time": "2018-04-09T07:18:33.742Z", "tpv": [{"epv": 67.867, "time": "2000-01-15T15:54:53.000Z", "epy": 18.974, "ept": 0.005, "eps": 37.95, "track": 0.0, "lon": -84.62848126, "alt": 299.134, "lat": 33.753603741, "epx": 9.784, "speed": 0.0, "device": "/dev/ttyUSB0", "mode": 3, "climb": 0.0, "class": "TPV", "epc": 135.73}], "class": "POLL"}
{"active": 1, "sky": [{"vdop": 2.95, "tdop": 1.84, "satellites": [{"el": 52, "PRN": 12, "used": true, "az": 292, "ss": 37}, {"el": 60, "PRN": 2, "used": true, "az": 303, "ss": 36}, {"el": 49, "PRN": 6, "used": true, "az": 34, "ss": 32}, {"el": 44, "PRN": 19, "used": true, "az": 88, "ss": 25}, {"el": 32, "PRN": 17, "used": true, "az": 100, "ss": 26}, {"el": 16, "PRN": 5, "used": true, "az": 205, "ss": 19}, {"el": 15, "PRN": 9, "used": true, "az": 97, "ss": 13}, {"el": 32, "PRN": 25, "used": false, "az": 309, "ss": 0}, {"el": 7, "PRN": 23, "used": false, "az": 58, "ss": 0}, {"el": 25, "PRN": 4, "used": false, "az": 262, "ss": 0}, {"el": 3, "PRN": 24, "used": false, "az": 244, "ss": 0}, {"el": 43, "PRN": 138, "used": false, "az": 216, "ss": 0}], "ydop": 1.26, "hdop": 3.2, "time": "2000-01-15T15:54:58.000Z", "xdop": 0.65, "class": "SKY", "device": "/dev/ttyUSB0", "gdop": 3.76, "pdop": 3.28}], "gst": [{"lon": 0.0, "orient": 0.0, "minor": 0.0, "major": 0.0, "time": "1970-01-01T00:00:00.000Z", "alt": 0.0, "class": "GST", "rms": 0.0, "lat": 0.0, "device": "/dev/ttyUSB0"}], "time": "2018-04-09T07:18:38.772Z", "tpv": [{"epv": 67.867, "time": "2000-01-15T15:54:58.000Z", "epy": 18.974, "ept": 0.005, "eps": 37.95, "track": 0.0, "lon": -84.62848126, "alt": 299.134, "lat": 33.753603741, "epx": 9.784, "speed": 0.0, "device": "/dev/ttyUSB0", "mode": 3, "climb": 0.0, "class": "TPV", "epc": 135.73}], "class": "POLL"}
{"active": 1, "sky": [{"vdop": 2.95, "tdop": 1.84, "satellites": [{"el": 52, "PRN": 12, "used": true, "az": 292, "ss": 37}, {"el": 60, "PRN": 2, "used": true, "az": 303, "ss": 36}, {"el": 49, "PRN": 6, "used": true, "az": 34, "ss": 32}, {"el": 44, "PRN": 19, "used": true, "az": 88, "ss": 12}, {"el": 32, "PRN": 17, "used": true, "az": 100, "ss": 25}, {"el": 16, "PRN": 5, "used": true, "az": 205, "ss": 19}, {"el": 15, "PRN": 9, "used": true, "az": 97, "ss": 14}, {"el": 32, "PRN": 25, "used": false, "az": 309, "ss": 0}, {"el": 7, "PRN": 23, "used": false, "az": 58, "ss": 0}, {"el": 25, "PRN": 4, "used": false, "az": 262, "ss": 0}, {"el": 3, "PRN": 24, "used": false, "az": 244, "ss": 0}, {"el": 43, "PRN": 138, "used": false, "az": 216, "ss": 0}], "ydop": 1.26, "hdop": 3.2, "time": "2000-01-15T15:55:01.000Z", "xdop": 0.65, "class": "SKY", "device": "/dev/ttyUSB0", "gdop": 3.76, "pdop": 3.28}], "gst": [{"lon": 0.0, "orient": 0.0, "minor": 0.0, "major": 0.0, "time": "1970-01-01T00:00:00.000Z", "alt": 0.0, "class": "GST", "rms": 0.0, "lat": 0.0, "device": "/dev/ttyUSB0"}], "time": "2018-04-09T07:18:43.803Z", "tpv": [{"epv": 67.867, "time": "2000-01-15T15:55:03.000Z", "epy": 18.974, "ept": 0.005, "eps": 37.95, "track": 0.0, "lon": -84.62848126, "alt": 299.134, "lat": 33.753603741, "epx": 9.784, "speed": 0.0, "device": "/dev/ttyUSB0", "mode": 3, "climb": 0.0, "class": "TPV", "epc": 135.73}], "class": "POLL"}
{"active": 1, "sky": [{"vdop": 2.95, "tdop": 1.84, "satellites": [{"el": 52, "PRN": 12, "used": true, "az": 292, "ss": 36}, {"el": 60, "PRN": 2, "used": true, "az": 303, "ss": 36}, {"el": 49, "PRN": 6, "used": true, "az": 34, "ss": 32}, {"el": 44, "PRN": 19, "used": true, "az": 88, "ss": 22}, {"el": 32, "PRN": 17, "used": true, "az": 100, "ss": 26}, {"el": 16, "PRN": 5, "used": true, "az": 205, "ss": 20}, {"el": 15, "PRN": 9, "used": true, "az": 97, "ss": 15}, {"el": 32, "PRN": 25, "used": false, "az": 309, "ss": 0}, {"el": 7, "PRN": 23, "used": false, "az": 58, "ss": 0}, {"el": 25, "PRN": 4, "used": false, "az": 262, "ss": 0}, {"el": 3, "PRN": 24, "used": false, "az": 244, "ss": 0}, {"el": 43, "PRN": 138, "used": false, "az": 216, "ss": 0}], "ydop": 1.26, "hdop": 3.2, "time": "2000-01-15T15:55:07.000Z", "xdop": 0.65, "class": "SKY", "device": "/dev/ttyUSB0", "gdop": 3.76, "pdop": 3.28}], "gst": [{"lon": 0.0, "orient": 0.0, "minor": 0.0, "major": 0.0, "time": "1970-01-01T00:00:00.000Z", "alt": 0.0, "class": "GST", "rms": 0.0, "lat": 0.0, "device": "/dev/ttyUSB0"}], "time": "2018-04-09T07:18:48.832Z", "tpv": [{"epv": 67.867, "time": "2000-01-15T15:55:08.000Z", "epy": 18.974, "ept": 0.005, "eps": 37.95, "track": 3.8678, "lon": -84.628494668, "alt": 290.689, "lat": 33.753622089, "epx": 9.784, "speed": 0.173, "device": "/dev/ttyUSB0", "mode": 3, "climb": -0.034, "class": "TPV", "epc": 135.73}], "class": "POLL"}
{"active": 1, "sky": [{"vdop": 2.95, "tdop": 1.84, "satellites": [{"el": 52, "PRN": 12, "used": true, "az": 292, "ss": 37}, {"el": 60, "PRN": 2, "used": true, "az": 303, "ss": 36}, {"el": 49, "PRN": 6, "used": true, "az": 34, "ss": 32}, {"el": 44, "PRN": 19, "used": true, "az": 88, "ss": 27}, {"el": 32, "PRN": 17, "used": true, "az": 100, "ss": 26}, {"el": 16, "PRN": 5, "used": true, "az": 205, "ss": 20}, {"el": 15, "PRN": 9, "used": true, "az": 97, "ss": 16}, {"el": 32, "PRN": 25, "used": false, "az": 309, "ss": 0}, {"el": 7, "PRN": 23, "used": false, "az": 58, "ss": 0}, {"el": 25, "PRN": 4, "used": false, "az": 262, "ss": 0}, {"el": 3, "PRN": 24, "used": false, "az": 244, "ss": 0}, {"el": 28, "PRN": 133, "used": false, "az": 240, "ss": 0}], "ydop": 1.26, "hdop": 3.2, "time": "2000-01-15T15:55:13.000Z", "xdop": 0.65, "class": "SKY", "device": "/dev/ttyUSB0", "gdop": 3.76, "pdop": 3.28}], "gst": [{"lon": 0.0, "orient": 0.0, "minor": 0.0, "major": 0.0, "time": "1970-01-01T00:00:00.000Z", "alt": 0.0, "class": "GST", "rms": 0.0, "lat": 0.0, "device": "/dev/ttyUSB0"}], "time": "2018-04-09T07:18:53.862Z", "tpv": [{"epv": 67.867, "time": "2000-01-15T15:55:13.000Z", "epy": 18.974, "ept": 0.005, "eps": 37.95, "track": 0.0, "lon": -84.628483923, "alt": 291.322, "lat": 33.753629115, "epx": 9.784, "speed": 0.0, "device": "/dev/ttyUSB0", "mode": 3, "climb": 0.0, "class": "TPV", "epc": 135.73}], "class": "POLL"}
{"active": 1, "sky": [{"vdop": 2.95, "tdop": 1.84, "satellites": [{"el": 52, "PRN": 12, "used": true, "az": 292, "ss": 37}, {"el": 60, "PRN": 2, "used": true, "az": 303, "ss": 36}, {"el": 49, "PRN": 6, "used": true, "az": 34, "ss": 31}, {"el": 44, "PRN": 19, "used": true, "az": 88, "ss": 26}, {"el": 32, "PRN": 17, "used": true, "az": 100, "ss": 27}, {"el": 16, "PRN": 5, "used": true, "az": 205, "ss": 20}, {"el": 15, "PRN": 9, "used": true, "az": 97, "ss": 17}, {"el": 32, "PRN": 25, "used": false, "az": 309, "ss": 0}, {"el": 7, "PRN": 23, "used": false, "az": 58, "ss": 0}, {"el": 25, "PRN": 4, "used": false, "az": 262, "ss": 0}, {"el": 3, "PRN": 24, "used": false, "az": 244, "ss": 0}, {"el": 28, "PRN": 133, "used": false, "az": 240, "ss": 0}], "ydop": 1.26, "hdop": 3.2, "time": "2000-01-15T15:55:16.000Z", "xdop": 0.65, "class": "SKY", "device": "/dev/ttyUSB0", "gdop": 3.76, "pdop": 3.28}], "gst": [{"lon": 0.0, "orient": 0.0, "minor": 0.0, "major": 0.0, "time": "1970-01-01T00:00:00.000Z", "alt": 0.0, "class": "GST", "rms": 0.0, "lat": 0.0, "device": "/dev/ttyUSB0"}], "time": "2018-04-09T07:18:58.893Z", "tpv": [{"epv": 67.867, "time": "2000-01-15T15:55:18.000Z", "epy": 18.974, "ept": 0.005, "eps": 37.95, "track": 0.0, "lon": -84.628489616, "alt": 286.55, "lat": 33.753647024, "epx": 9.784, "speed": 0.0, "device": "/dev/ttyUSB0", "mode": 3, "climb": 0.0, "class": "TPV", "epc": 135.73}], "class": "POLL"}
{"active": 1, "sky": [{"vdop": 2.95, "tdop": 1.84, "satellites": [{"el": 52, "PRN": 12, "used": true, "az": 292, "ss": 37}, {"el": 60, "PRN": 2, "used": true, "az": 303, "ss": 36}, {"el": 49, "PRN": 6, "used": true, "az": 34, "ss": 31}, {"el": 44, "PRN": 19, "used": true, "az": 88, "ss": 25}, {"el": 32, "PRN": 17, "used": true, "az": 100, "ss": 28}, {"el": 16, "PRN": 5, "used": true, "az": 205, "ss": 26}, {"el": 15, "PRN": 9, "used": true, "az": 97, "ss": 19}, {"el": 32, "PRN": 25, "used": false, "az": 309, "ss": 0}, {"el": 7, "PRN": 23, "used": false, "az": 58, "ss": 0}, {"el": 25, "PRN": 4, "used": false, "az": 262, "ss": 0}, {"el": 3, "PRN": 24, "used": false, "az": 244, "ss": 0}, {"el": 28, "PRN": 133, "used": false, "az": 240, "ss": 0}], "ydop": 1.26, "hdop": 3.2, "time": "2000-01-15T15:55:22.000Z", "xdop": 0.65, "class": "SKY", "device": "/dev/ttyUSB0", "gdop": 3.76, "pdop": 3.28}], "gst": [{"lon": 0.0, "orient": 0.0, "minor": 0.0, "major": 0.0, "time": "1970-01-01T00:00:00.000Z", "alt": 0.0, "class": "GST", "rms": 0.0, "lat": 0.0, "device": "/dev/ttyUSB0"}], "time": "2018-04-09T07:19:03.925Z", "tpv": [{"epv": 67.867, "time": "2000-01-15T15:55:23.000Z", "epy": 18.974, "ept": 0.005, "eps": 37.95, "track": 0.0, "lon": -84.628489616, "alt": 286.55, "lat": 33.753647024, "epx": 9.784, "speed": 0.0, "device": "/dev/ttyUSB0", "mode": 3, "climb": 0.0, "class": "TPV", "epc": 135.73}], "class": "POLL"}
{"active": 1, "sky": [{"vdop": 2.95, "tdop": 1.84, "satellites": [{"el": 52, "PRN": 12, "used": true, "az": 292, "ss": 37}, {"el": 60, "PRN": 2, "used": true, "az": 303, "ss": 36}, {"el": 49, "PRN": 6, "used": true, "az": 34, "ss": 32}, {"el": 44, "PRN": 19, "used": true, "az": 88, "ss": 25}, {"el": 32, "PRN": 17, "used": true, "az": 100, "ss": 28}, {"el": 16, "PRN": 5, "used": true, "az": 205, "ss": 22}, {"el": 15, "PRN": 9, "used": true, "az": 97, "ss": 18}, {"el": 32, "PRN": 25, "used": false, "az": 309, "ss": 0}, {"el": 7, "PRN": 23, "used": false, "az": 58, "ss": 0}, {"el": 25, "PRN": 4, "used": false, "az": 262, "ss": 0}, {"el": 3, "PRN": 24, "used": false, "az": 244, "ss": 0}, {"el": 28, "PRN": 133, "used": false, "az": 240, "ss": 0}], "ydop": 1.26, "hdop": 3.2, "time": "2000-01-15T15:55:28.000Z", "xdop": 0.65, "class": "SKY", "device": "/dev/ttyUSB0", "gdop": 3.76, "pdop": 3.28}], "gst": [{"lon": 0.0, "orient": 0.0, "minor": 0.0, "major": 0.0, "time": "1970-01-01T00:00:00.000Z", "alt": 0.0, "class": "GST", "rms": 0.0, "lat": 0.0, "device": "/dev/ttyUSB0"}], "time": "2018-04-09T07:19:08.958Z", "tpv": [{"epv": 67.867, "time": "2000-01-15T15:55:29.000Z", "epy": 18.974, "ept": 0.005, "eps": 37.95, "track": 0.0, "lon": -84.628489616, "alt": 285.994, "lat": 33.753639529, "epx": 9.784, "speed": 0.0, "device": "/dev/ttyUSB0", "mode": 3, "climb": 0.0, "class": "TPV", "epc": 135.73}], "class": "POLL"}
{"active": 1, "sky": [{"vdop": 2.95, "tdop": 1.84, "satellites": [{"el": 52, "PRN": 12, "used": true, "az": 292, "ss": 37}, {"el": 60, "PRN": 2, "used": true, "az": 303, "ss": 36}, {"el": 49, "PRN": 6, "used": true, "az": 34, "ss": 33}, {"el": 44, "PRN": 19, "used": true, "az": 88, "ss": 25}, {"el": 32, "PRN": 17, "used": true, "az": 100, "ss": 28}, {"el": 16, "PRN": 5, "used": true, "az": 205, "ss": 24}, {"el": 15, "PRN": 9, "used": true, "az": 97, "ss": 18}, {"el": 32, "PRN": 25, "used": false, "az": 309, "ss": 0}, {"el": 7, "PRN": 23, "used": false, "az": 58, "ss": 0}, {"el": 25, "PRN": 4, "used": false, "az": 262, "ss": 0}, {"el": 3, "PRN": 24, "used": false, "az": 244, "ss": 0}, {"el": 28, "PRN": 133, "used": false, "az": 240, "ss": 0}], "ydop": 1.26, "hdop": 3.2, "time": "2000-01-15T15:55:31.000Z", "xdop": 0.65, "class": "SKY", "device": "/dev/ttyUSB0", "gdop": 3.76, "pdop": 3.28}], "gst": [{"lon": 0.0, "orient": 0.0, "minor": 0.0, "major": 0.0, "time": "1970-01-01T00:00:00.000Z", "alt": 0.0, "class": "GST", "rms": 0.0, "lat": 0.0, "device": "/dev/ttyUSB0"}], "time": "2018-04-09T07:19:13.989Z", "tpv": [{"epv": 67.867, "time": "2000-01-15T15:55:33.000Z", "epy": 18.974, "ept": 0.005, "eps": 37.95, "track": 0.0, "lon": -84.628489616, "alt": 285.994, "lat": 33.753639529, "epx": 9.784, "speed": 0.0, "device": "/dev/ttyUSB0", "mode": 3, "climb": 0.0, "class": "TPV", "epc": 135.73}], "class": "POLL"}
{"active": 1, "sky": [{"vdop": 2.95, "tdop": 1.84, "satellites": [{"el": 52, "PRN": 12, "used": true, "az": 292, "ss": 32}, {"el": 60, "PRN": 2, "used": true, "az": 303, "ss": 34}, {"el": 49, "PRN": 6, "used": true, "az": 34, "ss": 32}, {"el": 44, "PRN": 19, "used": true, "az": 88, "ss": 25}, {"el": 32, "PRN": 17, "used": true, "az": 100, "ss": 28}, {"el": 16, "PRN": 5, "used": true, "az": 205, "ss": 17}, {"el": 15, "PRN": 9, "used": true, "az": 97, "ss": 16}, {"el": 32, "PRN": 25, "used": false, "az": 309, "ss": 0}, {"el": 7, "PRN": 23, "used": false, "az": 58, "ss": 0}, {"el": 25, "PRN": 4, "used": false, "az": 262, "ss": 0}, {"el": 3, "PRN": 24, "used": false, "az": 244, "ss": 0}, {"el": 28, "PRN": 133, "used": false, "az": 240, "ss": 0}], "ydop": 1.26, "hdop": 3.2, "time": "2000-01-15T15:55:37.000Z", "xdop": 0.65, "class": "SKY", "device": "/dev/ttyUSB0", "gdop": 3.76, "pdop": 3.28}], "gst": [{"lon": 0.0, "orient": 0.0, "minor": 0.0, "major": 0.0, "time": "1970-01-01T00:00:00.000Z", "alt": 0.0, "class": "GST", "rms": 0.0, "lat": 0.0, "device": "/dev/ttyUSB0"}], "time": "2018-04-09T07:19:19.020Z", "tpv": [{"epv": 67.867, "time": "2000-01-15T15:55:39.000Z", "epy": 18.974, "ept": 0.005, "eps": 37.95, "track": 0.0, "lon": -84.628489616, "alt": 285.994, "lat": 33.753639529, "epx": 9.784, "speed": 0.0, "device": "/dev/ttyUSB0", "mode": 3, "climb": 0.0, "class": "TPV", "epc": 135.73}], "class": "POLL"}
{"active": 1, "sky": [{"vdop": 2.95, "tdop": 1.84, "satellites": [{"el": 52, "PRN": 12, "used": true, "az": 292, "ss": 33}, {"el": 60, "PRN": 2, "used": true, "az": 303, "ss": 34}, {"el": 49, "PRN": 6, "used": true, "az": 34, "ss": 31}, {"el": 44, "PRN": 19, "used": true, "az": 88, "ss": 24}, {"el": 32, "PRN": 17, "used": true, "az": 100, "ss": 27}, {"el": 16, "PRN": 5, "used": true, "az": 205, "ss": 16}, {"el": 15, "PRN": 9, "used": true, "az": 97, "ss": 16}, {"el": 32, "PRN": 25, "used": false, "az": 309, "ss": 0}, {"el": 7, "PRN": 23, "used": false, "az": 58, "ss": 0}, {"el": 25, "PRN": 4, "used": false, "az": 262, "ss": 0}, {"el": 3, "PRN": 24, "used": false, "az": 244, "ss": 0}, {"el": 27, "PRN": 135, "used": false, "az": 241, "ss": 0}], "ydop": 1.26, "hdop": 3.2, "time": "2000-01-15T15:55:43.000Z", "xdop": 0.65, "class": "SKY", "device": "/dev/ttyUSB0", "gdop": 3.76, "pdop": 3.28}], "gst": [{"lon": 0.0, "orient": 0.0, "minor": 0.0, "major": 0.0, "time": "1970-01-01T00:00:00.000Z", "alt": 0.0, "class": "GST", "rms": 0.0, "lat": 0.0, "device": "/dev/ttyUSB0"}], "time": "2018-04-09T07:19:24.051Z", "tpv": [{"epv": 67.867, "time": "2000-01-15T15:55:44.000Z", "epy": 18.974, "ept": 0.005, "eps": 37.95, "track": 0.0, "lon": -84.628490627, "alt": 286.822, "lat": 33.753634542, "epx": 9.784, "speed": 0.0, "device": "/dev/ttyUSB0", "mode": 3, "climb": 0.0, "class": "TPV", "epc": 135.73}], "class": "POLL"}
{"active": 1, "sky": [{"vdop": 2.95, "tdop": 1.84, "satellites": [{"el": 52, "PRN": 12, "used": true, "az": 292, "ss": 33}, {"el": 60, "PRN": 2, "used": true, "az": 303, "ss": 34}, {"el": 49, "PRN": 6, "used": true, "az": 34, "ss": 30}, {"el": 44, "PRN": 19, "used": true, "az": 88, "ss": 21}, {"el": 32, "PRN": 17, "used": true, "az": 100, "ss": 26}, {"el": 16, "PRN": 5, "used": true, "az": 205, "ss": 16}, {"el": 15, "PRN": 9, "used": true, "az": 97, "ss": 16}, {"el": 32, "PRN": 25, "used": false, "az": 309, "ss": 0}, {"el": 7, "PRN": 23, "used": false, "az": 58, "ss": 0}, {"el": 25, "PRN": 4, "used": false, "az": 262, "ss": 0}, {"el": 3, "PRN": 24, "used": false, "az": 244, "ss": 0}, {"el": 27, "PRN": 135, "used": false, "az": 241, "ss": 0}], "ydop": 1.26, "hdop": 3.2, "time": "2000-01-15T15:55:46.000Z", "xdop": 0.65, "class": "SKY", "device": "/dev/ttyUSB0", "gdop": 3.76, "pdop": 3.28}], "gst": [{"lon": 0.0, "orient": 0.0, "minor": 0.0, "major": 0.0, "time": "1970-01-01T00:00:00.000Z", "alt": 0.0, "class": "GST", "rms": 0.0, "lat": 0.0, "device": "/dev/ttyUSB0"}], "time": "2018-04-09T07:19:29.081Z", "tpv": [{"epv": 67.867, "time": "2000-01-15T15:55:48.000Z", "epy": 18.974, "ept": 0.005, "eps": 37.95, "track": 0.0, "lon": -84.628501372, "alt": 286.744, "lat": 33.75363501, "epx": 9.784, "speed": 0.0, "device": "/dev/ttyUSB0", "mode": 3, "climb": 0.0, "class": "TPV", "epc": 135.73}], "class": "POLL"}
{"active": 1, "sky": [{"vdop": 2.95, "tdop": 1.84, "satellites": [{"el": 52, "PRN": 12, "used": true, "az": 292, "ss": 34}, {"el": 60, "PRN": 2, "used": true, "az": 303, "ss": 34}, {"el": 49, "PRN": 6, "used": true, "az": 34, "ss": 27}, {"el": 44, "PRN": 19, "used": true, "az": 88, "ss": 23}, {"el": 32, "PRN": 17, "used": true, "az": 100, "ss": 27}, {"el": 16, "PRN": 5, "used": true, "az": 205, "ss": 23}, {"el": 15, "PRN": 9, "used": true, "az": 97, "ss": 14}, {"el": 32, "PRN": 25, "used": false, "az": 309, "ss": 0}, {"el": 7, "PRN": 23, "used": false, "az": 58, "ss": 0}, {"el": 25, "PRN": 4, "used": false, "az": 262, "ss": 0}, {"el": 3, "PRN": 24, "used": false, "az": 244, "ss": 0}, {"el": 27, "PRN": 135, "used": false, "az": 241, "ss": 0}], "ydop": 1.26, "hdop": 3.2, "time": "2000-01-15T15:55:52.000Z", "xdop": 0.65, "class": "SKY", "device": "/dev/ttyUSB0", "gdop": 3.76, "pdop": 3.28}], "gst": [{"lon": 0.0, "orient": 0.0, "minor": 0.0, "major": 0.0, "time": "1970-01-01T00:00:00.000Z", "alt": 0.0, "class": "GST", "rms": 0.0, "lat": 0.0, "device": "/dev/ttyUSB0"}], "time": "2018-04-09T07:19:34.112Z", "tpv": [{"epv": 67.867, "time": "2000-01-15T15:55:54.000Z", "epy": 18.974, "ept": 0.005, "eps": 37.95, "track": 0.0, "lon": -84.628491637, "alt": 288.206, "lat": 33.75363705, "epx": 9.784, "speed": 0.0, "device": "/dev/ttyUSB0", "mode": 3, "climb": 0.0, "class": "TPV", "epc": 135.73}], "class": "POLL"}
{"active": 1, "sky": [{"vdop": 2.95, "tdop": 1.84, "satellites": [{"el": 52, "PRN": 12, "used": true, "az": 292, "ss": 35}, {"el": 60, "PRN": 2, "used": true, "az": 303, "ss": 35}, {"el": 49, "PRN": 6, "used": true, "az": 34, "ss": 28}, {"el": 44, "PRN": 19, "used": true, "az": 88, "ss": 22}, {"el": 32, "PRN": 17, "used": true, "az": 100, "ss": 31}, {"el": 16, "PRN": 5, "used": true, "az": 205, "ss": 21}, {"el": 15, "PRN": 9, "used": true, "az": 97, "ss": 14}, {"el": 32, "PRN": 25, "used": false, "az": 309, "ss": 0}, {"el": 7, "PRN": 23, "used": false, "az": 58, "ss": 0}, {"el": 25, "PRN": 4, "used": false, "az": 262, "ss": 0}, {"el": 3, "PRN": 24, "used": false, "az": 244, "ss": 0}, {"el": 27, "PRN": 135, "used": false, "az": 241, "ss": 0}], "ydop": 1.26, "hdop": 3.2, "time": "2000-01-15T15:55:58.000Z", "xdop": 0.65, "class": "SKY", "device": "/dev/ttyUSB0", "gdop": 3.76, "pdop": 3.28}], "gst": [{"lon": 0.0, "orient": 0.0, "minor": 0.0, "major": 0.0, "time": "1970-01-01T00:00:00.000Z", "alt": 0.0, "class": "GST", "rms": 0.0, "lat": 0.0, "device": "/dev/ttyUSB0"}], "time": "2018-04-09T07:19:39.138Z", "tpv": [{"epv": 67.867, "time": "2000-01-15T15:55:59.000Z", "epy": 18.974, "ept": 0.005, "eps": 37.95, "track": 0.0, "lon": -84.628491637, "alt": 288.206, "lat": 33.75363705, "epx": 9.784, "speed": 0.0, "device": "/dev/ttyUSB0", "mode": 3, "climb": 0.0, "class": "TPV", "epc": 135.73}], "class": "POLL"}
{"active": 1, "sky": [{"vdop": 2.95, "tdop": 1.84, "satellites": [{"el": 52, "PRN": 12, "used": true, "az": 292, "ss": 36}, {"el": 60, "PRN": 2, "used": true, "az": 303, "ss": 28}, {"el": 49, "PRN": 6, "used": true, "az": 34, "ss": 36}, {"el": 44, "PRN": 19, "used": true, "az": 88, "ss": 22}, {"el": 32, "PRN": 17, "used": true, "az": 100, "ss": 30}, {"el": 16, "PRN": 5, "used": true, "az": 205, "ss": 27}, {"el": 15, "PRN": 9, "used": true, "az": 97, "ss": 15}, {"el": 32, "PRN": 25, "used": true, "az": 309, "ss": 19}, {"el": 7, "PRN": 23, "used": false, "az": 58, "ss": 0}, {"el": 25, "PRN": 4, "used": false, "az": 262, "ss": 0}, {"el": 3, "PRN": 24, "used": false, "az": 244, "ss": 0}, {"el": 27, "PRN": 135, "used": false, "az": 241, "ss": 0}], "ydop": 1.26, "hdop": 3.2, "time": "2000-01-15T15:56:01.000Z", "xdop": 0.65, "class": "SKY", "device": "/dev/ttyUSB0", "gdop": 3.76, "pdop": 3.28}], "gst": [{"lon": 0.0, "orient": 0.0, "minor": 0.0, "major": 0.0, "time": "1970-01-01T00:00:00.000Z", "alt": 0.0, "class": "GST", "rms": 0.0, "lat": 0.0, "device": "/dev/ttyUSB0"}], "time": "2018-04-09T07:19:44.164Z", "tpv": [{"epv": 67.867, "time": "2000-01-15T15:56:03.000Z", "epy": 18.974, "ept": 0.005, "eps": 37.95, "track": 18.4342, "lon": -84.628490627, "alt": 287.378, "lat": 33.753642037, "epx": 9.784, "speed": 0.468, "device": "/dev/ttyUSB0", "mode": 3, "climb": 0.011, "class": "TPV", "epc": 135.73}], "class": "POLL"}
{"active": 1, "sky": [{"vdop": 2.95, "tdop": 1.84, "satellites": [{"el": 52, "PRN": 12, "used": true, "az": 292, "ss": 45}, {"el": 60, "PRN": 2, "used": true, "az": 303, "ss": 38}, {"el": 49, "PRN": 6, "used": true, "az": 34, "ss": 41}, {"el": 44, "PRN": 19, "used": true, "az": 88, "ss": 37}, {"el": 32, "PRN": 17, "used": true, "az": 100, "ss": 39}, {"el": 16, "PRN": 5, "used": true, "az": 205, "ss": 36}, {"el": 15, "PRN": 9, "used": true, "az": 97, "ss": 25}, {"el": 32, "PRN": 25, "used": true, "az": 309, "ss": 34}, {"el": 7, "PRN": 23, "used": false, "az": 58, "ss": 0}, {"el": 25, "PRN": 4, "used": false, "az": 262, "ss": 0}, {"el": 3, "PRN": 24, "used": false, "az": 244, "ss": 0}, {"el": 27, "PRN": 135, "used": false, "az": 241, "ss": 0}], "ydop": 1.26, "hdop": 3.2, "time": "2000-01-15T15:56:07.000Z", "xdop": 0.65, "class": "SKY", "device": "/dev/ttyUSB0", "gdop": 3.76, "pdop": 3.28}], "gst": [{"lon": 0.0, "orient": 0.0, "minor": 0.0, "major": 0.0, "time": "1970-01-01T00:00:00.000Z", "alt": 0.0, "class": "GST", "rms": 0.0, "lat": 0.0, "device": "/dev/ttyUSB0"}], "time": "2018-04-09T07:19:49.194Z", "tpv": [{"epv": 67.867, "time": "2000-01-15T15:56:09.000Z", "epy": 18.974, "ept": 0.005, "eps": 37.95, "track": 92.9906, "lon": -84.62849632, "alt": 283.717, "lat": 33.753674937, "epx": 9.784, "speed": 0.125, "device": "/dev/ttyUSB0", "mode": 3, "climb": 0.01, "class": "TPV", "epc": 135.73}], "class": "POLL"}
{"active": 1, "sky": [{"vdop": 2.95, "tdop": 1.84, "satellites": [{"el": 52, "PRN": 12, "used": true, "az": 292, "ss": 44}, {"el": 60, "PRN": 2, "used": true, "az": 303, "ss": 40}, {"el": 49, "PRN": 6, "used": true, "az": 34, "ss": 44}, {"el": 44, "PRN": 19, "used": true, "az": 88, "ss": 39}, {"el": 32, "PRN": 17, "used": true, "az": 100, "ss": 39}, {"el": 16, "PRN": 5, "used": true, "az": 205, "ss": 40}, {"el": 15, "PRN": 9, "used": true, "az": 97, "ss": 26}, {"el": 32, "PRN": 25, "used": true, "az": 309, "ss": 26}, {"el": 7, "PRN": 23, "used": false, "az": 58, "ss": 0}, {"el": 25, "PRN": 4, "used": false, "az": 262, "ss": 0}, {"el": 3, "PRN": 24, "used": false, "az": 244, "ss": 0}, {"el": 8, "PRN": 120, "used": false, "az": 100, "ss": 0}], "ydop": 1.26, "hdop": 3.2, "time": "2000-01-15T15:56:13.000Z", "xdop": 0.65, "class": "SKY", "device": "/dev/ttyUSB0", "gdop": 3.76, "pdop": 3.28}], "gst": [{"lon": 0.0, "orient": 0.0, "minor": 0.0, "major": 0.0, "time": "1970-01-01T00:00:00.000Z", "alt": 0.0, "class": "GST", "rms": 0.0, "lat": 0.0, "device": "/dev/ttyUSB0"}], "time": "2018-04-09T07:19:54.220Z", "tpv": [{"epv": 67.867, "time": "2000-01-15T15:56:14.000Z", "epy": 18.974, "ept": 0.005, "eps": 37.95, "track": 39.2613, "lon": -84.628493289, "alt": 280.678, "lat": 33.753682403, "epx": 9.784, "speed": 0.43, "device": "/dev/ttyUSB0", "mode": 3, "climb": -0.049, "class": "TPV", "epc": 135.73}], "class": "POLL"}
{"active": 1, "sky": [{"vdop": 2.95, "tdop": 1.84, "satellites": [{"el": 52, "PRN": 12, "used": true, "az": 292, "ss": 44}, {"el": 60, "PRN": 2, "used": true, "az": 303, "ss": 41}, {"el": 49, "PRN": 6, "used": true, "az": 34, "ss": 44}, {"el": 44, "PRN": 19, "used": true, "az": 88, "ss": 34}, {"el": 32, "PRN": 17, "used": true, "az": 100, "ss": 37}, {"el": 16, "PRN": 5, "used": true, "az": 205, "ss": 40}, {"el": 15, "PRN": 9, "used": true, "az": 97, "ss": 26}, {"el": 32, "PRN": 25, "used": false, "az": 309, "ss": 24}, {"el": 7, "PRN": 23, "used": false, "az": 58, "ss": 0}, {"el": 25, "PRN": 4, "used": false, "az": 262, "ss": 0}, {"el": 3, "PRN": 24, "used": false, "az": 244, "ss": 0}, {"el": 8, "PRN": 120, "used": false, "az": 100, "ss": 0}], "ydop": 1.26, "hdop": 3.2, "time": "2000-01-15T15:56:16.000Z", "xdop": 0.65, "class": "SKY", "device": "/dev/ttyUSB0", "gdop": 3.76, "pdop": 3.28}], "gst": [{"lon": 0.0, "orient": 0.0, "minor": 0.0, "major": 0.0, "time": "1970-01-01T00:00:00.000Z", "alt": 0.0, "class": "GST", "rms": 0.0, "lat": 0.0, "device": "/dev/ttyUSB0"}], "time": "2018-04-09T07:19:59.243Z", "tpv": [{"epv": 67.867, "time": "2000-01-15T15:56:18.000Z", "epy": 18.974, "ept": 0.005, "eps": 37.95, "track": 31.9233, "lon": -84.628480523, "alt": 280.211, "lat": 33.7537069, "epx": 9.784, "speed": 0.515, "device": "/dev/ttyUSB0", "mode": 3, "climb": 0.021, "class": "TPV", "epc": 135.73}], "class": "POLL"}
{"active": 1, "sky": [{"vdop": 2.95, "tdop": 1.84, "satellites": [{"el": 52, "PRN": 12, "used": true, "az": 292, "ss": 47}, {"el": 60, "PRN": 2, "used": true, "az": 303, "ss": 44}, {"el": 49, "PRN": 6, "used": true, "az": 34, "ss": 44}, {"el": 44, "PRN": 19, "used": true, "az": 88, "ss": 30}, {"el": 32, "PRN": 17, "used": true, "az": 100, "ss": 31}, {"el": 16, "PRN": 5, "used": true, "az": 205, "ss": 35}, {"el": 15, "PRN": 9, "used": false, "az": 97, "ss": 0}, {"el": 32, "PRN": 25, "used": true, "az": 309, "ss": 32}, {"el": 7, "PRN": 23, "used": false, "az": 58, "ss": 0}, {"el": 25, "PRN": 4, "used": false, "az": 262, "ss": 0}, {"el": 3, "PRN": 24, "used": false, "az": 244, "ss": 0}, {"el": 8, "PRN": 120, "used": false, "az": 100, "ss": 0}], "ydop": 1.26, "hdop": 3.2, "time": "2000-01-15T15:56:22.000Z", "xdop": 0.65, "class": "SKY", "device": "/dev/ttyUSB0", "gdop": 3.76, "pdop": 3.28}], "gst": [{"lon": 0.0, "orient": 0.0, "minor": 0.0, "major": 0.0, "time": "1970-01-01T00:00:00.000Z", "alt": 0.0, "class": "GST", "rms": 0.0, "lat": 0.0, "device": "/dev/ttyUSB0"}], "time": "2018-04-09T07:20:04.274Z", "tpv": [{"epv": 67.867, "time": "2000-01-15T15:56:24.000Z", "epy": 18.974, "ept": 0.005, "eps": 37.95, "track": 347.5209, "lon": -84.628498983, "alt": 277.572, "lat": 33.753722799, "epx": 9.784, "speed": 0.468, "device": "/dev/ttyUSB0", "mode": 3, "climb": -0.008, "class": "TPV", "epc": 135.73}], "class": "POLL"}
{"active": 1, "sky": [{"vdop": 2.95, "tdop": 1.84, "satellites": [{"el": 52, "PRN": 12, "used": true, "az": 292, "ss": 38}, {"el": 60, "PRN": 2, "used": true, "az": 303, "ss": 42}, {"el": 49, "PRN": 6, "used": true, "az": 34, "ss": 45}, {"el": 7, "PRN": 23, "used": true, "az": 58, "ss": 21}, {"el": 32, "PRN": 17, "used": true, "az": 100, "ss": 38}, {"el": 16, "PRN": 5, "used": true, "az": 205, "ss": 39}, {"el": 15, "PRN": 9, "used": true, "az": 97, "ss": 26}, {"el": 32, "PRN": 25, "used": true, "az": 309, "ss": 33}, {"el": 44, "PRN": 19, "used": true, "az": 88, "ss": 29}, {"el": 25, "PRN": 4, "used": false, "az": 262, "ss": 0}, {"el": 3, "PRN": 24, "used": false, "az": 244, "ss": 0}, {"el": 8, "PRN": 120, "used": false, "az": 100, "ss": 0}], "ydop": 1.26, "hdop": 3.2, "time": "2000-01-15T15:56:28.000Z", "xdop": 0.65, "class": "SKY", "device": "/dev/ttyUSB0", "gdop": 3.76, "pdop": 3.28}], "gst": [{"lon": 0.0, "orient": 0.0, "minor": 0.0, "major": 0.0, "time": "1970-01-01T00:00:00.000Z", "alt": 0.0, "class": "GST", "rms": 0.0, "lat": 0.0, "device": "/dev/ttyUSB0"}], "time": "2018-04-09T07:20:09.300Z", "tpv": [{"epv": 67.867, "time": "2000-01-15T15:56:29.000Z", "epy": 18.974, "ept": 0.005, "eps": 37.95, "track": 0.0, "lon": -84.628508718, "alt": 276.667, "lat": 33.753728255, "epx": 9.784, "speed": 0.0, "device": "/dev/ttyUSB0", "mode": 3, "climb": 0.0, "class": "TPV", "epc": 135.73}], "class": "POLL"}
{"active": 1, "sky": [{"vdop": 2.95, "tdop": 1.84, "satellites": [{"el": 52, "PRN": 12, "used": true, "az": 292, "ss": 44}, {"el": 60, "PRN": 2, "used": true, "az": 303, "ss": 35}, {"el": 49, "PRN": 6, "used": true, "az": 34, "ss": 46}, {"el": 7, "PRN": 23, "used": true, "az": 58, "ss": 22}, {"el": 32, "PRN": 17, "used": true, "az": 100, "ss": 39}, {"el": 16, "PRN": 5, "used": true, "az": 205, "ss": 39}, {"el": 15, "PRN": 9, "used": true, "az": 97, "ss": 34}, {"el": 32, "PRN": 25, "used": true, "az": 309, "ss": 29}, {"el": 44, "PRN": 19, "used": true, "az": 88, "ss": 32}, {"el": 25, "PRN": 4, "used": false, "az": 262, "ss": 0}, {"el": 3, "PRN": 24, "used": false, "az": 244, "ss": 0}, {"el": 8, "PRN": 120, "used": false, "az": 100, "ss": 0}], "ydop": 1.26, "hdop": 3.2, "time": "2000-01-15T15:56:34.000Z", "xdop": 0.65, "class": "SKY", "device": "/dev/ttyUSB0", "gdop": 3.76, "pdop": 3.28}], "gst": [{"lon": 0.0, "orient": 0.0, "minor": 0.0, "major": 0.0, "time": "1970-01-01T00:00:00.000Z", "alt": 0.0, "class": "GST", "rms": 0.0, "lat": 0.0, "device": "/dev/ttyUSB0"}], "time": "2018-04-09T07:20:14.327Z", "tpv": [{"epv": 67.867, "time": "2000-01-15T15:56:33.000Z", "epy": 18.974, "ept": 0.005, "eps": 37.95, "track": 0.0, "lon": -84.628508718, "alt": 277.222, "lat": 33.753735751, "epx": 9.784, "speed": 0.0, "device": "/dev/ttyUSB0", "mode": 3, "climb": 0.0, "class": "TPV", "epc": 135.73}], "class": "POLL"}
{"active": 1, "sky": [{"vdop": 2.95, "tdop": 1.84, "satellites": [{"el": 52, "PRN": 12, "used": true, "az": 292, "ss": 44}, {"el": 60, "PRN": 2, "used": true, "az": 303, "ss": 36}, {"el": 49, "PRN": 6, "used": true, "az": 34, "ss": 46}, {"el": 7, "PRN": 23, "used": true, "az": 58, "ss": 23}, {"el": 32, "PRN": 17, "used": true, "az": 100, "ss": 39}, {"el": 16, "PRN": 5, "used": true, "az": 205, "ss": 40}, {"el": 15, "PRN": 9, "used": true, "az": 97, "ss": 30}, {"el": 32, "PRN": 25, "used": true, "az": 309, "ss": 29}, {"el": 44, "PRN": 19, "used": true, "az": 88, "ss": 32}, {"el": 25, "PRN": 4, "used": false, "az": 262, "ss": 0}, {"el": 3, "PRN": 24, "used": false, "az": 244, "ss": 0}, {"el": 8, "PRN": 120, "used": false, "az": 100, "ss": 0}], "ydop": 1.26, "hdop": 2.4, "time": "2000-01-15T15:56:37.000Z", "xdop": 0.65, "class": "SKY", "device": "/dev/ttyUSB0", "gdop": 3.76, "pdop": 3.28}], "gst": [{"lon": 0.0, "orient": 0.0, "minor": 0.0, "major": 0.0, "time": "1970-01-01T00:00:00.000Z", "alt": 0.0, "class": "GST", "rms": 0.0, "lat": 0.0, "device": "/dev/ttyUSB0"}], "time": "2018-04-09T07:20:19.361Z", "tpv": [{"epv": 67.867, "time": "2000-01-15T15:56:39.000Z", "epy": 18.974, "ept": 0.005, "eps": 37.95, "track": 0.0, "lon": -84.628518453, "alt": 276.317, "lat": 33.753741207, "epx": 9.784, "speed": 0.0, "device": "/dev/ttyUSB0", "mode": 3, "climb": 0.0, "class": "TPV", "epc": 135.73}], "class": "POLL"}
{"active": 1, "sky": [{"vdop": 2.95, "tdop": 1.84, "satellites": [{"el": 52, "PRN": 12, "used": true, "az": 292, "ss": 47}, {"el": 60, "PRN": 2, "used": true, "az": 303, "ss": 46}, {"el": 49, "PRN": 6, "used": true, "az": 34, "ss": 45}, {"el": 7, "PRN": 23, "used": true, "az": 58, "ss": 23}, {"el": 32, "PRN": 17, "used": true, "az": 100, "ss": 38}, {"el": 16, "PRN": 5, "used": true, "az": 205, "ss": 40}, {"el": 15, "PRN": 9, "used": true, "az": 97, "ss": 27}, {"el": 32, "PRN": 25, "used": true, "az": 309, "ss": 29}, {"el": 44, "PRN": 19, "used": false, "az": 88, "ss": 0}, {"el": 25, "PRN": 4, "used": false, "az": 262, "ss": 0}, {"el": 3, "PRN": 24, "used": false, "az": 244, "ss": 0}, {"el": 43, "PRN": 138, "used": true, "az": 216, "ss": 31}], "ydop": 1.26, "hdop": 2.4, "time": "2000-01-15T15:56:43.000Z", "xdop": 0.65, "class": "SKY", "device": "/dev/ttyUSB0", "gdop": 3.76, "pdop": 3.28}], "gst": [{"lon": 0.0, "orient": 0.0, "minor": 0.0, "major": 0.0, "time": "1970-01-01T00:00:00.000Z", "alt": 0.0, "class": "GST", "rms": 0.0, "lat": 0.0, "device": "/dev/ttyUSB0"}], "time": "2018-04-09T07:20:24.387Z", "tpv": [{"epv": 67.867, "time": "2000-01-15T15:56:44.000Z", "epy": 18.974, "ept": 0.005, "eps": 37.95, "track": 0.0, "lon": -84.628518453, "alt": 276.317, "lat": 33.753741207, "epx": 9.784, "speed": 0.0, "device": "/dev/ttyUSB0", "mode": 3, "climb": 0.0, "class": "TPV", "epc": 135.73}], "class": "POLL"}
{"active": 1, "sky": [{"vdop": 2.95, "tdop": 1.84, "satellites": [{"el": 52, "PRN": 12, "used": true, "az": 292, "ss": 46}, {"el": 60, "PRN": 2, "used": true, "az": 303, "ss": 45}, {"el": 49, "PRN": 6, "used": true, "az": 34, "ss": 45}, {"el": 7, "PRN": 23, "used": true, "az": 58, "ss": 23}, {"el": 32, "PRN": 17, "used": true, "az": 100, "ss": 41}, {"el": 16, "PRN": 5, "used": true, "az": 205, "ss": 41}, {"el": 15, "PRN": 9, "used": true, "az": 97, "ss": 29}, {"el": 32, "PRN": 25, "used": true, "az": 309, "ss": 31}, {"el": 44, "PRN": 19, "used": false, "az": 88, "ss": 0}, {"el": 25, "PRN": 4, "used": false, "az": 262, "ss": 0}, {"el": 3, "PRN": 24, "used": false, "az": 244, "ss": 0}, {"el": 43, "PRN": 138, "used": true, "az": 216, "ss": 37}], "ydop": 1.26, "hdop": 2.4, "time": "2000-01-15T15:56:49.000Z", "xdop": 0.65, "class": "SKY", "device": "/dev/ttyUSB0", "gdop": 3.76, "pdop": 3.28}], "gst": [{"lon": 0.0, "orient": 0.0, "minor": 0.0, "major": 0.0, "time": "1970-01-01T00:00:00.000Z", "alt": 0.0, "class": "GST", "rms": 0.0, "lat": 0.0, "device": "/dev/ttyUSB0"}], "time": "2018-04-09T07:20:29.413Z", "tpv": [{"epv": 67.867, "time": "2000-01-15T15:56:49.000Z", "epy": 18.974, "ept": 0.005, "eps": 37.95, "track": 0.0, "lon": -84.628518453, "alt": 276.317, "lat": 33.753741207, "epx": 9.784, "speed": 0.0, "device": "/dev/ttyUSB0", "mode": 3, "climb": 0.0, "class": "TPV", "epc": 135.73}], "class": "POLL"}
{"active": 1, "sky": [{"vdop": 2.95, "tdop": 1.84, "satellites": [{"el": 52, "PRN": 12, "used": true, "az": 292, "ss": 46}, {"el": 60, "PRN": 2, "used": true, "az": 303, "ss": 44}, {"el": 49, "PRN": 6, "used": true, "az": 34, "ss": 45}, {"el": 7, "PRN": 23, "used": true, "az": 58, "ss": 26}, {"el": 32, "PRN": 17, "used": true, "az": 100, "ss": 40}, {"el": 16, "PRN": 5, "used": true, "az": 205, "ss": 40}, {"el": 15, "PRN": 9, "used": true, "az": 97, "ss": 27}, {"el": 32, "PRN": 25, "used": true, "az": 309, "ss": 33}, {"el": 44, "PRN": 19, "used": true, "az": 88, "ss": 33}, {"el": 25, "PRN": 4, "used": false, "az": 262, "ss": 0}, {"el": 3, "PRN": 24, "used": false, "az": 244, "ss": 0}, {"el": 43, "PRN": 138, "used": true, "az": 216, "ss": 36}], "ydop": 1.26, "hdop": 3.2, "time": "2000-01-15T15:56:52.000Z", "xdop": 0.65, "class": "SKY", "device": "/dev/ttyUSB0", "gdop": 3.76, "pdop": 3.28}], "gst": [{"lon": 0.0, "orient": 0.0, "minor": 0.0, "major": 0.0, "time": "1970-01-01T00:00:00.000Z", "alt": 0.0, "class": "GST", "rms": 0.0, "lat": 0.0, "device": "/dev/ttyUSB0"}], "time": "2018-04-09T07:20:34.442Z", "tpv": [{"epv": 67.867, "time": "2000-01-15T15:56:54.000Z", "epy": 18.974, "ept": 0.005, "eps": 37.95, "track": 65.292, "lon": -84.628517443, "alt": 276.045, "lat": 33.753753689, "epx": 9.784, "speed": 0.15, "device": "/dev/ttyUSB0", "mode": 3, "climb": -0.094, "class": "TPV", "epc": 135.73}], "class": "POLL"}
{"active": 1, "sky": [{"vdop": 2.95, "tdop": 1.84, "satellites": [{"el": 53, "PRN": 12, "used": true, "az": 291, "ss": 46}, {"el": 60, "PRN": 2, "used": true, "az": 304, "ss": 44}, {"el": 49, "PRN": 6, "used": true, "az": 36, "ss": 44}, {"el": 8, "PRN": 23, "used": true, "az": 57, "ss": 21}, {"el": 31, "PRN": 17, "used": true, "az": 102, "ss": 37}, {"el": 37, "PRN": 5, "used": true, "az": 198, "ss": 34}, {"el": 16, "PRN": 9, "used": true, "az": 96, "ss": 30}, {"el": 32, "PRN": 25, "used": true, "az": 307, "ss": 32}, {"el": 44, "PRN": 19, "used": true, "az": 90, "ss": 33}, {"el": 26, "PRN": 4, "used": false, "az": 262, "ss": 0}, {"el": 3, "PRN": 24, "used": false, "az": 243, "ss": 0}, {"el": 43, "PRN": 138, "used": true, "az": 216, "ss": 28}], "ydop": 1.26, "hdop": 2.4, "time": "2000-01-15T15:56:58.000Z", "xdop": 0.65, "class": "SKY", "device": "/dev/ttyUSB0", "gdop": 3.76, "pdop": 3.28}], "gst": [{"lon": 0.0, "orient": 0.0, "minor": 0.0, "major": 0.0, "time": "1970-01-01T00:00:00.000Z", "alt": 0.0, "class": "GST", "rms": 0.0, "lat": 0.0, "device": "/dev/ttyUSB0"}], "time": "2018-04-09T07:20:39.468Z", "tpv": [{"epv": 67.867, "time": "2000-01-15T15:56:59.000Z", "epy": 18.974, "ept": 0.005, "eps": 37.95, "track": 20.6839, "lon": -84.628517443, "alt": 276.045, "lat": 33.753753689, "epx": 9.784, "speed": 0.837, "device": "/dev/ttyUSB0", "mode": 3, "climb": -0.047, "class": "TPV", "epc": 135.73}], "class": "POLL"}
{"active": 1, "sky": [{"vdop": 2.95, "tdop": 1.84, "satellites": [{"el": 53, "PRN": 12, "used": true, "az": 291, "ss": 46}, {"el": 60, "PRN": 2, "used": true, "az": 304, "ss": 43}, {"el": 49, "PRN": 6, "used": true, "az": 36, "ss": 46}, {"el": 8, "PRN": 23, "used": true, "az": 57, "ss": 25}, {"el": 31, "PRN": 17, "used": true, "az": 102, "ss": 38}, {"el": 37, "PRN": 5, "used": true, "az": 198, "ss": 42}, {"el": 16, "PRN": 9, "used": true, "az": 96, "ss": 29}, {"el": 32, "PRN": 25, "used": true, "az": 307, "ss": 32}, {"el": 44, "PRN": 19, "used": true, "az": 90, "ss": 40}, {"el": 26, "PRN": 4, "used": false, "az": 262, "ss": 0}, {"el": 3, "PRN": 24, "used": false, "az": 243, "ss": 0}, {"el": 43, "PRN": 138, "used": true, "az": 216, "ss": 34}], "ydop": 1.26, "hdop": 2.4, "time": "2000-01-15T15:57:04.000Z", "xdop": 0.65, "class": "SKY", "device": "/dev/ttyUSB0", "gdop": 3.76, "pdop": 3.28}], "gst": [{"lon": 0.0, "orient": 0.0, "minor": 0.0, "major": 0.0, "time": "1970-01-01T00:00:00.000Z", "alt": 0.0, "class": "GST", "rms": 0.0, "lat": 0.0, "device": "/dev/ttyUSB0"}], "time": "2018-04-09T07:20:44.492Z", "tpv": [{"epv": 67.867, "time": "2000-01-15T15:57:04.000Z", "epy": 18.974, "ept": 0.005, "eps": 37.95, "track": 258.842, "lon": -84.628560425, "alt": 276.289, "lat": 33.753763061, "epx": 9.784, "speed": 1.419, "device": "/dev/ttyUSB0", "mode": 3, "climb": -0.039, "class": "TPV", "epc": 135.73}], "class": "POLL"}
{"active": 1, "sky": [{"vdop": 2.95, "tdop": 1.84, "satellites": [{"el": 53, "PRN": 12, "used": true, "az": 291, "ss": 46}, {"el": 60, "PRN": 2, "used": true, "az": 304, "ss": 43}, {"el": 49, "PRN": 6, "used": true, "az": 36, "ss": 47}, {"el": 8, "PRN": 23, "used": true, "az": 57, "ss": 24}, {"el": 31, "PRN": 17, "used": true, "az": 102, "ss": 38}, {"el": 37, "PRN": 5, "used": true, "az": 198, "ss": 34}, {"el": 16, "PRN": 9, "used": true, "az": 96, "ss": 32}, {"el": 32, "PRN": 25, "used": true, "az": 307, "ss": 38}, {"el": 44, "PRN": 19, "used": true, "az": 90, "ss": 39}, {"el": 26, "PRN": 4, "used": false, "az": 262, "ss": 0}, {"el": 3, "PRN": 24, "used": false, "az": 243, "ss": 0}, {"el": 43, "PRN": 138, "used": true, "az": 216, "ss": 39}], "ydop": 1.26, "hdop": 2.4, "time": "2000-01-15T15:57:07.000Z", "xdop": 0.65, "class": "SKY", "device": "/dev/ttyUSB0", "gdop": 3.76, "pdop": 3.28}], "gst": [{"lon": 0.0, "orient": 0.0, "minor": 0.0, "major": 0.0, "time": "1970-01-01T00:00:00.000Z", "alt": 0.0, "class": "GST", "rms": 0.0, "lat": 0.0, "device": "/dev/ttyUSB0"}], "time": "2018-04-09T07:20:49.518Z", "tpv": [{"epv": 67.867, "time": "2000-01-15T15:57:09.000Z", "epy": 18.974, "ept": 0.005, "eps": 37.95, "track": 222.1318, "lon": -84.628626918, "alt": 275.255, "lat": 33.753725917, "epx": 9.784, "speed": 1.386, "device": "/dev/ttyUSB0", "mode": 3, "climb": -0.037, "class": "TPV", "epc": 135.73}], "class": "POLL"}
{"active": 1, "sky": [{"vdop": 2.95, "tdop": 1.84, "satellites": [{"el": 53, "PRN": 12, "used": true, "az": 291, "ss": 46}, {"el": 60, "PRN": 2, "used": true, "az": 304, "ss": 43}, {"el": 49, "PRN": 6, "used": true, "az": 36, "ss": 47}, {"el": 8, "PRN": 23, "used": true, "az": 57, "ss": 24}, {"el": 31, "PRN": 17, "used": true, "az": 102, "ss": 44}, {"el": 37, "PRN": 5, "used": true, "az": 198, "ss": 44}, {"el": 16, "PRN": 9, "used": true, "az": 96, "ss": 30}, {"el": 32, "PRN": 25, "used": true, "az": 307, "ss": 33}, {"el": 44, "PRN": 19, "used": true, "az": 90, "ss": 39}, {"el": 26, "PRN": 4, "used": false, "az": 262, "ss": 0}, {"el": 3, "PRN": 24, "used": false, "az": 243, "ss": 0}, {"el": 43, "PRN": 138, "used": true, "az": 216, "ss": 37}], "ydop": 1.26, "hdop": 2.4, "time": "2000-01-15T15:57:13.000Z", "xdop": 0.65, "class": "SKY", "device": "/dev/ttyUSB0", "gdop": 3.76, "pdop": 3.28}], "gst": [{"lon": 0.0, "orient": 0.0, "minor": 0.0, "major": 0.0, "time": "1970-01-01T00:00:00.000Z", "alt": 0.0, "class": "GST", "rms": 0.0, "lat": 0.0, "device": "/dev/ttyUSB0"}], "time": "2018-04-09T07:20:54.544Z", "tpv": [{"epv": 67.867, "time": "2000-01-15T15:57:14.000Z", "epy": 18.974, "ept": 0.005, "eps": 37.95, "track": 259.975, "lon": -84.628705167, "alt": 274.971, "lat": 33.753684256, "epx": 9.784, "speed": 1.54, "device": "/dev/ttyUSB0", "mode": 3, "climb": -0.049, "class": "TPV", "epc": 135.73}], "class": "POLL"}
{"active": 1, "sky": [{"vdop": 2.95, "tdop": 1.84, "satellites": [{"el": 53, "PRN": 12, "used": true, "az": 291, "ss": 37}, {"el": 60, "PRN": 2, "used": true, "az": 304, "ss": 42}, {"el": 49, "PRN": 6, "used": true, "az": 36, "ss": 47}, {"el": 8, "PRN": 23, "used": true, "az": 57, "ss": 24}, {"el": 31, "PRN": 17, "used": true, "az": 102, "ss": 38}, {"el": 37, "PRN": 5, "used": true, "az": 198, "ss": 40}, {"el": 16, "PRN": 9, "used": true, "az": 96, "ss": 31}, {"el": 32, "PRN": 25, "used": true, "az": 307, "ss": 31}, {"el": 44, "PRN": 19, "used": true, "az": 90, "ss": 40}, {"el": 26, "PRN": 4, "used": false, "az": 262, "ss": 0}, {"el": 3, "PRN": 24, "used": false, "az": 243, "ss": 0}, {"el": 43, "PRN": 138, "used": true, "az": 216, "ss": 34}], "ydop": 1.26, "hdop": 2.4, "time": "2000-01-15T15:57:19.000Z", "xdop": 0.65, "class": "SKY", "device": "/dev/ttyUSB0", "gdop": 3.76, "pdop": 3.28}], "gst": [{"lon": 0.0, "orient": 0.0, "minor": 0.0, "major": 0.0, "time": "1970-01-01T00:00:00.000Z", "alt": 0.0, "class": "GST", "rms": 0.0, "lat": 0.0, "device": "/dev/ttyUSB0"}], "time": "2018-04-09T07:20:59.569Z", "tpv": [{"epv": 67.867, "time": "2000-01-15T15:57:19.000Z", "epy": 18.974, "ept": 0.005, "eps": 37.95, "track": 222.6589, "lon": -84.628761925, "alt": 275.398, "lat": 33.753649152, "epx": 9.784, "speed": 1.171, "device": "/dev/ttyUSB0", "mode": 3, "climb": -0.061, "class": "TPV", "epc": 135.73}], "class": "POLL"}
{"active": 1, "sky": [{"vdop": 2.95, "tdop": 1.84, "satellites": [{"el": 53, "PRN": 12, "used": true, "az": 291, "ss": 40}, {"el": 60, "PRN": 2, "used": true, "az": 304, "ss": 41}, {"el": 49, "PRN": 6, "used": true, "az": 36, "ss": 48}, {"el": 8, "PRN": 23, "used": true, "az": 57, "ss": 24}, {"el": 31, "PRN": 17, "used": true, "az": 102, "ss": 38}, {"el": 37, "PRN": 5, "used": true, "az": 198, "ss": 39}, {"el": 16, "PRN": 9, "used": true, "az": 96, "ss": 31}, {"el": 32, "PRN": 25, "used": true, "az": 307, "ss": 34}, {"el": 44, "PRN": 19, "used": true, "az": 90, "ss": 36}, {"el": 26, "PRN": 4, "used": false, "az": 262, "ss": 0}, {"el": 3, "PRN": 24, "used": false, "az": 243, "ss": 14}, {"el": 43, "PRN": 138, "used": true, "az": 216, "ss": 35}], "ydop": 1.26, "hdop": 2.4, "time": "2000-01-15T15:57:22.000Z", "xdop": 0.65, "class": "SKY", "device": "/dev/ttyUSB0", "gdop": 3.76, "pdop": 3.28}], "gst": [{"lon": 0.0, "orient": 0.0, "minor": 0.0, "major": 0.0, "time": "1970-01-01T00:00:00.000Z", "alt": 0.0, "class": "GST", "rms": 0.0, "lat": 0.0, "device": "/dev/ttyUSB0"}], "time": "2018-04-09T07:21:04.596Z", "tpv": [{"epv": 67.867, "time": "2000-01-15T15:57:24.000Z", "epy": 18.974, "ept": 0.005, "eps": 37.95, "track": 170.9112, "lon": -84.628775701, "alt": 275.026, "lat": 33.753597181, "epx": 9.784, "speed": 1.205, "device": "/dev/ttyUSB0", "mode": 3, "climb": -0.019, "class": "TPV", "epc": 135.73}], "class": "POLL"}
{"active": 1, "sky": [{"vdop": 2.95, "tdop": 1.84, "satellites": [{"el": 53, "PRN": 12, "used": true, "az": 291, "ss": 44}, {"el": 60, "PRN": 2, "used": true, "az": 304, "ss": 44}, {"el": 49, "PRN": 6, "used": true, "az": 36, "ss": 38}, {"el": 8, "PRN": 23, "used": true, "az": 57, "ss": 23}, {"el": 31, "PRN": 17, "used": true, "az": 102, "ss": 39}, {"el": 37, "PRN": 5, "used": true, "az": 198, "ss": 39}, {"el": 16, "PRN": 9, "used": true, "az": 96, "ss": 32}, {"el": 32, "PRN": 25, "used": true, "az": 307, "ss": 33}, {"el": 44, "PRN": 19, "used": true, "az": 90, "ss": 37}, {"el": 26, "PRN": 4, "used": false, "az": 262, "ss": 0}, {"el": 3, "PRN": 24, "used": true, "az": 243, "ss": 14}, {"el": 43, "PRN": 138, "used": true, "az": 216, "ss": 33}], "ydop": 1.26, "hdop": 2.4, "time": "2000-01-15T15:57:28.000Z", "xdop": 0.65, "class": "SKY", "device": "/dev/ttyUSB0", "gdop": 3.76, "pdop": 3.28}], "gst": [{"lon": 0.0, "orient": 0.0, "minor": 0.0, "major": 0.0, "time": "1970-01-01T00:00:00.000Z", "alt": 0.0, "class": "GST", "rms": 0.0, "lat": 0.0, "device": "/dev/ttyUSB0"}], "time": "2018-04-09T07:21:09.621Z", "tpv": [{"epv": 67.867, "time": "2000-01-15T15:57:29.000Z", "epy": 18.974, "ept": 0.005, "eps": 37.95, "track": 148.6091, "lon": -84.628756231, "alt": 275.17, "lat": 33.753563782, "epx": 9.784, "speed": 0.672, "device": "/dev/ttyUSB0", "mode": 3, "climb": -0.042, "class": "TPV", "epc": 135.73}], "class": "POLL"}
{"active": 1, "sky": [{"vdop": 2.95, "tdop": 1.84, "satellites": [{"el": 53, "PRN": 12, "used": true, "az": 291, "ss": 40}, {"el": 60, "PRN": 2, "used": true, "az": 304, "ss": 41}, {"el": 49, "PRN": 6, "used": true, "az": 36, "ss": 39}, {"el": 8, "PRN": 23, "used": true, "az": 57, "ss": 19}, {"el": 31, "PRN": 17, "used": true, "az": 102, "ss": 44}, {"el": 37, "PRN": 5, "used": true, "az": 198, "ss": 44}, {"el": 16, "PRN": 9, "used": true, "az": 96, "ss": 32}, {"el": 32, "PRN": 25, "used": true, "az": 307, "ss": 34}, {"el": 44, "PRN": 19, "used": true, "az": 90, "ss": 40}, {"el": 26, "PRN": 4, "used": false, "az": 262, "ss": 0}, {"el": 3, "PRN": 24, "used": false, "az": 243, "ss": 0}, {"el": 43, "PRN": 138, "used": true, "az": 216, "ss": 40}], "ydop": 1.26, "hdop": 1.8, "time": "2000-01-15T15:57:34.000Z", "xdop": 0.65, "class": "SKY", "device": "/dev/ttyUSB0", "gdop": 3.76, "pdop": 3.28}], "gst": [{"lon": 0.0, "orient": 0.0, "minor": 0.0, "major": 0.0, "time": "1970-01-01T00:00:00.000Z", "alt": 0.0, "class": "GST", "rms": 0.0, "lat": 0.0, "device": "/dev/ttyUSB0"}], "time": "2018-04-09T07:21:14.649Z", "tpv": [{"epv": 16.967, "time": "2000-01-15T15:57:34.000Z", "epy": 4.743, "ept": 0.005, "eps": 23.72, "track": 161.4238, "lon": -84.628738781, "alt": 274.747, "lat": 33.753490426, "epx": 2.446, "speed": 0.671, "device": "/dev/ttyUSB0", "mode": 3, "climb": 0.052, "class": "TPV", "epc": 84.83}], "class": "POLL"}
