{"time": "2018-04-09T11:18:29.473Z", "class": "POLL", "active": 1, "sky": [{"pdop": 2.96, "time": "2000-04-09T15:54:40.000Z", "gdop": 3.47, "satellites": [{"el": 25, "used": true, "az": 289, "ss": 37, "PRN": 10}, {"el": 19, "used": true, "az": 42, "ss": 38, "PRN": 13}, {"el": 51, "used": true, "az": 42, "ss": 45, "PRN": 15}, {"el": 48, "used": true, "az": 310, "ss": 42, "PRN": 20}, {"el": 40, "used": true, "az": 133, "ss": 34, "PRN": 24}, {"el": 13, "used": true, "az": 187, "ss": 46, "PRN": 29}, {"el": 25, "used": true, "az": 76, "ss": 23, "PRN": 5}, {"el": 85, "used": true, "az": 238, "ss": 40, "PRN": 21}, {"el": 7, "used": true, "az": 321, "ss": 39, "PRN": 27}, {"el": 23, "used": false, "az": 136, "ss": 0, "PRN": 4}, {"el": 43, "used": true, "az": 217, "ss": 43, "PRN": 138}], "vdop": 2.34, "class": "SKY", "device": "/dev/ttyUSB0", "ydop": 1.67, "xdop": 0.71, "hdop": 1.4, "tdop": 1.81}], "gst": [{"time": "1970-01-01T00:00:00.000Z", "rms": 0.0, "minor": 0.0, "class": "GST", "device": "/dev/ttyUSB0", "lon": 0.0, "orient": 0.0, "lat": 0.0, "alt": 0.0, "major": 0.0}], "tpv": [{"epx": 10.703, "epv": 53.809, "climb": -0.106, "track": 29.2109, "mode": 3, "epy": 25.034, "device": "/dev/ttyUSB0", "lon": -83.877505839, "alt": 346.406, "eps": 50.07, "time": "2000-04-09T15:54:40.000Z", "lat": 34.039787639, "epc": 107.62, "speed": 1.465, "class": "TPV", "ept": 0.005}]}
{"time": "2018-04-09T11:18:34.589Z", "class": "POLL", "active": 1, "sky": [{"pdop": 2.96, "time": "2000-04-09T15:54:43.000Z", "gdop": 3.47, "satellites": [{"el": 25, "used": true, "az": 289, "ss": 36, "PRN": 10}, {"el": 19, "used": true, "az": 42, "ss": 38, "PRN": 13}, {"el": 51, "used": true, "az": 42, "ss": 44, "PRN": 15}, {"el": 48, "used": true, "az": 310, "ss": 41, "PRN": 20}, {"el": 40, "used": true, "az": 133, "ss": 37, "PRN": 24}, {"el": 13, "used": true, "az": 187, "ss": 45, "PRN": 29}, {"el": 25, "used": true, "az": 76, "ss": 24, "PRN": 5}, {"el": 85, "used": true, "az": 238, "ss": 39, "PRN": 21}, {"el": 7, "used": true, "az": 321, "ss": 27, "PRN": 27}, {"el": 23, "used": false, "az": 136, "ss": 23, "PRN": 4}, {"el": 43, "used": true, "az": 217, "ss": 42, "PRN": 138}], "vdop": 2.34, "class": "SKY", "device": "/dev/ttyUSB0", "ydop": 1.67, "xdop": 0.71, "hdop": 1.4, "tdop": 1.81}], "gst": [{"time": "1970-01-01T00:00:00.000Z", "rms": 0.0, "minor": 0.0, "class": "GST", "device": "/dev/ttyUSB0", "lon": 0.0, "orient": 0.0, "lat": 0.0, "alt": 0.0, "major": 0.0}], "tpv": [{"epx": 10.703, "epv": 53.809, "climb": 0.207, "track": 24.7787, "mode": 3, "epy": 25.034, "device": "/dev/ttyUSB0", "lon": -83.877468918, "alt": 346.734, "eps": 50.07, "time": "2000-04-09T15:54:45.000Z", "lat": 34.039850915, "epc": 107.62, "speed": 1.674, "class": "TPV", "ept": 0.005}]}
{"time": "2018-04-09T11:18:39.612Z", "class": "POLL", "active": 1, "sky": [{"pdop": 2.96, "time": "2000-04-09T15:54:49.000Z", "gdop": 3.47, "satellites": [{"el": 25, "used": true, "az": 289, "ss": 44, "PRN": 10}, {"el": 19, "used": true, "az": 42, "ss": 38, "PRN": 13}, {"el": 51, "used": true, "az": 42, "ss": 44, "PRN": 15}, {"el": 48, "used": true, "az": 310, "ss": 38, "PRN": 20}, {"el": 40, "used": true, "az": 133, "ss": 39, "PRN": 24}, {"el": 13, "used": true, "az": 187, "ss": 44, "PRN": 29}, {"el": 25, "used": true, "az": 76, "ss": 24, "PRN": 5}, {"el": 85, "used": true, "az": 238, "ss": 39, "PRN": 21}, {"el": 7, "used": true, "az": 321, "ss": 26, "PRN": 27}, {"el": 23, "used": false, "az": 136, "ss": 0, "PRN": 4}, {"el": 43, "used": true, "az": 217, "ss": 42, "PRN": 138}], "vdop": 2.34, "class": "SKY", "device": "/dev/ttyUSB0", "ydop": 1.67, "xdop": 0.71, "hdop": 1.4, "tdop": 1.81}], "gst": [{"time": "1970-01-01T00:00:00.000Z", "rms": 0.0, "minor": 0.0, "class": "GST", "device": "/dev/ttyUSB0", "lon": 0.0, "orient": 0.0, "lat": 0.0, "alt": 0.0, "major": 0.0}], "tpv": [{"epx": 10.703, "epv": 53.809, "climb": 0.089, "track": 10.1122, "mode": 3, "epy": 25.034, "device": "/dev/ttyUSB0", "lon": -83.877452376, "alt": 346.062, "eps": 50.07, "time": "2000-04-09T15:54:50.000Z", "lat": 34.039920284, "epc": 107.62, "speed": 1.012, "class": "TPV", "ept": 0.005}]}
{"time": "2018-04-09T11:18:44.636Z", "class": "POLL", "active": 1, "sky": [{"pdop": 2.96, "time": "2000-04-09T15:54:55.000Z", "gdop": 3.47, "satellites": [{"el": 25, "used": true, "az": 289, "ss": 42, "PRN": 10}, {"el": 19, "used": true, "az": 42, "ss": 26, "PRN": 13}, {"el": 51, "used": true, "az": 42, "ss": 42, "PRN": 15}, {"el": 48, "used": true, "az": 310, "ss": 44, "PRN": 20}, {"el": 40, "used": true, "az": 133, "ss": 39, "PRN": 24}, {"el": 13, "used": true, "az": 187, "ss": 46, "PRN": 29}, {"el": 25, "used": true, "az": 76, "ss": 19, "PRN": 5}, {"el": 85, "used": true, "az": 238, "ss": 38, "PRN": 21}, {"el": 7, "used": true, "az": 321, "ss": 36, "PRN": 27}, {"el": 23, "used": false, "az": 136, "ss": 0, "PRN": 4}, {"el": 43, "used": true, "az": 217, "ss": 41, "PRN": 138}], "vdop": 2.34, "class": "SKY", "device": "/dev/ttyUSB0", "ydop": 1.67, "xdop": 0.71, "hdop": 1.4, "tdop": 1.81}], "gst": [{"time": "1970-01-01T00:00:00.000Z", "rms": 0.0, "minor": 0.0, "class": "GST", "device": "/dev/ttyUSB0", "lon": 0.0, "orient": 0.0, "lat": 0.0, "alt": 0.0, "major": 0.0}], "tpv": [{"epx": 10.703, "epv": 53.809, "climb": 0.203, "track": 17.435, "mode": 3, "epy": 25.034, "device": "/dev/ttyUSB0", "lon": -83.877450066, "alt": 347.213, "eps": 50.07, "time": "2000-04-09T15:54:55.000Z", "lat": 34.03996767, "epc": 107.62, "speed": 0.963, "class": "TPV", "ept": 0.005}]}
{"time": "2018-04-09T11:18:49.662Z", "class": "POLL", "active": 1, "sky": [{"pdop": 2.96, "time": "2000-04-09T15:54:58.000Z", "gdop": 3.47, "satellites": [{"el": 25, "used": true, "az": 289, "ss": 39, "PRN": 10}, {"el": 19, "used": true, "az": 42, "ss": 28, "PRN": 13}, {"el": 51, "used": true, "az": 42, "ss": 45, "PRN": 15}, {"el": 48, "used": true, "az": 310, "ss": 41, "PRN": 20}, {"el": 40, "used": true, "az": 133, "ss": 33, "PRN": 24}, {"el": 13, "used": true, "az": 187, "ss": 39, "PRN": 29}, {"el": 25, "used": true, "az": 76, "ss": 19, "PRN": 5}, {"el": 85, "used": true, "az": 238, "ss": 30, "PRN": 21}, {"el": 7, "used": true, "az": 321, "ss": 44, "PRN": 27}, {"el": 23, "used": false, "az": 136, "ss": 0, "PRN": 4}, {"el": 43, "used": true, "az": 217, "ss": 43, "PRN": 138}], "vdop": 2.34, "class": "SKY", "device": "/dev/ttyUSB0", "ydop": 1.67, "xdop": 0.71, "hdop": 1.4, "tdop": 1.81}], "gst": [{"time": "1970-01-01T00:00:00.000Z", "rms": 0.0, "minor": 0.0, "class": "GST", "device": "/dev/ttyUSB0", "lon": 0.0, "orient": 0.0, "lat": 0.0, "alt": 0.0, "major": 0.0}], "tpv": [{"epx": 10.703, "epv": 53.809, "climb": 0.118, "track": 20.259, "mode": 3, "epy": 25.034, "device": "/dev/ttyUSB0", "lon": -83.877427377, "alt": 347.685, "eps": 50.07, "time": "2000-04-09T15:55:00.000Z", "lat": 34.039986551, "epc": 107.62, "speed": 0.397, "class": "TPV", "ept": 0.005}]}
{"time": "2018-04-09T11:18:54.688Z", "class": "POLL", "active": 1, "sky": [{"pdop": 2.96, "time": "2000-04-09T15:55:04.000Z", "gdop": 3.47, "satellites": [{"el": 26, "used": true, "az": 291, "ss": 43, "PRN": 10}, {"el": 19, "used": true, "az": 42, "ss": 33, "PRN": 13}, {"el": 51, "used": true, "az": 42, "ss": 46, "PRN": 15}, {"el": 49, "used": true, "az": 312, "ss": 41, "PRN": 20}, {"el": 41, "used": true, "az": 133, "ss": 38, "PRN": 24}, {"el": 13, "used": true, "az": 186, "ss": 42, "PRN": 29}, {"el": 25, "used": true, "az": 76, "ss": 22, "PRN": 5}, {"el": 85, "used": true, "az": 235, "ss": 38, "PRN": 21}, {"el": 7, "used": true, "az": 321, "ss": 42, "PRN": 27}, {"el": 22, "used": false, "az": 136, "ss": 0, "PRN": 4}, {"el": 43, "used": true, "az": 217, "ss": 40, "PRN": 138}], "vdop": 2.34, "class": "SKY", "device": "/dev/ttyUSB0", "ydop": 1.67, "xdop": 0.71, "hdop": 1.2, "tdop": 1.81}], "gst": [{"time": "1970-01-01T00:00:00.000Z", "rms": 0.0, "minor": 0.0, "class": "GST", "device": "/dev/ttyUSB0", "lon": 0.0, "orient": 0.0, "lat": 0.0, "alt": 0.0, "major": 0.0}], "tpv": [{"epx": 10.703, "epv": 53.809, "climb": -0.063, "track": 170.1273, "mode": 3, "epy": 25.034, "device": "/dev/ttyUSB0", "lon": -83.877428532, "alt": 347.389, "eps": 50.07, "time": "2000-04-09T15:55:05.000Z", "lat": 34.039966593, "epc": 107.62, "speed": 0.569, "class": "TPV", "ept": 0.005}]}
{"time": "2018-04-09T11:18:59.714Z", "class": "POLL", "active": 1, "sky": [{"pdop": 2.96, "time": "2000-04-09T15:55:10.000Z", "gdop": 3.47, "satellites": [{"el": 26, "used": true, "az": 291, "ss": 33, "PRN": 10}, {"el": 19, "used": true, "az": 42, "ss": 22, "PRN": 13}, {"el": 51, "used": true, "az": 42, "ss": 43, "PRN": 15}, {"el": 49, "used": true, "az": 312, "ss": 39, "PRN": 20}, {"el": 41, "used": true, "az": 133, "ss": 40, "PRN": 24}, {"el": 13, "used": true, "az": 186, "ss": 42, "PRN": 29}, {"el": 25, "used": true, "az": 76, "ss": 27, "PRN": 5}, {"el": 85, "used": true, "az": 235, "ss": 38, "PRN": 21}, {"el": 7, "used": true, "az": 321, "ss": 34, "PRN": 27}, {"el": 22, "used": false, "az": 136, "ss": 0, "PRN": 4}, {"el": 43, "used": true, "az": 217, "ss": 46, "PRN": 138}], "vdop": 2.34, "class": "SKY", "device": "/dev/ttyUSB0", "ydop": 1.67, "xdop": 0.71, "hdop": 1.2, "tdop": 1.81}], "gst": [{"time": "1970-01-01T00:00:00.000Z", "rms": 0.0, "minor": 0.0, "class": "GST", "device": "/dev/ttyUSB0", "lon": 0.0, "orient": 0.0, "lat": 0.0, "alt": 0.0, "major": 0.0}], "tpv": [{"epx": 10.703, "epv": 53.809, "climb": 0.0, "track": 0.0, "mode": 3, "epy": 25.034, "device": "/dev/ttyUSB0", "lon": -83.877440454, "alt": 347.005, "eps": 50.07, "time": "2000-04-09T15:55:10.000Z", "lat": 34.039947174, "epc": 107.62, "speed": 0.0, "class": "TPV", "ept": 0.005}]}
{"time": "2018-04-09T11:19:04.740Z", "class": "POLL", "active": 1, "sky": [{"pdop": 2.96, "time": "2000-04-09T15:55:13.000Z", "gdop": 3.47, "satellites": [{"el": 26, "used": true, "az": 291, "ss": 33, "PRN": 10}, {"el": 19, "used": true, "az": 42, "ss": 23, "PRN": 13}, {"el": 51, "used": true, "az": 42, "ss": 36, "PRN": 15}, {"el": 49, "used": true, "az": 312, "ss": 38, "PRN": 20}, {"el": 41, "used": true, "az": 133, "ss": 41, "PRN": 24}, {"el": 13, "used": true, "az": 186, "ss": 42, "PRN": 29}, {"el": 25, "used": true, "az": 76, "ss": 28, "PRN": 5}, {"el": 85, "used": true, "az": 235, "ss": 38, "PRN": 21}, {"el": 7, "used": true, "az": 321, "ss": 33, "PRN": 27}, {"el": 22, "used": false, "az": 136, "ss": 0, "PRN": 4}, {"el": 43, "used": true, "az": 217, "ss": 43, "PRN": 138}], "vdop": 2.34, "class": "SKY", "device": "/dev/ttyUSB0", "ydop": 1.67, "xdop": 0.71, "hdop": 1.2, "tdop": 1.81}], "gst": [{"time": "1970-01-01T00:00:00.000Z", "rms": 0.0, "minor": 0.0, "class": "GST", "device": "/dev/ttyUSB0", "lon": 0.0, "orient": 0.0, "lat": 0.0, "alt": 0.0, "major": 0.0}], "tpv": [{"epx": 10.703, "epv": 53.809, "climb": 0.0, "track": 0.0, "mode": 3, "epy": 25.034, "device": "/dev/ttyUSB0", "lon": -83.877440454, "alt": 347.005, "eps": 50.07, "time": "2000-04-09T15:55:15.000Z", "lat": 34.039947174, "epc": 107.62, "speed": 0.0, "class": "TPV", "ept": 0.005}]}
{"time": "2018-04-09T11:19:09.767Z", "class": "POLL", "active": 1, "sky": [{"pdop": 2.96, "time": "2000-04-09T15:55:19.000Z", "gdop": 3.47, "satellites": [{"el": 26, "used": true, "az": 291, "ss": 40, "PRN": 10}, {"el": 19, "used": true, "az": 42, "ss": 24, "PRN": 13}, {"el": 51, "used": true, "az": 42, "ss": 38, "PRN": 15}, {"el": 49, "used": true, "az": 312, "ss": 38, "PRN": 20}, {"el": 41, "used": true, "az": 133, "ss": 43, "PRN": 24}, {"el": 13, "used": true, "az": 186, "ss": 44, "PRN": 29}, {"el": 25, "used": true, "az": 76, "ss": 28, "PRN": 5}, {"el": 85, "used": true, "az": 235, "ss": 39, "PRN": 21}, {"el": 22, "used": false, "az": 136, "ss": 0, "PRN": 4}, {"el": 7, "used": false, "az": 321, "ss": 0, "PRN": 27}, {"el": 43, "used": true, "az": 217, "ss": 43, "PRN": 138}], "vdop": 2.34, "class": "SKY", "device": "/dev/ttyUSB0", "ydop": 1.67, "xdop": 0.71, "hdop": 1.2, "tdop": 1.81}], "gst": [{"time": "1970-01-01T00:00:00.000Z", "rms": 0.0, "minor": 0.0, "class": "GST", "device": "/dev/ttyUSB0", "lon": 0.0, "orient": 0.0, "lat": 0.0, "alt": 0.0, "major": 0.0}], "tpv": [{"epx": 10.703, "epv": 53.809, "climb": 0.0, "track": 0.0, "mode": 3, "epy": 25.034, "device": "/dev/ttyUSB0", "lon": -83.877440454, "alt": 347.005, "eps": 50.07, "time": "2000-04-09T15:55:20.000Z", "lat": 34.039947174, "epc": 107.62, "speed": 0.0, "class": "TPV", "ept": 0.005}]}
{"time": "2018-04-09T11:19:14.793Z", "class": "POLL", "active": 1, "sky": [{"pdop": 2.96, "time": "2000-04-09T15:55:25.000Z", "gdop": 3.47, "satellites": [{"el": 26, "used": true, "az": 291, "ss": 45, "PRN": 10}, {"el": 19, "used": true, "az": 42, "ss": 31, "PRN": 13}, {"el": 51, "used": true, "az": 42, "ss": 41, "PRN": 15}, {"el": 50, "used": true, "az": 312, "ss": 38, "PRN": 20}, {"el": 41, "used": true, "az": 132, "ss": 45, "PRN": 24}, {"el": 13, "used": true, "az": 186, "ss": 43, "PRN": 29}, {"el": 25, "used": true, "az": 76, "ss": 27, "PRN": 5}, {"el": 85, "used": true, "az": 234, "ss": 41, "PRN": 21}, {"el": 7, "used": true, "az": 321, "ss": 34, "PRN": 27}, {"el": 22, "used": false, "az": 136, "ss": 0, "PRN": 4}, {"el": 43, "used": true, "az": 217, "ss": 41, "PRN": 138}], "vdop": 2.34, "class": "SKY", "device": "/dev/ttyUSB0", "ydop": 1.67, "xdop": 0.71, "hdop": 1.2, "tdop": 1.81}], "gst": [{"time": "1970-01-01T00:00:00.000Z", "rms": 0.0, "minor": 0.0, "class": "GST", "device": "/dev/ttyUSB0", "lon": 0.0, "orient": 0.0, "lat": 0.0, "alt": 0.0, "major": 0.0}], "tpv": [{"epx": 2.676, "epv": 13.452, "climb": 0.0, "track": 0.0, "mode": 3, "epy": 6.259, "device": "/dev/ttyUSB0", "lon": -83.877441609, "alt": 347.27, "eps": 12.52, "time": "2000-04-09T15:55:25.000Z", "lat": 34.039934686, "epc": 26.9, "speed": 0.0, "class": "TPV", "ept": 0.005}]}
{"time": "2018-04-09T11:19:19.819Z", "class": "POLL", "active": 1, "sky": [{"pdop": 2.96, "time": "2000-04-09T15:55:28.000Z", "gdop": 3.47, "satellites": [{"el": 26, "used": true, "az": 291, "ss": 32, "PRN": 10}, {"el": 19, "used": true, "az": 42, "ss": 30, "PRN": 13}, {"el": 51, "used": true, "az": 42, "ss": 41, "PRN": 15}, {"el": 50, "used": true, "az": 312, "ss": 38, "PRN": 20}, {"el": 41, "used": true, "az": 132, "ss": 45, "PRN": 24}, {"el": 13, "used": true, "az": 186, "ss": 44, "PRN": 29}, {"el": 25, "used": true, "az": 76, "ss": 27, "PRN": 5}, {"el": 85, "used": true, "az": 232, "ss": 42, "PRN": 21}, {"el": 7, "used": true, "az": 321, "ss": 34, "PRN": 27}, {"el": 22, "used": false, "az": 136, "ss": 0, "PRN": 4}, {"el": 10, "used": true, "az": 228, "ss": 29, "PRN": 32}, {"el": 43, "used": true, "az": 217, "ss": 43, "PRN": 138}], "vdop": 2.34, "class": "SKY", "device": "/dev/ttyUSB0", "ydop": 1.67, "xdop": 0.71, "hdop": 1.0, "tdop": 1.81}], "gst": [{"time": "1970-01-01T00:00:00.000Z", "rms": 0.0, "minor": 0.0, "class": "GST", "device": "/dev/ttyUSB0", "lon": 0.0, "orient": 0.0, "lat": 0.0, "alt": 0.0, "major": 0.0}], "tpv": [{"epx": 2.676, "epv": 13.452, "climb": 0.0, "track": 0.0, "mode": 3, "epy": 6.259, "device": "/dev/ttyUSB0", "lon": -83.877441609, "alt": 347.27, "eps": 12.52, "time": "2000-04-09T15:55:30.000Z", "lat": 34.039934686, "epc": 26.9, "speed": 0.0, "class": "TPV", "ept": 0.005}]}
{"time": "2018-04-09T11:19:24.845Z", "class": "POLL", "active": 1, "sky": [{"pdop": 2.96, "time": "2000-04-09T15:55:34.000Z", "gdop": 3.47, "satellites": [{"el": 26, "used": true, "az": 291, "ss": 37, "PRN": 10}, {"el": 19, "used": true, "az": 42, "ss": 31, "PRN": 13}, {"el": 51, "used": true, "az": 42, "ss": 41, "PRN": 15}, {"el": 50, "used": true, "az": 312, "ss": 38, "PRN": 20}, {"el": 41, "used": true, "az": 132, "ss": 45, "PRN": 24}, {"el": 17, "used": true, "az": 193, "ss": 42, "PRN": 29}, {"el": 25, "used": true, "az": 78, "ss": 28, "PRN": 5}, {"el": 74, "used": true, "az": 300, "ss": 42, "PRN": 21}, {"el": 7, "used": true, "az": 321, "ss": 35, "PRN": 27}, {"el": 22, "used": false, "az": 136, "ss": 0, "PRN": 4}, {"el": 10, "used": true, "az": 228, "ss": 29, "PRN": 32}, {"el": 43, "used": true, "az": 217, "ss": 42, "PRN": 138}], "vdop": 2.34, "class": "SKY", "device": "/dev/ttyUSB0", "ydop": 1.67, "xdop": 0.71, "hdop": 0.8, "tdop": 1.81}], "gst": [{"time": "1970-01-01T00:00:00.000Z", "rms": 0.0, "minor": 0.0, "class": "GST", "device": "/dev/ttyUSB0", "lon": 0.0, "orient": 0.0, "lat": 0.0, "alt": 0.0, "major": 0.0}], "tpv": [{"epx": 2.676, "epv": 13.452, "climb": 0.0, "track": 0.0, "mode": 3, "epy": 6.259, "device": "/dev/ttyUSB0", "lon": -83.877441609, "alt": 347.27, "eps": 12.52, "time": "2000-04-09T15:55:35.000Z", "lat": 34.039934686, "epc": 26.9, "speed": 0.0, "class": "TPV", "ept": 0.005}]}
{"time": "2018-04-09T11:19:29.872Z", "class": "POLL", "active": 1, "sky": [{"pdop": 2.96, "time": "2000-04-09T15:55:40.000Z", "gdop": 3.47, "satellites": [{"el": 26, "used": true, "az": 291, "ss": 38, "PRN": 10}, {"el": 19, "used": true, "az": 42, "ss": 32, "PRN": 13}, {"el": 51, "used": true, "az": 42, "ss": 40, "PRN": 15}, {"el": 50, "used": true, "az": 312, "ss": 40, "PRN": 20}, {"el": 41, "used": true, "az": 132, "ss": 44, "PRN": 24}, {"el": 17, "used": true, "az": 193, "ss": 41, "PRN": 29}, {"el": 25, "used": true, "az": 78, "ss": 30, "PRN": 5}, {"el": 74, "used": true, "az": 300, "ss": 42, "PRN": 21}, {"el": 7, "used": true, "az": 321, "ss": 35, "PRN": 27}, {"el": 22, "used": false, "az": 136, "ss": 0, "PRN": 4}, {"el": 10, "used": true, "az": 228, "ss": 28, "PRN": 32}, {"el": 43, "used": true, "az": 217, "ss": 42, "PRN": 138}], "vdop": 2.34, "class": "SKY", "device": "/dev/ttyUSB0", "ydop": 1.67, "xdop": 0.71, "hdop": 0.8, "tdop": 1.81}], "gst": [{"time": "1970-01-01T00:00:00.000Z", "rms": 0.0, "minor": 0.0, "class": "GST", "device": "/dev/ttyUSB0", "lon": 0.0, "orient": 0.0, "lat": 0.0, "alt": 0.0, "major": 0.0}], "tpv": [{"epx": 2.676, "epv": 13.452, "climb": 0.0, "track": 0.0, "mode": 3, "epy": 6.259, "device": "/dev/ttyUSB0", "lon": -83.877440454, "alt": 345.886, "eps": 12.52, "time": "2000-04-09T15:55:40.000Z", "lat": 34.039932234, "epc": 26.9, "speed": 0.0, "class": "TPV", "ept": 0.005}]}
{"time": "2018-04-09T11:19:34.900Z", "class": "POLL", "active": 1, "sky": [{"pdop": 2.96, "time": "2000-04-09T15:55:43.000Z", "gdop": 3.47, "satellites": [{"el": 26, "used": true, "az": 291, "ss": 38, "PRN": 10}, {"el": 19, "used": true, "az": 42, "ss": 31, "PRN": 13}, {"el": 51, "used": true, "az": 42, "ss": 41, "PRN": 15}, {"el": 50, "used": true, "az": 312, "ss": 40, "PRN": 20}, {"el": 41, "used": true, "az": 132, "ss": 44, "PRN": 24}, {"el": 17, "used": true, "az": 193, "ss": 41, "PRN": 29}, {"el": 25, "used": true, "az": 78, "ss": 30, "PRN": 5}, {"el": 74, "used": true, "az": 300, "ss": 41, "PRN": 21}, {"el": 7, "used": true, "az": 321, "ss": 35, "PRN": 27}, {"el": 22, "used": false, "az": 136, "ss": 0, "PRN": 4}, {"el": 10, "used": true, "az": 228, "ss": 28, "PRN": 32}, {"el": 43, "used": true, "az": 217, "ss": 42, "PRN": 138}], "vdop": 2.34, "class": "SKY", "device": "/dev/ttyUSB0", "ydop": 1.67, "xdop": 0.71, "hdop": 0.8, "tdop": 1.81}], "gst": [{"time": "1970-01-01T00:00:00.000Z", "rms": 0.0, "minor": 0.0, "class": "GST", "device": "/dev/ttyUSB0", "lon": 0.0, "orient": 0.0, "lat": 0.0, "alt": 0.0, "major": 0.0}], "tpv": [{"epx": 2.676, "epv": 13.452, "climb": 0.0, "track": 0.0, "mode": 3, "epy": 6.259, "device": "/dev/ttyUSB0", "lon": -83.877440454, "alt": 345.886, "eps": 12.52, "time": "2000-04-09T15:55:45.000Z", "lat": 34.039932234, "epc": 26.9, "speed": 0.0, "class": "TPV", "ept": 0.005}]}
{"time": "2018-04-09T11:19:39.932Z", "class": "POLL", "active": 1, "sky": [{"pdop": 2.96, "time": "2000-04-09T15:55:49.000Z", "gdop": 3.47, "satellites": [{"el": 26, "used": true, "az": 291, "ss": 44, "PRN": 10}, {"el": 19, "used": true, "az": 42, "ss": 26, "PRN": 13}, {"el": 51, "used": true, "az": 42, "ss": 41, "PRN": 15}, {"el": 50, "used": true, "az": 312, "ss": 40, "PRN": 20}, {"el": 41, "used": true, "az": 132, "ss": 46, "PRN": 24}, {"el": 17, "used": true, "az": 193, "ss": 41, "PRN": 29}, {"el": 25, "used": true, "az": 78, "ss": 30, "PRN": 5}, {"el": 74, "used": true, "az": 300, "ss": 43, "PRN": 21}, {"el": 7, "used": true, "az": 321, "ss": 35, "PRN": 27}, {"el": 22, "used": false, "az": 136, "ss": 0, "PRN": 4}, {"el": 10, "used": true, "az": 228, "ss": 28, "PRN": 32}, {"el": 43, "used": true, "az": 217, "ss": 42, "PRN": 138}], "vdop": 2.34, "class": "SKY", "device": "/dev/ttyUSB0", "ydop": 1.67, "xdop": 0.71, "hdop": 0.8, "tdop": 1.81}], "gst": [{"time": "1970-01-01T00:00:00.000Z", "rms": 0.0, "minor": 0.0, "class": "GST", "device": "/dev/ttyUSB0", "lon": 0.0, "orient": 0.0, "lat": 0.0, "alt": 0.0, "major": 0.0}], "tpv": [{"epx": 2.676, "epv": 13.452, "climb": 0.0, "track": 0.0, "mode": 3, "epy": 6.259, "device": "/dev/ttyUSB0", "lon": -83.877440454, "alt": 345.886, "eps": 12.52, "time": "2000-04-09T15:55:50.000Z", "lat": 34.039932234, "epc": 26.9, "speed": 0.0, "class": "TPV", "ept": 0.005}]}
{"time": "2018-04-09T11:19:44.963Z", "class": "POLL", "active": 1, "sky": [{"pdop": 2.96, "time": "2000-04-09T15:55:55.000Z", "gdop": 3.47, "satellites": [{"el": 26, "used": true, "az": 291, "ss": 44, "PRN": 10}, {"el": 19, "used": true, "az": 42, "ss": 12, "PRN": 13}, {"el": 51, "used": true, "az": 42, "ss": 42, "PRN": 15}, {"el": 50, "used": true, "az": 312, "ss": 39, "PRN": 20}, {"el": 41, "used": true, "az": 132, "ss": 46, "PRN": 24}, {"el": 17, "used": true, "az": 193, "ss": 41, "PRN": 29}, {"el": 25, "used": true, "az": 78, "ss": 30, "PRN": 5}, {"el": 74, "used": true, "az": 300, "ss": 43, "PRN": 21}, {"el": 7, "used": true, "az": 321, "ss": 35, "PRN": 27}, {"el": 22, "used": false, "az": 136, "ss": 0, "PRN": 4}, {"el": 10, "used": true, "az": 228, "ss": 29, "PRN": 32}, {"el": 43, "used": true, "az": 217, "ss": 43, "PRN": 138}], "vdop": 2.34, "class": "SKY", "device": "/dev/ttyUSB0", "ydop": 1.67, "xdop": 0.71, "hdop": 0.8, "tdop": 1.81}], "gst": [{"time": "1970-01-01T00:00:00.000Z", "rms": 0.0, "minor": 0.0, "class": "GST", "device": "/dev/ttyUSB0", "lon": 0.0, "orient": 0.0, "lat": 0.0, "alt": 0.0, "major": 0.0}], "tpv": [{"epx": 2.676, "epv": 13.452, "climb": 0.0, "track": 0.0, "mode": 3, "epy": 6.259, "device": "/dev/ttyUSB0", "lon": -83.877440454, "alt": 345.886, "eps": 12.52, "time": "2000-04-09T15:55:55.000Z", "lat": 34.039932234, "epc": 26.9, "speed": 0.0, "class": "TPV", "ept": 0.005}]}
{"time": "2018-04-09T11:19:49.993Z", "class": "POLL", "active": 1, "sky": [{"pdop": 2.96, "time": "2000-04-09T15:55:58.000Z", "gdop": 3.47, "satellites": [{"el": 26, "used": true, "az": 291, "ss": 44, "PRN": 10}, {"el": 19, "used": true, "az": 42, "ss": 18, "PRN": 13}, {"el": 51, "used": true, "az": 42, "ss": 42, "PRN": 15}, {"el": 50, "used": true, "az": 313, "ss": 39, "PRN": 20}, {"el": 41, "used": true, "az": 132, "ss": 46, "PRN": 24}, {"el": 17, "used": true, "az": 193, "ss": 41, "PRN": 29}, {"el": 24, "used": true, "az": 78, "ss": 30, "PRN": 5}, {"el": 74, "used": true, "az": 300, "ss": 43, "PRN": 21}, {"el": 12, "used": true, "az": 313, "ss": 35, "PRN": 27}, {"el": 22, "used": false, "az": 136, "ss": 0, "PRN": 4}, {"el": 10, "used": true, "az": 228, "ss": 29, "PRN": 32}, {"el": 43, "used": true, "az": 217, "ss": 43, "PRN": 138}], "vdop": 2.34, "class": "SKY", "device": "/dev/ttyUSB0", "ydop": 1.67, "xdop": 0.71, "hdop": 0.8, "tdop": 1.81}], "gst": [{"time": "1970-01-01T00:00:00.000Z", "rms": 0.0, "minor": 0.0, "class": "GST", "device": "/dev/ttyUSB0", "lon": 0.0, "orient": 0.0, "lat": 0.0, "alt": 0.0, "major": 0.0}], "tpv": [{"epx": 2.676, "epv": 13.452, "climb": 0.0, "track": 0.0, "mode": 3, "epy": 6.259, "device": "/dev/ttyUSB0", "lon": -83.877440454, "alt": 345.886, "eps": 12.52, "time": "2000-04-09T15:56:00.000Z", "lat": 34.039932234, "epc": 26.9, "speed": 0.0, "class": "TPV", "ept": 0.005}]}
{"time": "2018-04-09T11:19:55.022Z", "class": "POLL", "active": 1, "sky": [{"pdop": 2.96, "time": "2000-04-09T15:56:04.000Z", "gdop": 3.47, "satellites": [{"el": 26, "used": true, "az": 291, "ss": 44, "PRN": 10}, {"el": 19, "used": true, "az": 42, "ss": 20, "PRN": 13}, {"el": 51, "used": true, "az": 42, "ss": 43, "PRN": 15}, {"el": 50, "used": true, "az": 313, "ss": 39, "PRN": 20}, {"el": 41, "used": true, "az": 132, "ss": 46, "PRN": 24}, {"el": 17, "used": true, "az": 193, "ss": 41, "PRN": 29}, {"el": 3, "used": true, "az": 87, "ss": 30, "PRN": 5}, {"el": 74, "used": true, "az": 300, "ss": 43, "PRN": 21}, {"el": 13, "used": true, "az": 313, "ss": 36, "PRN": 27}, {"el": 22, "used": false, "az": 136, "ss": 0, "PRN": 4}, {"el": 10, "used": true, "az": 228, "ss": 31, "PRN": 32}, {"el": 43, "used": true, "az": 217, "ss": 43, "PRN": 138}], "vdop": 2.34, "class": "SKY", "device": "/dev/ttyUSB0", "ydop": 1.67, "xdop": 0.71, "hdop": 0.8, "tdop": 1.81}], "gst": [{"time": "1970-01-01T00:00:00.000Z", "rms": 0.0, "minor": 0.0, "class": "GST", "device": "/dev/ttyUSB0", "lon": 0.0, "orient": 0.0, "lat": 0.0, "alt": 0.0, "major": 0.0}], "tpv": [{"epx": 2.676, "epv": 13.452, "climb": 0.0, "track": 0.0, "mode": 3, "epy": 6.259, "device": "/dev/ttyUSB0", "lon": -83.877440454, "alt": 345.886, "eps": 12.52, "time": "2000-04-09T15:56:06.000Z", "lat": 34.039932234, "epc": 26.9, "speed": 0.0, "class": "TPV", "ept": 0.005}]}
{"time": "2018-04-09T11:20:00.054Z", "class": "POLL", "active": 1, "sky": [{"pdop": 2.96, "time": "2000-04-09T15:56:10.000Z", "gdop": 3.47, "satellites": [{"el": 26, "used": true, "az": 291, "ss": 44, "PRN": 10}, {"el": 19, "used": true, "az": 42, "ss": 21, "PRN": 13}, {"el": 51, "used": true, "az": 42, "ss": 43, "PRN": 15}, {"el": 50, "used": true, "az": 313, "ss": 39, "PRN": 20}, {"el": 41, "used": true, "az": 132, "ss": 46, "PRN": 24}, {"el": 17, "used": true, "az": 193, "ss": 41, "PRN": 29}, {"el": 3, "used": true, "az": 87, "ss": 30, "PRN": 5}, {"el": 74, "used": true, "az": 300, "ss": 44, "PRN": 21}, {"el": 13, "used": true, "az": 313, "ss": 36, "PRN": 27}, {"el": 22, "used": false, "az": 136, "ss": 0, "PRN": 4}, {"el": 10, "used": true, "az": 228, "ss": 31, "PRN": 32}, {"el": 43, "used": true, "az": 217, "ss": 43, "PRN": 138}], "vdop": 2.34, "class": "SKY", "device": "/dev/ttyUSB0", "ydop": 1.67, "xdop": 0.71, "hdop": 1.2, "tdop": 1.81}], "gst": [{"time": "1970-01-01T00:00:00.000Z", "rms": 0.0, "minor": 0.0, "class": "GST", "device": "/dev/ttyUSB0", "lon": 0.0, "orient": 0.0, "lat": 0.0, "alt": 0.0, "major": 0.0}], "tpv": [{"epx": 2.676, "epv": 13.452, "climb": 0.0, "track": 0.0, "mode": 3, "epy": 6.259, "device": "/dev/ttyUSB0", "lon": -83.877440454, "alt": 345.886, "eps": 12.52, "time": "2000-04-09T15:56:11.000Z", "lat": 34.039932234, "epc": 26.9, "speed": 0.0, "class": "TPV", "ept": 0.005}]}
{"time": "2018-04-09T11:20:05.084Z", "class": "POLL", "active": 1, "sky": [{"pdop": 2.96, "time": "2000-04-09T15:56:13.000Z", "gdop": 3.47, "satellites": [{"el": 26, "used": true, "az": 291, "ss": 45, "PRN": 10}, {"el": 19, "used": false, "az": 42, "ss": 4, "PRN": 13}, {"el": 51, "used": true, "az": 42, "ss": 42, "PRN": 15}, {"el": 50, "used": true, "az": 313, "ss": 39, "PRN": 20}, {"el": 41, "used": true, "az": 132, "ss": 46, "PRN": 24}, {"el": 17, "used": true, "az": 193, "ss": 40, "PRN": 29}, {"el": 3, "used": true, "az": 87, "ss": 31, "PRN": 5}, {"el": 74, "used": true, "az": 300, "ss": 44, "PRN": 21}, {"el": 13, "used": true, "az": 313, "ss": 36, "PRN": 27}, {"el": 22, "used": false, "az": 136, "ss": 0, "PRN": 4}, {"el": 10, "used": true, "az": 228, "ss": 31, "PRN": 32}, {"el": 43, "used": true, "az": 217, "ss": 43, "PRN": 138}], "vdop": 2.34, "class": "SKY", "device": "/dev/ttyUSB0", "ydop": 1.67, "xdop": 0.71, "hdop": 1.2, "tdop": 1.81}], "gst": [{"time": "1970-01-01T00:00:00.000Z", "rms": 0.0, "minor": 0.0, "class": "GST", "device": "/dev/ttyUSB0", "lon": 0.0, "orient": 0.0, "lat": 0.0, "alt": 0.0, "major": 0.0}], "tpv": [{"epx": 2.676, "epv": 13.452, "climb": 0.0, "track": 0.0, "mode": 3, "epy": 6.259, "device": "/dev/ttyUSB0", "lon": -83.877440454, "alt": 345.886, "eps": 12.52, "time": "2000-04-09T15:56:15.000Z", "lat": 34.039932234, "epc": 26.9, "speed": 0.0, "class": "TPV", "ept": 0.005}]}
{"time": "2018-04-09T11:20:10.113Z", "class": "POLL", "active": 1, "sky": [{"pdop": 2.96, "time": "2000-04-09T15:56:19.000Z", "gdop": 3.47, "satellites": [{"el": 26, "used": true, "az": 291, "ss": 44, "PRN": 10}, {"el": 19, "used": true, "az": 42, "ss": 8, "PRN": 13}, {"el": 51, "used": true, "az": 42, "ss": 42, "PRN": 15}, {"el": 50, "used": true, "az": 313, "ss": 38, "PRN": 20}, {"el": 41, "used": true, "az": 132, "ss": 46, "PRN": 24}, {"el": 17, "used": true, "az": 193, "ss": 40, "PRN": 29}, {"el": 3, "used": true, "az": 87, "ss": 31, "PRN": 5}, {"el": 74, "used": true, "az": 300, "ss": 43, "PRN": 21}, {"el": 13, "used": true, "az": 313, "ss": 36, "PRN": 27}, {"el": 22, "used": false, "az": 136, "ss": 0, "PRN": 4}, {"el": 10, "used": true, "az": 228, "ss": 32, "PRN": 32}, {"el": 43, "used": true, "az": 217, "ss": 43, "PRN": 138}], "vdop": 2.34, "class": "SKY", "device": "/dev/ttyUSB0", "ydop": 1.67, "xdop": 0.71, "hdop": 0.8, "tdop": 1.81}], "gst": [{"time": "1970-01-01T00:00:00.000Z", "rms": 0.0, "minor": 0.0, "class": "GST", "device": "/dev/ttyUSB0", "lon": 0.0, "orient": 0.0, "lat": 0.0, "alt": 0.0, "major": 0.0}], "tpv": [{"epx": 2.676, "epv": 13.452, "climb": 0.0, "track": 0.0, "mode": 3, "epy": 6.259, "device": "/dev/ttyUSB0", "lon": -83.877440454, "alt": 345.886, "eps": 12.52, "time": "2000-04-09T15:56:21.000Z", "lat": 34.039932234, "epc": 26.9, "speed": 0.0, "class": "TPV", "ept": 0.005}]}
{"time": "2018-04-09T11:20:15.141Z", "class": "POLL", "active": 1, "sky": [{"pdop": 2.96, "time": "2000-04-09T15:56:25.000Z", "gdop": 3.47, "satellites": [{"el": 26, "used": true, "az": 291, "ss": 44, "PRN": 10}, {"el": 19, "used": true, "az": 42, "ss": 9, "PRN": 13}, {"el": 51, "used": true, "az": 42, "ss": 42, "PRN": 15}, {"el": 50, "used": true, "az": 313, "ss": 38, "PRN": 20}, {"el": 41, "used": true, "az": 132, "ss": 45, "PRN": 24}, {"el": 17, "used": true, "az": 193, "ss": 40, "PRN": 29}, {"el": 3, "used": true, "az": 87, "ss": 30, "PRN": 5}, {"el": 74, "used": true, "az": 300, "ss": 43, "PRN": 21}, {"el": 13, "used": true, "az": 313, "ss": 36, "PRN": 27}, {"el": 22, "used": false, "az": 136, "ss": 0, "PRN": 4}, {"el": 10, "used": true, "az": 228, "ss": 31, "PRN": 32}, {"el": 43, "used": true, "az": 217, "ss": 42, "PRN": 138}], "vdop": 2.34, "class": "SKY", "device": "/dev/ttyUSB0", "ydop": 1.67, "xdop": 0.71, "hdop": 0.8, "tdop": 1.81}], "gst": [{"time": "1970-01-01T00:00:00.000Z", "rms": 0.0, "minor": 0.0, "class": "GST", "device": "/dev/ttyUSB0", "lon": 0.0, "orient": 0.0, "lat": 0.0, "alt": 0.0, "major": 0.0}], "tpv": [{"epx": 2.676, "epv": 13.452, "climb": 0.0, "track": 0.0, "mode": 3, "epy": 6.259, "device": "/dev/ttyUSB0", "lon": -83.877440454, "alt": 345.886, "eps": 12.52, "time": "2000-04-09T15:56:26.000Z", "lat": 34.039932234, "epc": 26.9, "speed": 0.0, "class": "TPV", "ept": 0.005}]}
{"time": "2018-04-09T11:20:20.169Z", "class": "POLL", "active": 1, "sky": [{"pdop": 2.96, "time": "2000-04-09T15:56:28.000Z", "gdop": 3.47, "satellites": [{"el": 26, "used": true, "az": 291, "ss": 44, "PRN": 10}, {"el": 19, "used": true, "az": 42, "ss": 9, "PRN": 13}, {"el": 51, "used": true, "az": 42, "ss": 42, "PRN": 15}, {"el": 50, "used": true, "az": 313, "ss": 37, "PRN": 20}, {"el": 41, "used": true, "az": 132, "ss": 45, "PRN": 24}, {"el": 17, "used": true, "az": 193, "ss": 39, "PRN": 29}, {"el": 3, "used": true, "az": 87, "ss": 26, "PRN": 5}, {"el": 74, "used": true, "az": 300, "ss": 43, "PRN": 21}, {"el": 13, "used": true, "az": 313, "ss": 37, "PRN": 27}, {"el": 22, "used": false, "az": 136, "ss": 0, "PRN": 4}, {"el": 10, "used": true, "az": 228, "ss": 31, "PRN": 32}, {"el": 43, "used": true, "az": 217, "ss": 42, "PRN": 138}], "vdop": 2.34, "class": "SKY", "device": "/dev/ttyUSB0", "ydop": 1.67, "xdop": 0.71, "hdop": 0.8, "tdop": 1.81}], "gst": [{"time": "1970-01-01T00:00:00.000Z", "rms": 0.0, "minor": 0.0, "class": "GST", "device": "/dev/ttyUSB0", "lon": 0.0, "orient": 0.0, "lat": 0.0, "alt": 0.0, "major": 0.0}], "tpv": [{"epx": 2.676, "epv": 13.452, "climb": 0.0, "track": 0.0, "mode": 3, "epy": 6.259, "device": "/dev/ttyUSB0", "lon": -83.877440454, "alt": 345.886, "eps": 12.52, "time": "2000-04-09T15:56:30.000Z", "lat": 34.039932234, "epc": 26.9, "speed": 0.0, "class": "TPV", "ept": 0.005}]}
{"time": "2018-04-09T11:20:25.200Z", "class": "POLL", "active": 1, "sky": [{"pdop": 2.96, "time": "2000-04-09T15:56:34.000Z", "gdop": 3.47, "satellites": [{"el": 26, "used": true, "az": 291, "ss": 44, "PRN": 10}, {"el": 19, "used": false, "az": 42, "ss": 10, "PRN": 13}, {"el": 51, "used": true, "az": 42, "ss": 43, "PRN": 15}, {"el": 50, "used": true, "az": 313, "ss": 37, "PRN": 20}, {"el": 41, "used": true, "az": 132, "ss": 45, "PRN": 24}, {"el": 17, "used": true, "az": 193, "ss": 39, "PRN": 29}, {"el": 3, "used": true, "az": 87, "ss": 26, "PRN": 5}, {"el": 74, "used": true, "az": 300, "ss": 43, "PRN": 21}, {"el": 13, "used": true, "az": 313, "ss": 37, "PRN": 27}, {"el": 22, "used": false, "az": 136, "ss": 0, "PRN": 4}, {"el": 10, "used": true, "az": 228, "ss": 30, "PRN": 32}, {"el": 43, "used": true, "az": 217, "ss": 42, "PRN": 138}], "vdop": 2.34, "class": "SKY", "device": "/dev/ttyUSB0", "ydop": 1.67, "xdop": 0.71, "hdop": 1.2, "tdop": 1.81}], "gst": [{"time": "1970-01-01T00:00:00.000Z", "rms": 0.0, "minor": 0.0, "class": "GST", "device": "/dev/ttyUSB0", "lon": 0.0, "orient": 0.0, "lat": 0.0, "alt": 0.0, "major": 0.0}], "tpv": [{"epx": 2.676, "epv": 13.452, "climb": 0.0, "track": 0.0, "mode": 3, "epy": 6.259, "device": "/dev/ttyUSB0", "lon": -83.877440454, "alt": 345.886, "eps": 12.52, "time": "2000-04-09T15:56:36.000Z", "lat": 34.039932234, "epc": 26.9, "speed": 0.0, "class": "TPV", "ept": 0.005}]}
{"time": "2018-04-09T11:20:30.226Z", "class": "POLL", "active": 1, "sky": [{"pdop": 2.96, "time": "2000-04-09T15:56:40.000Z", "gdop": 3.47, "satellites": [{"el": 26, "used": true, "az": 291, "ss": 44, "PRN": 10}, {"el": 19, "used": true, "az": 42, "ss": 23, "PRN": 13}, {"el": 51, "used": true, "az": 42, "ss": 43, "PRN": 15}, {"el": 50, "used": true, "az": 313, "ss": 37, "PRN": 20}, {"el": 41, "used": true, "az": 132, "ss": 45, "PRN": 24}, {"el": 17, "used": true, "az": 193, "ss": 39, "PRN": 29}, {"el": 3, "used": true, "az": 87, "ss": 26, "PRN": 5}, {"el": 74, "used": true, "az": 300, "ss": 44, "PRN": 21}, {"el": 13, "used": true, "az": 313, "ss": 37, "PRN": 27}, {"el": 22, "used": false, "az": 136, "ss": 0, "PRN": 4}, {"el": 10, "used": true, "az": 228, "ss": 29, "PRN": 32}, {"el": 43, "used": true, "az": 217, "ss": 42, "PRN": 138}], "vdop": 2.34, "class": "SKY", "device": "/dev/ttyUSB0", "ydop": 1.67, "xdop": 0.71, "hdop": 0.8, "tdop": 1.81}], "gst": [{"time": "1970-01-01T00:00:00.000Z", "rms": 0.0, "minor": 0.0, "class": "GST", "device": "/dev/ttyUSB0", "lon": 0.0, "orient": 0.0, "lat": 0.0, "alt": 0.0, "major": 0.0}], "tpv": [{"epx": 2.676, "epv": 13.452, "climb": 0.0, "track": 0.0, "mode": 3, "epy": 6.259, "device": "/dev/ttyUSB0", "lon": -83.877440454, "alt": 345.886, "eps": 12.52, "time": "2000-04-09T15:56:41.000Z", "lat": 34.039932234, "epc": 26.9, "speed": 0.0, "class": "TPV", "ept": 0.005}]}
{"time": "2018-04-09T11:20:35.252Z", "class": "POLL", "active": 1, "sky": [{"pdop": 2.96, "time": "2000-04-09T15:56:43.000Z", "gdop": 3.47, "satellites": [{"el": 26, "used": true, "az": 291, "ss": 44, "PRN": 10}, {"el": 19, "used": true, "az": 42, "ss": 24, "PRN": 13}, {"el": 51, "used": true, "az": 42, "ss": 43, "PRN": 15}, {"el": 50, "used": true, "az": 313, "ss": 37, "PRN": 20}, {"el": 41, "used": true, "az": 132, "ss": 45, "PRN": 24}, {"el": 17, "used": true, "az": 193, "ss": 40, "PRN": 29}, {"el": 3, "used": true, "az": 87, "ss": 26, "PRN": 5}, {"el": 74, "used": true, "az": 300, "ss": 44, "PRN": 21}, {"el": 13, "used": true, "az": 313, "ss": 37, "PRN": 27}, {"el": 22, "used": false, "az": 136, "ss": 0, "PRN": 4}, {"el": 10, "used": true, "az": 228, "ss": 29, "PRN": 32}, {"el": 43, "used": true, "az": 217, "ss": 42, "PRN": 138}], "vdop": 2.34, "class": "SKY", "device": "/dev/ttyUSB0", "ydop": 1.67, "xdop": 0.71, "hdop": 0.8, "tdop": 1.81}], "gst": [{"time": "1970-01-01T00:00:00.000Z", "rms": 0.0, "minor": 0.0, "class": "GST", "device": "/dev/ttyUSB0", "lon": 0.0, "orient": 0.0, "lat": 0.0, "alt": 0.0, "major": 0.0}], "tpv": [{"epx": 2.676, "epv": 13.452, "climb": 0.0, "track": 0.0, "mode": 3, "epy": 6.259, "device": "/dev/ttyUSB0", "lon": -83.877440454, "alt": 345.886, "eps": 12.52, "time": "2000-04-09T15:56:45.000Z", "lat": 34.039932234, "epc": 26.9, "speed": 0.0, "class": "TPV", "ept": 0.005}]}
{"time": "2018-04-09T11:20:40.283Z", "class": "POLL", "active": 1, "sky": [{"pdop": 2.96, "time": "2000-04-09T15:56:49.000Z", "gdop": 3.47, "satellites": [{"el": 26, "used": true, "az": 291, "ss": 44, "PRN": 10}, {"el": 19, "used": true, "az": 42, "ss": 25, "PRN": 13}, {"el": 51, "used": true, "az": 42, "ss": 43, "PRN": 15}, {"el": 50, "used": true, "az": 313, "ss": 37, "PRN": 20}, {"el": 41, "used": true, "az": 132, "ss": 45, "PRN": 24}, {"el": 17, "used": true, "az": 193, "ss": 40, "PRN": 29}, {"el": 3, "used": true, "az": 87, "ss": 23, "PRN": 5}, {"el": 74, "used": true, "az": 300, "ss": 44, "PRN": 21}, {"el": 13, "used": true, "az": 313, "ss": 37, "PRN": 27}, {"el": 22, "used": false, "az": 136, "ss": 0, "PRN": 4}, {"el": 10, "used": true, "az": 228, "ss": 29, "PRN": 32}, {"el": 43, "used": true, "az": 217, "ss": 42, "PRN": 138}], "vdop": 2.34, "class": "SKY", "device": "/dev/ttyUSB0", "ydop": 1.67, "xdop": 0.71, "hdop": 0.8, "tdop": 1.81}], "gst": [{"time": "1970-01-01T00:00:00.000Z", "rms": 0.0, "minor": 0.0, "class": "GST", "device": "/dev/ttyUSB0", "lon": 0.0, "orient": 0.0, "lat": 0.0, "alt": 0.0, "major": 0.0}], "tpv": [{"epx": 2.676, "epv": 13.452, "climb": 0.0, "track": 0.0, "mode": 3, "epy": 6.259, "device": "/dev/ttyUSB0", "lon": -83.877440454, "alt": 345.886, "eps": 12.52, "time": "2000-04-09T15:56:51.000Z", "lat": 34.039932234, "epc": 26.9, "speed": 0.0, "class": "TPV", "ept": 0.005}]}
{"time": "2018-04-09T11:20:45.309Z", "class": "POLL", "active": 1, "sky": [{"pdop": 2.96, "time": "2000-04-09T15:56:55.000Z", "gdop": 3.47, "satellites": [{"el": 26, "used": true, "az": 291, "ss": 44, "PRN": 10}, {"el": 19, "used": true, "az": 42, "ss": 24, "PRN": 13}, {"el": 51, "used": true, "az": 42, "ss": 43, "PRN": 15}, {"el": 50, "used": true, "az": 313, "ss": 38, "PRN": 20}, {"el": 41, "used": true, "az": 132, "ss": 46, "PRN": 24}, {"el": 17, "used": true, "az": 193, "ss": 41, "PRN": 29}, {"el": 3, "used": true, "az": 87, "ss": 24, "PRN": 5}, {"el": 74, "used": true, "az": 300, "ss": 44, "PRN": 21}, {"el": 13, "used": true, "az": 313, "ss": 37, "PRN": 27}, {"el": 22, "used": false, "az": 136, "ss": 0, "PRN": 4}, {"el": 10, "used": true, "az": 228, "ss": 29, "PRN": 32}, {"el": 43, "used": true, "az": 217, "ss": 42, "PRN": 138}], "vdop": 2.34, "class": "SKY", "device": "/dev/ttyUSB0", "ydop": 1.67, "xdop": 0.71, "hdop": 0.8, "tdop": 1.81}], "gst": [{"time": "1970-01-01T00:00:00.000Z", "rms": 0.0, "minor": 0.0, "class": "GST", "device": "/dev/ttyUSB0", "lon": 0.0, "orient": 0.0, "lat": 0.0, "alt": 0.0, "major": 0.0}], "tpv": [{"epx": 2.676, "epv": 13.452, "climb": 0.0, "track": 0.0, "mode": 3, "epy": 6.259, "device": "/dev/ttyUSB0", "lon": -83.877440454, "alt": 346.446, "eps": 12.52, "time": "2000-04-09T15:56:56.000Z", "lat": 34.039939704, "epc": 26.9, "speed": 0.0, "class": "TPV", "ept": 0.005}]}
{"time": "2018-04-09T11:20:50.336Z", "class": "POLL", "active": 1, "sky": [{"pdop": 2.96, "time": "2000-04-09T15:57:01.000Z", "gdop": 3.47, "satellites": [{"el": 26, "used": true, "az": 291, "ss": 44, "PRN": 10}, {"el": 19, "used": true, "az": 42, "ss": 23, "PRN": 13}, {"el": 51, "used": true, "az": 42, "ss": 43, "PRN": 15}, {"el": 50, "used": true, "az": 313, "ss": 38, "PRN": 20}, {"el": 41, "used": true, "az": 132, "ss": 46, "PRN": 24}, {"el": 17, "used": true, "az": 193, "ss": 41, "PRN": 29}, {"el": 3, "used": true, "az": 87, "ss": 24, "PRN": 5}, {"el": 74, "used": true, "az": 300, "ss": 44, "PRN": 21}, {"el": 13, "used": true, "az": 313, "ss": 37, "PRN": 27}, {"el": 22, "used": false, "az": 136, "ss": 0, "PRN": 4}, {"el": 10, "used": true, "az": 228, "ss": 30, "PRN": 32}, {"el": 43, "used": true, "az": 217, "ss": 42, "PRN": 138}], "vdop": 2.34, "class": "SKY", "device": "/dev/ttyUSB0", "ydop": 1.67, "xdop": 0.71, "hdop": 0.8, "tdop": 1.81}], "gst": [{"time": "1970-01-01T00:00:00.000Z", "rms": 0.0, "minor": 0.0, "class": "GST", "device": "/dev/ttyUSB0", "lon": 0.0, "orient": 0.0, "lat": 0.0, "alt": 0.0, "major": 0.0}], "tpv": [{"epx": 2.676, "epv": 13.452, "climb": 0.0, "track": 0.0, "mode": 3, "epy": 6.259, "device": "/dev/ttyUSB0", "lon": -83.877440454, "alt": 346.446, "eps": 12.52, "time": "2000-04-09T15:57:00.000Z", "lat": 34.039939704, "epc": 26.9, "speed": 0.0, "class": "TPV", "ept": 0.005}]}
{"time": "2018-04-09T11:20:55.367Z", "class": "POLL", "active": 1, "sky": [{"pdop": 2.96, "time": "2000-04-09T15:57:04.000Z", "gdop": 3.47, "satellites": [{"el": 26, "used": true, "az": 291, "ss": 44, "PRN": 10}, {"el": 19, "used": true, "az": 42, "ss": 23, "PRN": 13}, {"el": 51, "used": true, "az": 42, "ss": 42, "PRN": 15}, {"el": 50, "used": true, "az": 313, "ss": 38, "PRN": 20}, {"el": 41, "used": true, "az": 132, "ss": 46, "PRN": 24}, {"el": 17, "used": true, "az": 193, "ss": 41, "PRN": 29}, {"el": 3, "used": true, "az": 87, "ss": 24, "PRN": 5}, {"el": 74, "used": true, "az": 300, "ss": 44, "PRN": 21}, {"el": 13, "used": true, "az": 313, "ss": 37, "PRN": 27}, {"el": 22, "used": false, "az": 136, "ss": 0, "PRN": 4}, {"el": 10, "used": true, "az": 228, "ss": 30, "PRN": 32}, {"el": 43, "used": true, "az": 217, "ss": 43, "PRN": 138}], "vdop": 2.34, "class": "SKY", "device": "/dev/ttyUSB0", "ydop": 1.67, "xdop": 0.71, "hdop": 0.8, "tdop": 1.81}], "gst": [{"time": "1970-01-01T00:00:00.000Z", "rms": 0.0, "minor": 0.0, "class": "GST", "device": "/dev/ttyUSB0", "lon": 0.0, "orient": 0.0, "lat": 0.0, "alt": 0.0, "major": 0.0}], "tpv": [{"epx": 2.676, "epv": 13.452, "climb": 0.0, "track": 0.0, "mode": 3, "epy": 6.259, "device": "/dev/ttyUSB0", "lon": -83.877440454, "alt": 346.446, "eps": 12.52, "time": "2000-04-09T15:57:06.000Z", "lat": 34.039939704, "epc": 26.9, "speed": 0.0, "class": "TPV", "ept": 0.005}]}
{"time": "2018-04-09T11:21:00.393Z", "class": "POLL", "active": 1, "sky": [{"pdop": 2.96, "time": "2000-04-09T15:57:10.000Z", "gdop": 3.47, "satellites": [{"el": 26, "used": true, "az": 291, "ss": 44, "PRN": 10}, {"el": 19, "used": true, "az": 42, "ss": 25, "PRN": 13}, {"el": 51, "used": true, "az": 42, "ss": 42, "PRN": 15}, {"el": 50, "used": true, "az": 313, "ss": 39, "PRN": 20}, {"el": 41, "used": true, "az": 132, "ss": 46, "PRN": 24}, {"el": 17, "used": true, "az": 193, "ss": 42, "PRN": 29}, {"el": 3, "used": true, "az": 87, "ss": 24, "PRN": 5}, {"el": 74, "used": true, "az": 300, "ss": 44, "PRN": 21}, {"el": 13, "used": true, "az": 313, "ss": 36, "PRN": 27}, {"el": 22, "used": false, "az": 136, "ss": 0, "PRN": 4}, {"el": 10, "used": true, "az": 228, "ss": 30, "PRN": 32}, {"el": 43, "used": true, "az": 217, "ss": 43, "PRN": 138}], "vdop": 2.34, "class": "SKY", "device": "/dev/ttyUSB0", "ydop": 1.67, "xdop": 0.71, "hdop": 0.8, "tdop": 1.81}], "gst": [{"time": "1970-01-01T00:00:00.000Z", "rms": 0.0, "minor": 0.0, "class": "GST", "device": "/dev/ttyUSB0", "lon": 0.0, "orient": 0.0, "lat": 0.0, "alt": 0.0, "major": 0.0}], "tpv": [{"epx": 2.676, "epv": 13.452, "climb": 0.0, "track": 0.0, "mode": 3, "epy": 6.259, "device": "/dev/ttyUSB0", "lon": -83.877440454, "alt": 346.446, "eps": 12.52, "time": "2000-04-09T15:57:11.000Z", "lat": 34.039939704, "epc": 26.9, "speed": 0.0, "class": "TPV", "ept": 0.005}]}
{"time": "2018-04-09T11:21:05.419Z", "class": "POLL", "active": 1, "sky": [{"pdop": 2.96, "time": "2000-04-09T15:57:16.000Z", "gdop": 3.47, "satellites": [{"el": 26, "used": true, "az": 291, "ss": 44, "PRN": 10}, {"el": 19, "used": true, "az": 42, "ss": 25, "PRN": 13}, {"el": 51, "used": true, "az": 42, "ss": 42, "PRN": 15}, {"el": 50, "used": true, "az": 313, "ss": 39, "PRN": 20}, {"el": 41, "used": true, "az": 132, "ss": 45, "PRN": 24}, {"el": 17, "used": true, "az": 193, "ss": 43, "PRN": 29}, {"el": 3, "used": true, "az": 87, "ss": 24, "PRN": 5}, {"el": 74, "used": true, "az": 300, "ss": 44, "PRN": 21}, {"el": 13, "used": true, "az": 313, "ss": 36, "PRN": 27}, {"el": 22, "used": false, "az": 136, "ss": 0, "PRN": 4}, {"el": 10, "used": true, "az": 228, "ss": 30, "PRN": 32}, {"el": 43, "used": true, "az": 217, "ss": 42, "PRN": 138}], "vdop": 2.34, "class": "SKY", "device": "/dev/ttyUSB0", "ydop": 1.67, "xdop": 0.71, "hdop": 0.8, "tdop": 1.81}], "gst": [{"time": "1970-01-01T00:00:00.000Z", "rms": 0.0, "minor": 0.0, "class": "GST", "device": "/dev/ttyUSB0", "lon": 0.0, "orient": 0.0, "lat": 0.0, "alt": 0.0, "major": 0.0}], "tpv": [{"epx": 2.676, "epv": 13.452, "climb": 0.0, "track": 0.0, "mode": 3, "epy": 6.259, "device": "/dev/ttyUSB0", "lon": -83.877440454, "alt": 346.446, "eps": 12.52, "time": "2000-04-09T15:57:15.000Z", "lat": 34.039939704, "epc": 26.9, "speed": 0.0, "class": "TPV", "ept": 0.005}]}
{"time": "2018-04-09T11:21:10.452Z", "class": "POLL", "active": 1, "sky": [{"pdop": 2.96, "time": "2000-04-09T15:57:19.000Z", "gdop": 3.47, "satellites": [{"el": 26, "used": true, "az": 291, "ss": 44, "PRN": 10}, {"el": 19, "used": true, "az": 42, "ss": 25, "PRN": 13}, {"el": 51, "used": true, "az": 42, "ss": 41, "PRN": 15}, {"el": 50, "used": true, "az": 313, "ss": 39, "PRN": 20}, {"el": 41, "used": true, "az": 132, "ss": 45, "PRN": 24}, {"el": 17, "used": true, "az": 193, "ss": 44, "PRN": 29}, {"el": 3, "used": true, "az": 87, "ss": 23, "PRN": 5}, {"el": 74, "used": true, "az": 300, "ss": 44, "PRN": 21}, {"el": 13, "used": true, "az": 313, "ss": 36, "PRN": 27}, {"el": 22, "used": false, "az": 136, "ss": 0, "PRN": 4}, {"el": 10, "used": true, "az": 228, "ss": 30, "PRN": 32}, {"el": 43, "used": true, "az": 217, "ss": 42, "PRN": 138}], "vdop": 2.34, "class": "SKY", "device": "/dev/ttyUSB0", "ydop": 1.67, "xdop": 0.71, "hdop": 0.8, "tdop": 1.81}], "gst": [{"time": "1970-01-01T00:00:00.000Z", "rms": 0.0, "minor": 0.0, "class": "GST", "device": "/dev/ttyUSB0", "lon": 0.0, "orient": 0.0, "lat": 0.0, "alt": 0.0, "major": 0.0}], "tpv": [{"epx": 2.676, "epv": 13.452, "climb": 0.0, "track": 0.0, "mode": 3, "epy": 6.259, "device": "/dev/ttyUSB0", "lon": -83.877440454, "alt": 346.446, "eps": 12.52, "time": "2000-04-09T15:57:21.000Z", "lat": 34.039939704, "epc": 26.9, "speed": 0.0, "class": "TPV", "ept": 0.005}]}
{"time": "2018-04-09T11:21:15.478Z", "class": "POLL", "active": 1, "sky": [{"pdop": 2.96, "time": "2000-04-09T15:57:25.000Z", "gdop": 3.47, "satellites": [{"el": 26, "used": true, "az": 291, "ss": 44, "PRN": 10}, {"el": 19, "used": true, "az": 42, "ss": 26, "PRN": 13}, {"el": 51, "used": true, "az": 42, "ss": 40, "PRN": 15}, {"el": 50, "used": true, "az": 313, "ss": 39, "PRN": 20}, {"el": 41, "used": true, "az": 132, "ss": 44, "PRN": 24}, {"el": 17, "used": true, "az": 193, "ss": 44, "PRN": 29}, {"el": 3, "used": true, "az": 87, "ss": 21, "PRN": 5}, {"el": 74, "used": true, "az": 300, "ss": 44, "PRN": 21}, {"el": 13, "used": true, "az": 313, "ss": 36, "PRN": 27}, {"el": 22, "used": false, "az": 136, "ss": 0, "PRN": 4}, {"el": 10, "used": true, "az": 228, "ss": 30, "PRN": 32}, {"el": 43, "used": true, "az": 217, "ss": 42, "PRN": 138}], "vdop": 2.34, "class": "SKY", "device": "/dev/ttyUSB0", "ydop": 1.67, "xdop": 0.71, "hdop": 0.8, "tdop": 1.81}], "gst": [{"time": "1970-01-01T00:00:00.000Z", "rms": 0.0, "minor": 0.0, "class": "GST", "device": "/dev/ttyUSB0", "lon": 0.0, "orient": 0.0, "lat": 0.0, "alt": 0.0, "major": 0.0}], "tpv": [{"epx": 2.676, "epv": 13.452, "climb": 0.0, "track": 0.0, "mode": 3, "epy": 6.259, "device": "/dev/ttyUSB0", "lon": -83.877440454, "alt": 346.446, "eps": 12.52, "time": "2000-04-09T15:57:26.000Z", "lat": 34.039939704, "epc": 26.9, "speed": 0.0, "class": "TPV", "ept": 0.005}]}
{"time": "2018-04-09T11:21:20.504Z", "class": "POLL", "active": 1, "sky": [{"pdop": 2.96, "time": "2000-04-09T15:57:31.000Z", "gdop": 3.47, "satellites": [{"el": 26, "used": true, "az": 291, "ss": 45, "PRN": 10}, {"el": 19, "used": true, "az": 42, "ss": 27, "PRN": 13}, {"el": 51, "used": true, "az": 42, "ss": 40, "PRN": 15}, {"el": 50, "used": true, "az": 313, "ss": 39, "PRN": 20}, {"el": 41, "used": true, "az": 132, "ss": 44, "PRN": 24}, {"el": 17, "used": true, "az": 193, "ss": 44, "PRN": 29}, {"el": 3, "used": true, "az": 87, "ss": 22, "PRN": 5}, {"el": 74, "used": true, "az": 300, "ss": 44, "PRN": 21}, {"el": 13, "used": true, "az": 313, "ss": 36, "PRN": 27}, {"el": 22, "used": false, "az": 136, "ss": 0, "PRN": 4}, {"el": 10, "used": true, "az": 228, "ss": 30, "PRN": 32}, {"el": 43, "used": true, "az": 217, "ss": 42, "PRN": 138}], "vdop": 2.34, "class": "SKY", "device": "/dev/ttyUSB0", "ydop": 1.67, "xdop": 0.71, "hdop": 0.8, "tdop": 1.81}], "gst": [{"time": "1970-01-01T00:00:00.000Z", "rms": 0.0, "minor": 0.0, "class": "GST", "device": "/dev/ttyUSB0", "lon": 0.0, "orient": 0.0, "lat": 0.0, "alt": 0.0, "major": 0.0}], "tpv": [{"epx": 2.676, "epv": 13.452, "climb": 0.0, "track": 0.0, "mode": 3, "epy": 6.259, "device": "/dev/ttyUSB0", "lon": -83.877440454, "alt": 346.446, "eps": 12.52, "time": "2000-04-09T15:57:31.000Z", "lat": 34.039939704, "epc": 26.9, "speed": 0.0, "class": "TPV", "ept": 0.005}]}
{"time": "2018-04-09T11:21:25.535Z", "class": "POLL", "active": 1, "sky": [{"pdop": 2.96, "time": "2000-04-09T15:57:34.000Z", "gdop": 3.47, "satellites": [{"el": 26, "used": true, "az": 291, "ss": 45, "PRN": 10}, {"el": 19, "used": true, "az": 42, "ss": 27, "PRN": 13}, {"el": 51, "used": true, "az": 42, "ss": 40, "PRN": 15}, {"el": 50, "used": true, "az": 313, "ss": 39, "PRN": 20}, {"el": 41, "used": true, "az": 132, "ss": 44, "PRN": 24}, {"el": 17, "used": true, "az": 193, "ss": 44, "PRN": 29}, {"el": 3, "used": true, "az": 87, "ss": 22, "PRN": 5}, {"el": 74, "used": true, "az": 300, "ss": 44, "PRN": 21}, {"el": 13, "used": true, "az": 313, "ss": 36, "PRN": 27}, {"el": 22, "used": false, "az": 136, "ss": 0, "PRN": 4}, {"el": 10, "used": true, "az": 228, "ss": 30, "PRN": 32}, {"el": 43, "used": true, "az": 217, "ss": 42, "PRN": 138}], "vdop": 2.34, "class": "SKY", "device": "/dev/ttyUSB0", "ydop": 1.67, "xdop": 0.71, "hdop": 0.8, "tdop": 1.81}], "gst": [{"time": "1970-01-01T00:00:00.000Z", "rms": 0.0, "minor": 0.0, "class": "GST", "device": "/dev/ttyUSB0", "lon": 0.0, "orient": 0.0, "lat": 0.0, "alt": 0.0, "major": 0.0}], "tpv": [{"epx": 2.676, "epv": 13.452, "climb": 0.0, "track": 0.0, "mode": 3, "epy": 6.259, "device": "/dev/ttyUSB0", "lon": -83.877440454, "alt": 346.446, "eps": 12.52, "time": "2000-04-09T15:57:36.000Z", "lat": 34.039939704, "epc": 26.9, "speed": 0.0, "class": "TPV", "ept": 0.005}]}
{"time": "2018-04-09T11:21:30.563Z", "class": "POLL", "active": 1, "sky": [{"pdop": 2.96, "time": "2000-04-09T15:57:40.000Z", "gdop": 3.47, "satellites": [{"el": 26, "used": true, "az": 291, "ss": 45, "PRN": 10}, {"el": 19, "used": true, "az": 42, "ss": 27, "PRN": 13}, {"el": 51, "used": true, "az": 42, "ss": 40, "PRN": 15}, {"el": 50, "used": true, "az": 313, "ss": 39, "PRN": 20}, {"el": 41, "used": true, "az": 132, "ss": 44, "PRN": 24}, {"el": 17, "used": true, "az": 193, "ss": 44, "PRN": 29}, {"el": 3, "used": true, "az": 87, "ss": 22, "PRN": 5}, {"el": 74, "used": true, "az": 300, "ss": 44, "PRN": 21}, {"el": 13, "used": true, "az": 313, "ss": 36, "PRN": 27}, {"el": 22, "used": false, "az": 136, "ss": 0, "PRN": 4}, {"el": 10, "used": true, "az": 228, "ss": 30, "PRN": 32}, {"el": 43, "used": true, "az": 217, "ss": 42, "PRN": 138}], "vdop": 2.34, "class": "SKY", "device": "/dev/ttyUSB0", "ydop": 1.67, "xdop": 0.71, "hdop": 0.8, "tdop": 1.81}], "gst": [{"time": "1970-01-01T00:00:00.000Z", "rms": 0.0, "minor": 0.0, "class": "GST", "device": "/dev/ttyUSB0", "lon": 0.0, "orient": 0.0, "lat": 0.0, "alt": 0.0, "major": 0.0}], "tpv": [{"epx": 2.676, "epv": 13.452, "climb": 0.0, "track": 0.0, "mode": 3, "epy": 6.259, "device": "/dev/ttyUSB0", "lon": -83.877440454, "alt": 346.446, "eps": 12.52, "time": "2000-04-09T15:57:41.000Z", "lat": 34.039939704, "epc": 26.9, "speed": 0.0, "class": "TPV", "ept": 0.005}]}
{"time": "2018-04-09T11:21:35.589Z", "class": "POLL", "active": 1, "sky": [{"pdop": 2.96, "time": "2000-04-09T15:57:46.000Z", "gdop": 3.47, "satellites": [{"el": 26, "used": true, "az": 291, "ss": 44, "PRN": 10}, {"el": 19, "used": true, "az": 42, "ss": 20, "PRN": 13}, {"el": 51, "used": true, "az": 42, "ss": 41, "PRN": 15}, {"el": 50, "used": true, "az": 313, "ss": 38, "PRN": 20}, {"el": 41, "used": true, "az": 132, "ss": 44, "PRN": 24}, {"el": 17, "used": true, "az": 193, "ss": 43, "PRN": 29}, {"el": 3, "used": true, "az": 87, "ss": 22, "PRN": 5}, {"el": 74, "used": true, "az": 300, "ss": 44, "PRN": 21}, {"el": 13, "used": true, "az": 313, "ss": 35, "PRN": 27}, {"el": 22, "used": false, "az": 136, "ss": 0, "PRN": 4}, {"el": 10, "used": true, "az": 228, "ss": 30, "PRN": 32}, {"el": 43, "used": true, "az": 217, "ss": 42, "PRN": 138}], "vdop": 2.34, "class": "SKY", "device": "/dev/ttyUSB0", "ydop": 1.67, "xdop": 0.71, "hdop": 0.8, "tdop": 1.81}], "gst": [{"time": "1970-01-01T00:00:00.000Z", "rms": 0.0, "minor": 0.0, "class": "GST", "device": "/dev/ttyUSB0", "lon": 0.0, "orient": 0.0, "lat": 0.0, "alt": 0.0, "major": 0.0}], "tpv": [{"epx": 2.676, "epv": 13.452, "climb": 0.0, "track": 0.0, "mode": 3, "epy": 6.259, "device": "/dev/ttyUSB0", "lon": -83.877439299, "alt": 345.622, "eps": 12.52, "time": "2000-04-09T15:57:46.000Z", "lat": 34.039944721, "epc": 26.9, "speed": 0.0, "class": "TPV", "ept": 0.005}]}
{"time": "2018-04-09T11:21:40.615Z", "class": "POLL", "active": 1, "sky": [{"pdop": 2.96, "time": "2000-04-09T15:57:49.000Z", "gdop": 3.47, "satellites": [{"el": 26, "used": true, "az": 291, "ss": 44, "PRN": 10}, {"el": 19, "used": true, "az": 42, "ss": 18, "PRN": 13}, {"el": 51, "used": true, "az": 42, "ss": 41, "PRN": 15}, {"el": 50, "used": true, "az": 313, "ss": 38, "PRN": 20}, {"el": 41, "used": true, "az": 132, "ss": 44, "PRN": 24}, {"el": 17, "used": true, "az": 193, "ss": 43, "PRN": 29}, {"el": 3, "used": true, "az": 87, "ss": 22, "PRN": 5}, {"el": 74, "used": true, "az": 300, "ss": 44, "PRN": 21}, {"el": 13, "used": true, "az": 313, "ss": 35, "PRN": 27}, {"el": 22, "used": false, "az": 136, "ss": 0, "PRN": 4}, {"el": 10, "used": true, "az": 228, "ss": 30, "PRN": 32}, {"el": 43, "used": true, "az": 217, "ss": 42, "PRN": 138}], "vdop": 2.34, "class": "SKY", "device": "/dev/ttyUSB0", "ydop": 1.67, "xdop": 0.71, "hdop": 0.8, "tdop": 1.81}], "gst": [{"time": "1970-01-01T00:00:00.000Z", "rms": 0.0, "minor": 0.0, "class": "GST", "device": "/dev/ttyUSB0", "lon": 0.0, "orient": 0.0, "lat": 0.0, "alt": 0.0, "major": 0.0}], "tpv": [{"epx": 2.676, "epv": 13.452, "climb": 0.0, "track": 0.0, "mode": 3, "epy": 6.259, "device": "/dev/ttyUSB0", "lon": -83.877439299, "alt": 345.622, "eps": 12.52, "time": "2000-04-09T15:57:51.000Z", "lat": 34.039944721, "epc": 26.9, "speed": 0.0, "class": "TPV", "ept": 0.005}]}
{"time": "2018-04-09T11:21:45.641Z", "class": "POLL", "active": 1, "sky": [{"pdop": 2.96, "time": "2000-04-09T15:57:55.000Z", "gdop": 3.47, "satellites": [{"el": 26, "used": true, "az": 291, "ss": 44, "PRN": 10}, {"el": 19, "used": true, "az": 42, "ss": 17, "PRN": 13}, {"el": 51, "used": true, "az": 42, "ss": 42, "PRN": 15}, {"el": 50, "used": true, "az": 313, "ss": 38, "PRN": 20}, {"el": 41, "used": true, "az": 132, "ss": 44, "PRN": 24}, {"el": 17, "used": true, "az": 193, "ss": 42, "PRN": 29}, {"el": 3, "used": true, "az": 87, "ss": 23, "PRN": 5}, {"el": 74, "used": true, "az": 300, "ss": 44, "PRN": 21}, {"el": 13, "used": true, "az": 313, "ss": 35, "PRN": 27}, {"el": 22, "used": false, "az": 136, "ss": 0, "PRN": 4}, {"el": 10, "used": true, "az": 228, "ss": 31, "PRN": 32}, {"el": 43, "used": true, "az": 217, "ss": 42, "PRN": 138}], "vdop": 2.34, "class": "SKY", "device": "/dev/ttyUSB0", "ydop": 1.67, "xdop": 0.71, "hdop": 0.8, "tdop": 1.81}], "gst": [{"time": "1970-01-01T00:00:00.000Z", "rms": 0.0, "minor": 0.0, "class": "GST", "device": "/dev/ttyUSB0", "lon": 0.0, "orient": 0.0, "lat": 0.0, "alt": 0.0, "major": 0.0}], "tpv": [{"epx": 2.676, "epv": 13.452, "climb": 0.0, "track": 0.0, "mode": 3, "epy": 6.259, "device": "/dev/ttyUSB0", "lon": -83.877439299, "alt": 345.622, "eps": 12.52, "time": "2000-04-09T15:57:56.000Z", "lat": 34.039944721, "epc": 26.9, "speed": 0.0, "class": "TPV", "ept": 0.005}]}
{"time": "2018-04-09T11:21:50.668Z", "class": "POLL", "active": 1, "sky": [{"pdop": 2.96, "time": "2000-04-09T15:58:01.000Z", "gdop": 3.47, "satellites": [{"el": 26, "used": true, "az": 291, "ss": 44, "PRN": 10}, {"el": 19, "used": true, "az": 42, "ss": 18, "PRN": 13}, {"el": 51, "used": true, "az": 42, "ss": 38, "PRN": 15}, {"el": 50, "used": true, "az": 313, "ss": 34, "PRN": 20}, {"el": 41, "used": true, "az": 132, "ss": 36, "PRN": 24}, {"el": 17, "used": true, "az": 193, "ss": 41, "PRN": 29}, {"el": 3, "used": true, "az": 87, "ss": 23, "PRN": 5}, {"el": 74, "used": true, "az": 300, "ss": 43, "PRN": 21}, {"el": 13, "used": true, "az": 313, "ss": 31, "PRN": 27}, {"el": 22, "used": false, "az": 136, "ss": 0, "PRN": 4}, {"el": 10, "used": true, "az": 228, "ss": 26, "PRN": 32}, {"el": 43, "used": true, "az": 217, "ss": 36, "PRN": 138}], "vdop": 2.34, "class": "SKY", "device": "/dev/ttyUSB0", "ydop": 1.67, "xdop": 0.71, "hdop": 0.8, "tdop": 1.81}], "gst": [{"time": "1970-01-01T00:00:00.000Z", "rms": 0.0, "minor": 0.0, "class": "GST", "device": "/dev/ttyUSB0", "lon": 0.0, "orient": 0.0, "lat": 0.0, "alt": 0.0, "major": 0.0}], "tpv": [{"epx": 2.676, "epv": 13.452, "climb": 0.0, "track": 0.0, "mode": 3, "epy": 6.259, "device": "/dev/ttyUSB0", "lon": -83.877451221, "alt": 346.357, "eps": 12.52, "time": "2000-04-09T15:58:01.000Z", "lat": 34.039940242, "epc": 26.9, "speed": 0.0, "class": "TPV", "ept": 0.005}]}
{"time": "2018-04-09T11:21:55.694Z", "class": "POLL", "active": 1, "sky": [{"pdop": 2.96, "time": "2000-04-09T15:58:04.000Z", "gdop": 3.47, "satellites": [{"el": 26, "used": true, "az": 291, "ss": 44, "PRN": 10}, {"el": 19, "used": true, "az": 42, "ss": 22, "PRN": 13}, {"el": 51, "used": true, "az": 42, "ss": 36, "PRN": 15}, {"el": 50, "used": true, "az": 313, "ss": 36, "PRN": 20}, {"el": 41, "used": true, "az": 132, "ss": 39, "PRN": 24}, {"el": 17, "used": true, "az": 193, "ss": 41, "PRN": 29}, {"el": 3, "used": true, "az": 87, "ss": 24, "PRN": 5}, {"el": 74, "used": true, "az": 300, "ss": 43, "PRN": 21}, {"el": 13, "used": true, "az": 313, "ss": 20, "PRN": 27}, {"el": 22, "used": false, "az": 136, "ss": 0, "PRN": 4}, {"el": 10, "used": true, "az": 228, "ss": 29, "PRN": 32}, {"el": 43, "used": true, "az": 217, "ss": 36, "PRN": 138}], "vdop": 2.34, "class": "SKY", "device": "/dev/ttyUSB0", "ydop": 1.67, "xdop": 0.71, "hdop": 0.8, "tdop": 1.81}], "gst": [{"time": "1970-01-01T00:00:00.000Z", "rms": 0.0, "minor": 0.0, "class": "GST", "device": "/dev/ttyUSB0", "lon": 0.0, "orient": 0.0, "lat": 0.0, "alt": 0.0, "major": 0.0}], "tpv": [{"epx": 2.676, "epv": 13.452, "climb": 0.0, "track": 0.0, "mode": 3, "epy": 6.259, "device": "/dev/ttyUSB0", "lon": -83.877451221, "alt": 346.357, "eps": 12.52, "time": "2000-04-09T15:58:06.000Z", "lat": 34.039940242, "epc": 26.9, "speed": 0.0, "class": "TPV", "ept": 0.005}]}
